{
    "type": "FeatureCollection",
    "features": [
        {
            "type": "Feature",
            "geometry": {
                "type": "Point",
                "coordinates": [
                    13.5,
                    -14.916666666
                ]
            },
            "properties": {
                "name": "Lubango",
                "article": "https://en.wikipedia.org/wiki/Lubango"
            }
        },
        {
            "type": "Feature",
            "geometry": {
                "type": "Point",
                "coordinates": [
                    15.733333333,
                    -12.766666666
                ]
            },
            "properties": {
                "name": "Huambo",
                "article": "https://en.wikipedia.org/wiki/Huambo"
            }
        },
        {
            "type": "Feature",
            "geometry": {
                "type": "Point",
                "coordinates": [
                    13.416666666,
                    -12.55
                ]
            },
            "properties": {
                "name": "Benguela",
                "article": "https://en.wikipedia.org/wiki/Benguela"
            }
        },
        {
            "type": "Feature",
            "geometry": {
                "type": "Point",
                "coordinates": [
                    12.150833333,
                    -15.195277777
                ]
            },
            "properties": {
                "name": "Moçâmedes",
                "article": "https://en.wikipedia.org/wiki/Mo%C3%A7%C3%A2medes"
            }
        },
        {
            "type": "Feature",
            "geometry": {
                "type": "Point",
                "coordinates": [
                    13.546388888,
                    -12.35
                ]
            },
            "properties": {
                "name": "Lobito",
                "article": "https://en.wikipedia.org/wiki/Lobito"
            }
        },
        {
            "type": "Feature",
            "geometry": {
                "type": "Point",
                "coordinates": [
                    13.689816,
                    -9.11297
                ]
            },
            "properties": {
                "name": "Ícolo e Bengo",
                "article": "https://en.wikipedia.org/wiki/%C3%8Dcolo_e_Bengo"
            }
        },
        {
            "type": "Feature",
            "geometry": {
                "type": "Point",
                "coordinates": [
                    12.2,
                    -5.566667
                ]
            },
            "properties": {
                "name": "Cabinda",
                "article": "https://en.wikipedia.org/wiki/Cabinda_(city)"
            }
        },
        {
            "type": "Feature",
            "geometry": {
                "type": "Point",
                "coordinates": [
                    14.25,
                    -6.266666666
                ]
            },
            "properties": {
                "name": "M'banza-Kongo",
                "article": "https://en.wikipedia.org/wiki/M%27banza-Kongo"
            }
        },
        {
            "type": "Feature",
            "geometry": {
                "type": "Point",
                "coordinates": [
                    19.913,
                    -11.783
                ]
            },
            "properties": {
                "name": "Luena",
                "article": "https://en.wikipedia.org/wiki/Luena,_Angola"
            }
        },
        {
            "type": "Feature",
            "geometry": {
                "type": "Point",
                "coordinates": [
                    16.34096,
                    -9.54015
                ]
            },
            "properties": {
                "name": "Malanje",
                "article": "https://en.wikipedia.org/wiki/Malanje"
            }
        },
        {
            "type": "Feature",
            "geometry": {
                "type": "Point",
                "coordinates": [
                    16.35,
                    -9.533333333
                ]
            },
            "properties": {
                "name": "Malanje",
                "article": "https://en.wikipedia.org/wiki/Malanje"
            }
        },
        {
            "type": "Feature",
            "geometry": {
                "type": "Point",
                "coordinates": [
                    15.733333333,
                    -17.066666666
                ]
            },
            "properties": {
                "name": "Ondjiva",
                "article": "https://en.wikipedia.org/wiki/Ondjiva"
            }
        },
        {
            "type": "Feature",
            "geometry": {
                "type": "Point",
                "coordinates": [
                    13.265,
                    -8.99833333
                ]
            },
            "properties": {
                "name": "Belas",
                "article": "https://en.wikipedia.org/wiki/Belas,_Luanda"
            }
        },
        {
            "type": "Feature",
            "geometry": {
                "type": "Point",
                "coordinates": [
                    13.8417,
                    -11.2052
                ]
            },
            "properties": {
                "name": "Sumbe",
                "article": "https://en.wikipedia.org/wiki/Sumbe"
            }
        },
        {
            "type": "Feature",
            "geometry": {
                "type": "Point",
                "coordinates": [
                    13.198693,
                    -12.612801
                ]
            },
            "properties": {
                "name": "Baía Farta",
                "article": "https://en.wikipedia.org/wiki/Ba%C3%ADa_Farta"
            }
        },
        {
            "type": "Feature",
            "geometry": {
                "type": "Point",
                "coordinates": [
                    13.66425,
                    -8.57848
                ]
            },
            "properties": {
                "name": "Caxito",
                "article": "https://en.wikipedia.org/wiki/Caxito"
            }
        },
        {
            "type": "Feature",
            "geometry": {
                "type": "Point",
                "coordinates": [
                    14.789444444,
                    -7.133611111
                ]
            },
            "properties": {
                "name": "Songo",
                "article": "https://en.wikipedia.org/wiki/Songo,_Angola"
            }
        },
        {
            "type": "Feature",
            "geometry": {
                "type": "Point",
                "coordinates": [
                    14.7949257,
                    -8.6752822
                ]
            },
            "properties": {
                "name": "Bula Atumba",
                "article": "https://en.wikipedia.org/wiki/Bula_Atumba"
            }
        },
        {
            "type": "Feature",
            "geometry": {
                "type": "Point",
                "coordinates": [
                    14.91666667,
                    -9.3
                ]
            },
            "properties": {
                "name": "N'dalatando",
                "article": "https://en.wikipedia.org/wiki/N%27dalatando"
            }
        },
        {
            "type": "Feature",
            "geometry": {
                "type": "Point",
                "coordinates": [
                    12.546666666,
                    -4.795
                ]
            },
            "properties": {
                "name": "Buco-Zau",
                "article": "https://en.wikipedia.org/wiki/Buco-Zau"
            }
        },
        {
            "type": "Feature",
            "geometry": {
                "type": "Point",
                "coordinates": [
                    13.366666666,
                    -8.783333333
                ]
            },
            "properties": {
                "name": "Cacuaco",
                "article": "https://en.wikipedia.org/wiki/Cacuaco"
            }
        },
        {
            "type": "Feature",
            "geometry": {
                "type": "Point",
                "coordinates": [
                    13.29583333,
                    -8.83888889
                ]
            },
            "properties": {
                "name": "Cazenga",
                "article": "https://en.wikipedia.org/wiki/Cazenga"
            }
        },
        {
            "type": "Feature",
            "geometry": {
                "type": "Point",
                "coordinates": [
                    14.366666666,
                    -10.85
                ]
            },
            "properties": {
                "name": "Gabela",
                "article": "https://en.wikipedia.org/wiki/Gabela,_Angola"
            }
        },
        {
            "type": "Feature",
            "geometry": {
                "type": "Point",
                "coordinates": [
                    13.760203,
                    -10.732563
                ]
            },
            "properties": {
                "name": "Porto Amboim",
                "article": "https://en.wikipedia.org/wiki/Porto_Amboim"
            }
        },
        {
            "type": "Feature",
            "geometry": {
                "type": "Point",
                "coordinates": [
                    22.05,
                    -11.516666666
                ]
            },
            "properties": {
                "name": "Dilolo Lake",
                "article": "https://en.wikipedia.org/wiki/Dilolo_Lake"
            }
        },
        {
            "type": "Feature",
            "geometry": {
                "type": "Point",
                "coordinates": [
                    15.183333333,
                    -12.466666666
                ]
            },
            "properties": {
                "name": "Mount Moco",
                "article": "https://en.wikipedia.org/wiki/Mount_Moco"
            }
        },
        {
            "type": "Feature",
            "geometry": {
                "type": "Point",
                "coordinates": [
                    14.974722222,
                    -16.746666666
                ]
            },
            "properties": {
                "name": "Xangongo",
                "article": "https://en.wikipedia.org/wiki/Xangongo"
            }
        },
        {
            "type": "Feature",
            "geometry": {
                "type": "Point",
                "coordinates": [
                    15.85555556,
                    -12.19583333
                ]
            },
            "properties": {
                "name": "Bailundo",
                "article": "https://en.wikipedia.org/wiki/Bailundo"
            }
        },
        {
            "type": "Feature",
            "geometry": {
                "type": "Point",
                "coordinates": [
                    19.2865,
                    -10.13652
                ]
            },
            "properties": {
                "name": "Cacolo",
                "article": "https://en.wikipedia.org/wiki/Cacolo"
            }
        },
        {
            "type": "Feature",
            "geometry": {
                "type": "Point",
                "coordinates": [
                    13.266666666,
                    -8.875
                ]
            },
            "properties": {
                "name": "Quilamba Quiaxi",
                "article": "https://en.wikipedia.org/wiki/Quilamba_Quiaxi"
            }
        },
        {
            "type": "Feature",
            "geometry": {
                "type": "Point",
                "coordinates": [
                    12.1118253,
                    -5.0548097
                ]
            },
            "properties": {
                "name": "Lagoa Massabi",
                "article": null
            }
        },
        {
            "type": "Feature",
            "geometry": {
                "type": "Point",
                "coordinates": [
                    13.371025,
                    -8.91166
                ]
            },
            "properties": {
                "name": "Viana",
                "article": "https://en.wikipedia.org/wiki/Viana,_Luanda"
            }
        },
        {
            "type": "Feature",
            "geometry": {
                "type": "Point",
                "coordinates": [
                    20.835055555,
                    -7.380055555
                ]
            },
            "properties": {
                "name": "Dundo",
                "article": "https://en.wikipedia.org/wiki/Dundo"
            }
        },
        {
            "type": "Feature",
            "geometry": {
                "type": "Point",
                "coordinates": [
                    11.85,
                    -15.8
                ]
            },
            "properties": {
                "name": "Tômbwa",
                "article": "https://en.wikipedia.org/wiki/T%C3%B4mbua"
            }
        },
        {
            "type": "Feature",
            "geometry": {
                "type": "Point",
                "coordinates": [
                    15.119444444,
                    -11.358333333
                ]
            },
            "properties": {
                "name": "Waku-Kungo",
                "article": "https://en.wikipedia.org/wiki/Uaco_Cungo"
            }
        },
        {
            "type": "Feature",
            "geometry": {
                "type": "Point",
                "coordinates": [
                    13.816666666,
                    -7.816666666
                ]
            },
            "properties": {
                "name": "Bela Vista",
                "article": "https://en.wikipedia.org/wiki/Bela_Vista,_Angola"
            }
        },
        {
            "type": "Feature",
            "geometry": {
                "type": "Point",
                "coordinates": [
                    14.216666666,
                    -7.833333333
                ]
            },
            "properties": {
                "name": "Zala",
                "article": "https://en.wikipedia.org/wiki/Zala,_Angola"
            }
        },
        {
            "type": "Feature",
            "geometry": {
                "type": "Point",
                "coordinates": [
                    13.346327777,
                    -8.195688888
                ]
            },
            "properties": {
                "name": "Tabi",
                "article": "https://en.wikipedia.org/wiki/Tabi,_Angola"
            }
        },
        {
            "type": "Feature",
            "geometry": {
                "type": "Point",
                "coordinates": [
                    14.63333333,
                    -10.03333333
                ]
            },
            "properties": {
                "name": "Calulo",
                "article": "https://en.wikipedia.org/wiki/Calulo"
            }
        },
        {
            "type": "Feature",
            "geometry": {
                "type": "Point",
                "coordinates": [
                    14.42277778,
                    -9.69416667
                ]
            },
            "properties": {
                "name": "Dondo",
                "article": "https://en.wikipedia.org/wiki/Dondo,_Angola"
            }
        },
        {
            "type": "Feature",
            "geometry": {
                "type": "Point",
                "coordinates": [
                    13.24863889,
                    -15.07108333
                ]
            },
            "properties": {
                "name": "Serra da Leba",
                "article": "https://en.wikipedia.org/wiki/Serra_da_Leba"
            }
        },
        {
            "type": "Feature",
            "geometry": {
                "type": "Point",
                "coordinates": [
                    13.466666666,
                    -15.316666666
                ]
            },
            "properties": {
                "name": "Serra da Leba",
                "article": "https://en.wikipedia.org/wiki/Serra_da_Leba"
            }
        },
        {
            "type": "Feature",
            "geometry": {
                "type": "Point",
                "coordinates": [
                    15.23333333,
                    -8.7
                ]
            },
            "properties": {
                "name": "Gombe",
                "article": "https://en.wikipedia.org/wiki/Gombe,_Angola"
            }
        },
        {
            "type": "Feature",
            "geometry": {
                "type": "Point",
                "coordinates": [
                    12.326144444,
                    -6.119730555
                ]
            },
            "properties": {
                "name": "Kwanda Island",
                "article": "https://en.wikipedia.org/wiki/Kwanda_Island"
            }
        },
        {
            "type": "Feature",
            "geometry": {
                "type": "Point",
                "coordinates": [
                    14.11666667,
                    -8.16666667
                ]
            },
            "properties": {
                "name": "Kanacassala",
                "article": "https://en.wikipedia.org/wiki/Canacassala"
            }
        },
        {
            "type": "Feature",
            "geometry": {
                "type": "Point",
                "coordinates": [
                    14.95,
                    -8.5065
                ]
            },
            "properties": {
                "name": "Quiage",
                "article": "https://en.wikipedia.org/wiki/Quiage"
            }
        },
        {
            "type": "Feature",
            "geometry": {
                "type": "Point",
                "coordinates": [
                    13.832852,
                    -8.317825
                ]
            },
            "properties": {
                "name": "Kikabo",
                "article": "https://en.wikipedia.org/wiki/Quicabo"
            }
        },
        {
            "type": "Feature",
            "geometry": {
                "type": "Point",
                "coordinates": [
                    14.252,
                    -8.763
                ]
            },
            "properties": {
                "name": "Kixico",
                "article": "https://en.wikipedia.org/wiki/Kixico"
            }
        },
        {
            "type": "Feature",
            "geometry": {
                "type": "Point",
                "coordinates": [
                    13.7,
                    -8.533333333
                ]
            },
            "properties": {
                "name": "Mabubas",
                "article": "https://en.wikipedia.org/wiki/Mabubas"
            }
        },
        {
            "type": "Feature",
            "geometry": {
                "type": "Point",
                "coordinates": [
                    13.235713,
                    -8.812152
                ]
            },
            "properties": {
                "name": "Palácio de Ferro",
                "article": "https://en.wikipedia.org/wiki/Pal%C3%A1cio_de_Ferro"
            }
        },
        {
            "type": "Feature",
            "geometry": {
                "type": "Point",
                "coordinates": [
                    14.666666666,
                    -8.6
                ]
            },
            "properties": {
                "name": "Paredes",
                "article": "https://en.wikipedia.org/wiki/Paredes,_Angola"
            }
        },
        {
            "type": "Feature",
            "geometry": {
                "type": "Point",
                "coordinates": [
                    14.416666666,
                    -8.516666666
                ]
            },
            "properties": {
                "name": "Piri",
                "article": "https://en.wikipedia.org/wiki/Piri,_Angola"
            }
        },
        {
            "type": "Feature",
            "geometry": {
                "type": "Point",
                "coordinates": [
                    13.234444444,
                    -8.838333333
                ]
            },
            "properties": {
                "name": "Luanda",
                "article": "https://en.wikipedia.org/wiki/Luanda"
            }
        },
        {
            "type": "Feature",
            "geometry": {
                "type": "Point",
                "coordinates": [
                    18.3,
                    -14.93333333
                ]
            },
            "properties": {
                "name": "Vila Robert Williams",
                "article": "https://en.wikipedia.org/wiki/Vila_Robert_Williams"
            }
        },
        {
            "type": "Feature",
            "geometry": {
                "type": "Point",
                "coordinates": [
                    14.1485,
                    -8.6616
                ]
            },
            "properties": {
                "name": "Úcua",
                "article": "https://en.wikipedia.org/wiki/%C3%9Acua"
            }
        },
        {
            "type": "Feature",
            "geometry": {
                "type": "Point",
                "coordinates": [
                    16.9,
                    -11.91666667
                ]
            },
            "properties": {
                "name": "Belo Horizonte",
                "article": "https://en.wikipedia.org/wiki/Belo_Horizonte,_Angola"
            }
        },
        {
            "type": "Feature",
            "geometry": {
                "type": "Point",
                "coordinates": [
                    17.83333333,
                    -11.38333333
                ]
            },
            "properties": {
                "name": "Cambembe",
                "article": "https://en.wikipedia.org/wiki/Cambembe"
            }
        },
        {
            "type": "Feature",
            "geometry": {
                "type": "Point",
                "coordinates": [
                    14.3449,
                    -8.2997
                ]
            },
            "properties": {
                "name": "Kage",
                "article": "https://en.wikipedia.org/wiki/Cage-Mazumbo"
            }
        },
        {
            "type": "Feature",
            "geometry": {
                "type": "Point",
                "coordinates": [
                    14.58333333,
                    -8.5
                ]
            },
            "properties": {
                "name": "Quibaxe",
                "article": "https://en.wikipedia.org/wiki/Quibaxe"
            }
        },
        {
            "type": "Feature",
            "geometry": {
                "type": "Point",
                "coordinates": [
                    14.451271,
                    -8.181188
                ]
            },
            "properties": {
                "name": "Kicunzo",
                "article": "https://en.wikipedia.org/wiki/Kicunzo"
            }
        },
        {
            "type": "Feature",
            "geometry": {
                "type": "Point",
                "coordinates": [
                    13.61666667,
                    -14.3
                ]
            },
            "properties": {
                "name": "Lola",
                "article": "https://en.wikipedia.org/wiki/Lola,_Namibe"
            }
        },
        {
            "type": "Feature",
            "geometry": {
                "type": "Point",
                "coordinates": [
                    15.493333333,
                    -12.144722222
                ]
            },
            "properties": {
                "name": "Q10332098",
                "article": null
            }
        },
        {
            "type": "Feature",
            "geometry": {
                "type": "Point",
                "coordinates": [
                    14.2,
                    -8.01666667
                ]
            },
            "properties": {
                "name": "Muxiluando",
                "article": "https://en.wikipedia.org/wiki/Muxaluando"
            }
        },
        {
            "type": "Feature",
            "geometry": {
                "type": "Point",
                "coordinates": [
                    15.9,
                    -14.2
                ]
            },
            "properties": {
                "name": "Q10370349",
                "article": null
            }
        },
        {
            "type": "Feature",
            "geometry": {
                "type": "Point",
                "coordinates": [
                    13.16667,
                    -13.71667
                ]
            },
            "properties": {
                "name": "Serra da Neve",
                "article": null
            }
        },
        {
            "type": "Feature",
            "geometry": {
                "type": "Point",
                "coordinates": [
                    14.940277777,
                    -7.2025
                ]
            },
            "properties": {
                "name": "Q10370416",
                "article": null
            }
        },
        {
            "type": "Feature",
            "geometry": {
                "type": "Point",
                "coordinates": [
                    12.877028,
                    -15.938057
                ]
            },
            "properties": {
                "name": "Tchitundo-Hulu",
                "article": null
            }
        },
        {
            "type": "Feature",
            "geometry": {
                "type": "Point",
                "coordinates": [
                    13.252275,
                    -8.884285
                ]
            },
            "properties": {
                "name": "Vila Estoril",
                "article": "https://en.wikipedia.org/wiki/Vila_Estoril"
            }
        },
        {
            "type": "Feature",
            "geometry": {
                "type": "Point",
                "coordinates": [
                    14.2167,
                    -9.28333
                ]
            },
            "properties": {
                "name": "Zenza do Itombe",
                "article": "https://en.wikipedia.org/wiki/Zenza_do_Itombe"
            }
        },
        {
            "type": "Feature",
            "geometry": {
                "type": "Point",
                "coordinates": [
                    13.36666667,
                    -8.46666667
                ]
            },
            "properties": {
                "name": "Barra do Dande",
                "article": "https://en.wikipedia.org/wiki/Barra_do_Dande"
            }
        },
        {
            "type": "Feature",
            "geometry": {
                "type": "Point",
                "coordinates": [
                    21.8,
                    -14.65
                ]
            },
            "properties": {
                "name": "Q21407014",
                "article": null
            }
        },
        {
            "type": "Feature",
            "geometry": {
                "type": "Point",
                "coordinates": [
                    21.65,
                    -17.733333333
                ]
            },
            "properties": {
                "name": "Q21407012",
                "article": null
            }
        },
        {
            "type": "Feature",
            "geometry": {
                "type": "Point",
                "coordinates": [
                    15.018611111,
                    -9.441388888
                ]
            },
            "properties": {
                "name": "Q21407486",
                "article": null
            }
        },
        {
            "type": "Feature",
            "geometry": {
                "type": "Point",
                "coordinates": [
                    14.658333333,
                    -9.955555555
                ]
            },
            "properties": {
                "name": "Q21407485",
                "article": null
            }
        },
        {
            "type": "Feature",
            "geometry": {
                "type": "Point",
                "coordinates": [
                    14.166666666,
                    -8.666666666
                ]
            },
            "properties": {
                "name": "Q21407514",
                "article": null
            }
        },
        {
            "type": "Feature",
            "geometry": {
                "type": "Point",
                "coordinates": [
                    14.883333333,
                    -9.166666666
                ]
            },
            "properties": {
                "name": "Q21407527",
                "article": null
            }
        },
        {
            "type": "Feature",
            "geometry": {
                "type": "Point",
                "coordinates": [
                    14.45,
                    -7.63333
                ]
            },
            "properties": {
                "name": "Q21407529",
                "article": null
            }
        },
        {
            "type": "Feature",
            "geometry": {
                "type": "Point",
                "coordinates": [
                    15.066666666,
                    -9.05
                ]
            },
            "properties": {
                "name": "Q21407532",
                "article": null
            }
        },
        {
            "type": "Feature",
            "geometry": {
                "type": "Point",
                "coordinates": [
                    15.153055555,
                    -7.962222222
                ]
            },
            "properties": {
                "name": "Q21407550",
                "article": null
            }
        },
        {
            "type": "Feature",
            "geometry": {
                "type": "Point",
                "coordinates": [
                    14.808055555,
                    -7.833611111
                ]
            },
            "properties": {
                "name": "Q21407549",
                "article": null
            }
        },
        {
            "type": "Feature",
            "geometry": {
                "type": "Point",
                "coordinates": [
                    14.766666666,
                    -9.266666666
                ]
            },
            "properties": {
                "name": "Q21407555",
                "article": null
            }
        },
        {
            "type": "Feature",
            "geometry": {
                "type": "Point",
                "coordinates": [
                    14.598888888,
                    -7.424444444
                ]
            },
            "properties": {
                "name": "Q21407557",
                "article": null
            }
        },
        {
            "type": "Feature",
            "geometry": {
                "type": "Point",
                "coordinates": [
                    14.1,
                    -7.63333
                ]
            },
            "properties": {
                "name": "Q21407562",
                "article": null
            }
        },
        {
            "type": "Feature",
            "geometry": {
                "type": "Point",
                "coordinates": [
                    15.4,
                    -9.883333333
                ]
            },
            "properties": {
                "name": "Q21407637",
                "article": null
            }
        },
        {
            "type": "Feature",
            "geometry": {
                "type": "Point",
                "coordinates": [
                    14.08333,
                    -7.66667
                ]
            },
            "properties": {
                "name": "Q21407642",
                "article": null
            }
        },
        {
            "type": "Feature",
            "geometry": {
                "type": "Point",
                "coordinates": [
                    14.41667,
                    -7.9
                ]
            },
            "properties": {
                "name": "Q21407650",
                "article": null
            }
        },
        {
            "type": "Feature",
            "geometry": {
                "type": "Point",
                "coordinates": [
                    14.15,
                    -9.666666666
                ]
            },
            "properties": {
                "name": "Q21407671",
                "article": null
            }
        },
        {
            "type": "Feature",
            "geometry": {
                "type": "Point",
                "coordinates": [
                    14.833333333,
                    -9.766666666
                ]
            },
            "properties": {
                "name": "Q21407682",
                "article": null
            }
        },
        {
            "type": "Feature",
            "geometry": {
                "type": "Point",
                "coordinates": [
                    15.466666666,
                    -9.4
                ]
            },
            "properties": {
                "name": "Q21407695",
                "article": null
            }
        },
        {
            "type": "Feature",
            "geometry": {
                "type": "Point",
                "coordinates": [
                    14.0,
                    -7.583333333
                ]
            },
            "properties": {
                "name": "Q21407719",
                "article": null
            }
        },
        {
            "type": "Feature",
            "geometry": {
                "type": "Point",
                "coordinates": [
                    14.216666666,
                    -9.783333333
                ]
            },
            "properties": {
                "name": "Q21407722",
                "article": null
            }
        },
        {
            "type": "Feature",
            "geometry": {
                "type": "Point",
                "coordinates": [
                    14.066666666,
                    -8.95
                ]
            },
            "properties": {
                "name": "Q21407733",
                "article": null
            }
        },
        {
            "type": "Feature",
            "geometry": {
                "type": "Point",
                "coordinates": [
                    20.411666666,
                    -10.791388888
                ]
            },
            "properties": {
                "name": "Q21407737",
                "article": null
            }
        },
        {
            "type": "Feature",
            "geometry": {
                "type": "Point",
                "coordinates": [
                    20.33361,
                    -10.55222
                ]
            },
            "properties": {
                "name": "Q21407755",
                "article": null
            }
        },
        {
            "type": "Feature",
            "geometry": {
                "type": "Point",
                "coordinates": [
                    21.783333333,
                    -14.6
                ]
            },
            "properties": {
                "name": "Q21407760",
                "article": null
            }
        },
        {
            "type": "Feature",
            "geometry": {
                "type": "Point",
                "coordinates": [
                    20.8,
                    -11.716666666
                ]
            },
            "properties": {
                "name": "Q21407773",
                "article": null
            }
        },
        {
            "type": "Feature",
            "geometry": {
                "type": "Point",
                "coordinates": [
                    13.916666666,
                    -9.4
                ]
            },
            "properties": {
                "name": "Q21407894",
                "article": null
            }
        },
        {
            "type": "Feature",
            "geometry": {
                "type": "Point",
                "coordinates": [
                    14.583333333,
                    -9.016666666
                ]
            },
            "properties": {
                "name": "Q21408292",
                "article": null
            }
        },
        {
            "type": "Feature",
            "geometry": {
                "type": "Point",
                "coordinates": [
                    14.95,
                    -9.616666666
                ]
            },
            "properties": {
                "name": "Q21408303",
                "article": null
            }
        },
        {
            "type": "Feature",
            "geometry": {
                "type": "Point",
                "coordinates": [
                    15.018888888,
                    -9.168888888
                ]
            },
            "properties": {
                "name": "Q21408306",
                "article": null
            }
        },
        {
            "type": "Feature",
            "geometry": {
                "type": "Point",
                "coordinates": [
                    14.720277777,
                    -7.001111111
                ]
            },
            "properties": {
                "name": "Q21407929",
                "article": null
            }
        },
        {
            "type": "Feature",
            "geometry": {
                "type": "Point",
                "coordinates": [
                    14.866666666,
                    -9.233333333
                ]
            },
            "properties": {
                "name": "Q21407933",
                "article": null
            }
        },
        {
            "type": "Feature",
            "geometry": {
                "type": "Point",
                "coordinates": [
                    14.566666666,
                    -9.1
                ]
            },
            "properties": {
                "name": "Q21407944",
                "article": null
            }
        },
        {
            "type": "Feature",
            "geometry": {
                "type": "Point",
                "coordinates": [
                    14.433333333,
                    -9.833333333
                ]
            },
            "properties": {
                "name": "Q21408260",
                "article": null
            }
        },
        {
            "type": "Feature",
            "geometry": {
                "type": "Point",
                "coordinates": [
                    14.583333333,
                    -9.016666666
                ]
            },
            "properties": {
                "name": "Q21408292",
                "article": null
            }
        },
        {
            "type": "Feature",
            "geometry": {
                "type": "Point",
                "coordinates": [
                    14.95,
                    -9.616666666
                ]
            },
            "properties": {
                "name": "Q21408303",
                "article": null
            }
        },
        {
            "type": "Feature",
            "geometry": {
                "type": "Point",
                "coordinates": [
                    15.018888888,
                    -9.168888888
                ]
            },
            "properties": {
                "name": "Q21408306",
                "article": null
            }
        },
        {
            "type": "Feature",
            "geometry": {
                "type": "Point",
                "coordinates": [
                    14.866666666,
                    -9.333333333
                ]
            },
            "properties": {
                "name": "Q21408305",
                "article": null
            }
        },
        {
            "type": "Feature",
            "geometry": {
                "type": "Point",
                "coordinates": [
                    14.955555555,
                    -9.651111111
                ]
            },
            "properties": {
                "name": "Q21408330",
                "article": null
            }
        },
        {
            "type": "Feature",
            "geometry": {
                "type": "Point",
                "coordinates": [
                    14.8,
                    -9.816666666
                ]
            },
            "properties": {
                "name": "Q21408332",
                "article": null
            }
        },
        {
            "type": "Feature",
            "geometry": {
                "type": "Point",
                "coordinates": [
                    15.045,
                    -9.250555555
                ]
            },
            "properties": {
                "name": "Q21408350",
                "article": null
            }
        },
        {
            "type": "Feature",
            "geometry": {
                "type": "Point",
                "coordinates": [
                    14.666666666,
                    -7.833333333
                ]
            },
            "properties": {
                "name": "Q21408367",
                "article": null
            }
        },
        {
            "type": "Feature",
            "geometry": {
                "type": "Point",
                "coordinates": [
                    14.4,
                    -9.033333333
                ]
            },
            "properties": {
                "name": "Q21408373",
                "article": null
            }
        },
        {
            "type": "Feature",
            "geometry": {
                "type": "Point",
                "coordinates": [
                    14.1475,
                    -9.504444444
                ]
            },
            "properties": {
                "name": "Q21408378",
                "article": null
            }
        },
        {
            "type": "Feature",
            "geometry": {
                "type": "Point",
                "coordinates": [
                    15.616944444,
                    -9.674444444
                ]
            },
            "properties": {
                "name": "Q21408379",
                "article": null
            }
        },
        {
            "type": "Feature",
            "geometry": {
                "type": "Point",
                "coordinates": [
                    14.866666666,
                    -9.216666666
                ]
            },
            "properties": {
                "name": "Q21408383",
                "article": null
            }
        },
        {
            "type": "Feature",
            "geometry": {
                "type": "Point",
                "coordinates": [
                    14.85,
                    -9.25
                ]
            },
            "properties": {
                "name": "Q21408386",
                "article": null
            }
        },
        {
            "type": "Feature",
            "geometry": {
                "type": "Point",
                "coordinates": [
                    13.457222222,
                    -8.726944444
                ]
            },
            "properties": {
                "name": "Q21408427",
                "article": null
            }
        },
        {
            "type": "Feature",
            "geometry": {
                "type": "Point",
                "coordinates": [
                    15.626944444,
                    -9.094166666
                ]
            },
            "properties": {
                "name": "Q21408430",
                "article": null
            }
        },
        {
            "type": "Feature",
            "geometry": {
                "type": "Point",
                "coordinates": [
                    13.135833333,
                    -8.936111111
                ]
            },
            "properties": {
                "name": "Q21408433",
                "article": null
            }
        },
        {
            "type": "Feature",
            "geometry": {
                "type": "Point",
                "coordinates": [
                    14.25,
                    -9.1
                ]
            },
            "properties": {
                "name": "Q21408443",
                "article": null
            }
        },
        {
            "type": "Feature",
            "geometry": {
                "type": "Point",
                "coordinates": [
                    14.873055555,
                    -7.6575
                ]
            },
            "properties": {
                "name": "Q21408453",
                "article": null
            }
        },
        {
            "type": "Feature",
            "geometry": {
                "type": "Point",
                "coordinates": [
                    14.116666666,
                    -9.766666666
                ]
            },
            "properties": {
                "name": "Q21408495",
                "article": null
            }
        },
        {
            "type": "Feature",
            "geometry": {
                "type": "Point",
                "coordinates": [
                    13.983333333,
                    -6.4
                ]
            },
            "properties": {
                "name": "Q21408497",
                "article": null
            }
        },
        {
            "type": "Feature",
            "geometry": {
                "type": "Point",
                "coordinates": [
                    14.866666666,
                    -9.783333333
                ]
            },
            "properties": {
                "name": "Q21408509",
                "article": null
            }
        },
        {
            "type": "Feature",
            "geometry": {
                "type": "Point",
                "coordinates": [
                    14.816666666,
                    -9.433333333
                ]
            },
            "properties": {
                "name": "Q21408523",
                "article": null
            }
        },
        {
            "type": "Feature",
            "geometry": {
                "type": "Point",
                "coordinates": [
                    14.233333333,
                    -9.75
                ]
            },
            "properties": {
                "name": "Q21408538",
                "article": null
            }
        },
        {
            "type": "Feature",
            "geometry": {
                "type": "Point",
                "coordinates": [
                    14.766666666,
                    -9.183333333
                ]
            },
            "properties": {
                "name": "Q21408551",
                "article": null
            }
        },
        {
            "type": "Feature",
            "geometry": {
                "type": "Point",
                "coordinates": [
                    14.75,
                    -9.133333333
                ]
            },
            "properties": {
                "name": "Q21408560",
                "article": null
            }
        },
        {
            "type": "Feature",
            "geometry": {
                "type": "Point",
                "coordinates": [
                    14.683333333,
                    -9.216666666
                ]
            },
            "properties": {
                "name": "Q21408567",
                "article": null
            }
        },
        {
            "type": "Feature",
            "geometry": {
                "type": "Point",
                "coordinates": [
                    15.65,
                    -9.316666666
                ]
            },
            "properties": {
                "name": "Q21408572",
                "article": null
            }
        },
        {
            "type": "Feature",
            "geometry": {
                "type": "Point",
                "coordinates": [
                    15.193888888,
                    -9.429722222
                ]
            },
            "properties": {
                "name": "Q21408578",
                "article": null
            }
        },
        {
            "type": "Feature",
            "geometry": {
                "type": "Point",
                "coordinates": [
                    14.0,
                    -8.959444444
                ]
            },
            "properties": {
                "name": "Q21408579",
                "article": null
            }
        },
        {
            "type": "Feature",
            "geometry": {
                "type": "Point",
                "coordinates": [
                    14.083333333,
                    -9.516666666
                ]
            },
            "properties": {
                "name": "Q21408577",
                "article": null
            }
        },
        {
            "type": "Feature",
            "geometry": {
                "type": "Point",
                "coordinates": [
                    15.116666666,
                    -9.7
                ]
            },
            "properties": {
                "name": "Q21408582",
                "article": null
            }
        },
        {
            "type": "Feature",
            "geometry": {
                "type": "Point",
                "coordinates": [
                    14.25,
                    -7.78333
                ]
            },
            "properties": {
                "name": "Q21408583",
                "article": null
            }
        },
        {
            "type": "Feature",
            "geometry": {
                "type": "Point",
                "coordinates": [
                    14.95,
                    -7.933333333
                ]
            },
            "properties": {
                "name": "Q21408586",
                "article": null
            }
        },
        {
            "type": "Feature",
            "geometry": {
                "type": "Point",
                "coordinates": [
                    14.7,
                    -9.15
                ]
            },
            "properties": {
                "name": "Q21408587",
                "article": null
            }
        },
        {
            "type": "Feature",
            "geometry": {
                "type": "Point",
                "coordinates": [
                    15.166111111,
                    -9.010833333
                ]
            },
            "properties": {
                "name": "Q21408594",
                "article": null
            }
        },
        {
            "type": "Feature",
            "geometry": {
                "type": "Point",
                "coordinates": [
                    14.5,
                    -7.2
                ]
            },
            "properties": {
                "name": "Q21408623",
                "article": null
            }
        },
        {
            "type": "Feature",
            "geometry": {
                "type": "Point",
                "coordinates": [
                    14.066666666,
                    -9.7
                ]
            },
            "properties": {
                "name": "Q21408627",
                "article": null
            }
        },
        {
            "type": "Feature",
            "geometry": {
                "type": "Point",
                "coordinates": [
                    14.939166666,
                    -6.278611111
                ]
            },
            "properties": {
                "name": "Q21408658",
                "article": null
            }
        },
        {
            "type": "Feature",
            "geometry": {
                "type": "Point",
                "coordinates": [
                    14.068888888,
                    -6.961666666
                ]
            },
            "properties": {
                "name": "Q21408667",
                "article": null
            }
        },
        {
            "type": "Feature",
            "geometry": {
                "type": "Point",
                "coordinates": [
                    14.85,
                    -9.216666666
                ]
            },
            "properties": {
                "name": "Q21408673",
                "article": null
            }
        },
        {
            "type": "Feature",
            "geometry": {
                "type": "Point",
                "coordinates": [
                    15.583333333,
                    -7.216666666
                ]
            },
            "properties": {
                "name": "Q21408678",
                "article": null
            }
        },
        {
            "type": "Feature",
            "geometry": {
                "type": "Point",
                "coordinates": [
                    14.833333333,
                    -9.7
                ]
            },
            "properties": {
                "name": "Q21408677",
                "article": null
            }
        },
        {
            "type": "Feature",
            "geometry": {
                "type": "Point",
                "coordinates": [
                    15.983333333,
                    -9.166666666
                ]
            },
            "properties": {
                "name": "Q21408683",
                "article": null
            }
        },
        {
            "type": "Feature",
            "geometry": {
                "type": "Point",
                "coordinates": [
                    14.9575,
                    -9.588055555
                ]
            },
            "properties": {
                "name": "Q21408685",
                "article": null
            }
        },
        {
            "type": "Feature",
            "geometry": {
                "type": "Point",
                "coordinates": [
                    14.866666666,
                    -9.533333333
                ]
            },
            "properties": {
                "name": "Q21408690",
                "article": null
            }
        },
        {
            "type": "Feature",
            "geometry": {
                "type": "Point",
                "coordinates": [
                    15.508055555,
                    -9.416666666
                ]
            },
            "properties": {
                "name": "Q21408691",
                "article": null
            }
        },
        {
            "type": "Feature",
            "geometry": {
                "type": "Point",
                "coordinates": [
                    14.5,
                    -7.0
                ]
            },
            "properties": {
                "name": "Q21408688",
                "article": null
            }
        },
        {
            "type": "Feature",
            "geometry": {
                "type": "Point",
                "coordinates": [
                    13.603055555,
                    -8.893333333
                ]
            },
            "properties": {
                "name": "Q21408694",
                "article": null
            }
        },
        {
            "type": "Feature",
            "geometry": {
                "type": "Point",
                "coordinates": [
                    14.6,
                    -9.066666666
                ]
            },
            "properties": {
                "name": "Q21408692",
                "article": null
            }
        },
        {
            "type": "Feature",
            "geometry": {
                "type": "Point",
                "coordinates": [
                    14.133333333,
                    -9.85
                ]
            },
            "properties": {
                "name": "Q21408710",
                "article": null
            }
        },
        {
            "type": "Feature",
            "geometry": {
                "type": "Point",
                "coordinates": [
                    14.820833333,
                    -6.604722222
                ]
            },
            "properties": {
                "name": "Q21408722",
                "article": null
            }
        },
        {
            "type": "Feature",
            "geometry": {
                "type": "Point",
                "coordinates": [
                    15.932222222,
                    -9.241111111
                ]
            },
            "properties": {
                "name": "Q21408725",
                "article": null
            }
        },
        {
            "type": "Feature",
            "geometry": {
                "type": "Point",
                "coordinates": [
                    14.183333333,
                    -9.116666666
                ]
            },
            "properties": {
                "name": "Q21408733",
                "article": null
            }
        },
        {
            "type": "Feature",
            "geometry": {
                "type": "Point",
                "coordinates": [
                    14.366666666,
                    -9.8
                ]
            },
            "properties": {
                "name": "Q21408754",
                "article": null
            }
        },
        {
            "type": "Feature",
            "geometry": {
                "type": "Point",
                "coordinates": [
                    14.116666666,
                    -9.65
                ]
            },
            "properties": {
                "name": "Q21408757",
                "article": null
            }
        },
        {
            "type": "Feature",
            "geometry": {
                "type": "Point",
                "coordinates": [
                    14.466666666,
                    -9.533333333
                ]
            },
            "properties": {
                "name": "Q21408765",
                "article": null
            }
        },
        {
            "type": "Feature",
            "geometry": {
                "type": "Point",
                "coordinates": [
                    15.068333333,
                    -9.181388888
                ]
            },
            "properties": {
                "name": "Q21408788",
                "article": null
            }
        },
        {
            "type": "Feature",
            "geometry": {
                "type": "Point",
                "coordinates": [
                    15.083333333,
                    -7.783333333
                ]
            },
            "properties": {
                "name": "Q21408792",
                "article": null
            }
        },
        {
            "type": "Feature",
            "geometry": {
                "type": "Point",
                "coordinates": [
                    14.144166666,
                    -9.73
                ]
            },
            "properties": {
                "name": "Quiriba",
                "article": null
            }
        },
        {
            "type": "Feature",
            "geometry": {
                "type": "Point",
                "coordinates": [
                    14.716666666,
                    -9.5
                ]
            },
            "properties": {
                "name": "Q21408827",
                "article": null
            }
        },
        {
            "type": "Feature",
            "geometry": {
                "type": "Point",
                "coordinates": [
                    14.483333333,
                    -9.983333333
                ]
            },
            "properties": {
                "name": "Q21408828",
                "article": null
            }
        },
        {
            "type": "Feature",
            "geometry": {
                "type": "Point",
                "coordinates": [
                    14.783333333,
                    -9.7
                ]
            },
            "properties": {
                "name": "Q21408838",
                "article": null
            }
        },
        {
            "type": "Feature",
            "geometry": {
                "type": "Point",
                "coordinates": [
                    13.055833333,
                    -8.986111111
                ]
            },
            "properties": {
                "name": "Q21408836",
                "article": null
            }
        },
        {
            "type": "Feature",
            "geometry": {
                "type": "Point",
                "coordinates": [
                    14.433333333,
                    -9.583333333
                ]
            },
            "properties": {
                "name": "Q21408837",
                "article": null
            }
        },
        {
            "type": "Feature",
            "geometry": {
                "type": "Point",
                "coordinates": [
                    14.816666666,
                    -9.2
                ]
            },
            "properties": {
                "name": "Q21408843",
                "article": null
            }
        },
        {
            "type": "Feature",
            "geometry": {
                "type": "Point",
                "coordinates": [
                    14.583333333,
                    -9.533333333
                ]
            },
            "properties": {
                "name": "Q21408847",
                "article": null
            }
        },
        {
            "type": "Feature",
            "geometry": {
                "type": "Point",
                "coordinates": [
                    14.766666666,
                    -9.683333333
                ]
            },
            "properties": {
                "name": "Q21408850",
                "article": null
            }
        },
        {
            "type": "Feature",
            "geometry": {
                "type": "Point",
                "coordinates": [
                    14.052222222,
                    -9.5775
                ]
            },
            "properties": {
                "name": "Q21408859",
                "article": null
            }
        },
        {
            "type": "Feature",
            "geometry": {
                "type": "Point",
                "coordinates": [
                    14.689722222,
                    -9.701944444
                ]
            },
            "properties": {
                "name": "Q21408864",
                "article": null
            }
        },
        {
            "type": "Feature",
            "geometry": {
                "type": "Point",
                "coordinates": [
                    14.116666666,
                    -7.2
                ]
            },
            "properties": {
                "name": "Q21408871",
                "article": null
            }
        },
        {
            "type": "Feature",
            "geometry": {
                "type": "Point",
                "coordinates": [
                    14.0,
                    -9.5
                ]
            },
            "properties": {
                "name": "Q21408874",
                "article": null
            }
        },
        {
            "type": "Feature",
            "geometry": {
                "type": "Point",
                "coordinates": [
                    14.982777777,
                    -7.762777777
                ]
            },
            "properties": {
                "name": "Q21408880",
                "article": null
            }
        },
        {
            "type": "Feature",
            "geometry": {
                "type": "Point",
                "coordinates": [
                    14.066666666,
                    -9.633333333
                ]
            },
            "properties": {
                "name": "Q21408897",
                "article": null
            }
        },
        {
            "type": "Feature",
            "geometry": {
                "type": "Point",
                "coordinates": [
                    14.75,
                    -9.233333333
                ]
            },
            "properties": {
                "name": "Q21408911",
                "article": null
            }
        },
        {
            "type": "Feature",
            "geometry": {
                "type": "Point",
                "coordinates": [
                    14.116666666,
                    -7.233333333
                ]
            },
            "properties": {
                "name": "Q21408909",
                "article": null
            }
        },
        {
            "type": "Feature",
            "geometry": {
                "type": "Point",
                "coordinates": [
                    14.13333,
                    -7.83333
                ]
            },
            "properties": {
                "name": "Q21408919",
                "article": null
            }
        },
        {
            "type": "Feature",
            "geometry": {
                "type": "Point",
                "coordinates": [
                    14.033333333,
                    -9.15
                ]
            },
            "properties": {
                "name": "Q21408922",
                "article": null
            }
        },
        {
            "type": "Feature",
            "geometry": {
                "type": "Point",
                "coordinates": [
                    14.7,
                    -9.233333333
                ]
            },
            "properties": {
                "name": "Q21408920",
                "article": null
            }
        },
        {
            "type": "Feature",
            "geometry": {
                "type": "Point",
                "coordinates": [
                    13.054722222,
                    -5.878888888
                ]
            },
            "properties": {
                "name": "Q21408932",
                "article": null
            }
        },
        {
            "type": "Feature",
            "geometry": {
                "type": "Point",
                "coordinates": [
                    15.114166666,
                    -9.4375
                ]
            },
            "properties": {
                "name": "Q21408939",
                "article": null
            }
        },
        {
            "type": "Feature",
            "geometry": {
                "type": "Point",
                "coordinates": [
                    14.25,
                    -9.65
                ]
            },
            "properties": {
                "name": "Q21408948",
                "article": null
            }
        },
        {
            "type": "Feature",
            "geometry": {
                "type": "Point",
                "coordinates": [
                    15.016666666,
                    -9.35
                ]
            },
            "properties": {
                "name": "Q21408975",
                "article": null
            }
        },
        {
            "type": "Feature",
            "geometry": {
                "type": "Point",
                "coordinates": [
                    14.204444444,
                    -7.515833333
                ]
            },
            "properties": {
                "name": "Q21408973",
                "article": null
            }
        },
        {
            "type": "Feature",
            "geometry": {
                "type": "Point",
                "coordinates": [
                    13.119166666,
                    -8.926388888
                ]
            },
            "properties": {
                "name": "Q21409017",
                "article": null
            }
        },
        {
            "type": "Feature",
            "geometry": {
                "type": "Point",
                "coordinates": [
                    14.566666666,
                    -9.716666666
                ]
            },
            "properties": {
                "name": "Q21409259",
                "article": null
            }
        },
        {
            "type": "Feature",
            "geometry": {
                "type": "Point",
                "coordinates": [
                    15.616666666,
                    -9.0
                ]
            },
            "properties": {
                "name": "Q21409278",
                "article": null
            }
        },
        {
            "type": "Feature",
            "geometry": {
                "type": "Point",
                "coordinates": [
                    14.45,
                    -7.75
                ]
            },
            "properties": {
                "name": "Q21409284",
                "article": null
            }
        },
        {
            "type": "Feature",
            "geometry": {
                "type": "Point",
                "coordinates": [
                    14.533333333,
                    -9.683333333
                ]
            },
            "properties": {
                "name": "Q21409285",
                "article": null
            }
        },
        {
            "type": "Feature",
            "geometry": {
                "type": "Point",
                "coordinates": [
                    14.375,
                    -7.287777777
                ]
            },
            "properties": {
                "name": "Q21409301",
                "article": null
            }
        },
        {
            "type": "Feature",
            "geometry": {
                "type": "Point",
                "coordinates": [
                    14.333333333,
                    -9.766666666
                ]
            },
            "properties": {
                "name": "Q21409306",
                "article": null
            }
        },
        {
            "type": "Feature",
            "geometry": {
                "type": "Point",
                "coordinates": [
                    14.033333333,
                    -9.916666666
                ]
            },
            "properties": {
                "name": "Q21409307",
                "article": null
            }
        },
        {
            "type": "Feature",
            "geometry": {
                "type": "Point",
                "coordinates": [
                    14.766666666,
                    -9.233333333
                ]
            },
            "properties": {
                "name": "Morais",
                "article": null
            }
        },
        {
            "type": "Feature",
            "geometry": {
                "type": "Point",
                "coordinates": [
                    13.692222222,
                    -8.613888888
                ]
            },
            "properties": {
                "name": "Q21409325",
                "article": null
            }
        },
        {
            "type": "Feature",
            "geometry": {
                "type": "Point",
                "coordinates": [
                    14.683333333,
                    -9.8
                ]
            },
            "properties": {
                "name": "Q21409413",
                "article": null
            }
        },
        {
            "type": "Feature",
            "geometry": {
                "type": "Point",
                "coordinates": [
                    15.433333333,
                    -9.25
                ]
            },
            "properties": {
                "name": "Q21409423",
                "article": null
            }
        },
        {
            "type": "Feature",
            "geometry": {
                "type": "Point",
                "coordinates": [
                    15.516666666,
                    -9.333333333
                ]
            },
            "properties": {
                "name": "Q21409426",
                "article": null
            }
        },
        {
            "type": "Feature",
            "geometry": {
                "type": "Point",
                "coordinates": [
                    14.833333333,
                    -9.483333333
                ]
            },
            "properties": {
                "name": "Q21409167",
                "article": null
            }
        },
        {
            "type": "Feature",
            "geometry": {
                "type": "Point",
                "coordinates": [
                    14.383333333,
                    -9.9
                ]
            },
            "properties": {
                "name": "Q21409164",
                "article": null
            }
        },
        {
            "type": "Feature",
            "geometry": {
                "type": "Point",
                "coordinates": [
                    14.05,
                    -7.983333333
                ]
            },
            "properties": {
                "name": "Q21409165",
                "article": null
            }
        },
        {
            "type": "Feature",
            "geometry": {
                "type": "Point",
                "coordinates": [
                    14.06667,
                    -7.55
                ]
            },
            "properties": {
                "name": "Q21409180",
                "article": null
            }
        },
        {
            "type": "Feature",
            "geometry": {
                "type": "Point",
                "coordinates": [
                    14.083333333,
                    -9.95
                ]
            },
            "properties": {
                "name": "Q21409187",
                "article": null
            }
        },
        {
            "type": "Feature",
            "geometry": {
                "type": "Point",
                "coordinates": [
                    14.234444444,
                    -7.983333333
                ]
            },
            "properties": {
                "name": "Q21409191",
                "article": null
            }
        },
        {
            "type": "Feature",
            "geometry": {
                "type": "Point",
                "coordinates": [
                    14.566666666,
                    -9.716666666
                ]
            },
            "properties": {
                "name": "Q21409259",
                "article": null
            }
        },
        {
            "type": "Feature",
            "geometry": {
                "type": "Point",
                "coordinates": [
                    15.616666666,
                    -9.0
                ]
            },
            "properties": {
                "name": "Q21409278",
                "article": null
            }
        },
        {
            "type": "Feature",
            "geometry": {
                "type": "Point",
                "coordinates": [
                    14.016666666,
                    -9.366666666
                ]
            },
            "properties": {
                "name": "Q21409703",
                "article": null
            }
        },
        {
            "type": "Feature",
            "geometry": {
                "type": "Point",
                "coordinates": [
                    14.258611111,
                    -9.638333333
                ]
            },
            "properties": {
                "name": "Q21409727",
                "article": null
            }
        },
        {
            "type": "Feature",
            "geometry": {
                "type": "Point",
                "coordinates": [
                    14.7,
                    -9.183333333
                ]
            },
            "properties": {
                "name": "Q21409728",
                "article": null
            }
        },
        {
            "type": "Feature",
            "geometry": {
                "type": "Point",
                "coordinates": [
                    15.216666666,
                    -9.583333333
                ]
            },
            "properties": {
                "name": "Q21409733",
                "article": null
            }
        },
        {
            "type": "Feature",
            "geometry": {
                "type": "Point",
                "coordinates": [
                    14.016666666,
                    -9.35
                ]
            },
            "properties": {
                "name": "Q21409742",
                "article": null
            }
        },
        {
            "type": "Feature",
            "geometry": {
                "type": "Point",
                "coordinates": [
                    15.5,
                    -9.3
                ]
            },
            "properties": {
                "name": "Q21409743",
                "article": null
            }
        },
        {
            "type": "Feature",
            "geometry": {
                "type": "Point",
                "coordinates": [
                    13.150277777,
                    -8.904444444
                ]
            },
            "properties": {
                "name": "Q21409754",
                "article": null
            }
        },
        {
            "type": "Feature",
            "geometry": {
                "type": "Point",
                "coordinates": [
                    14.116666666,
                    -9.633333333
                ]
            },
            "properties": {
                "name": "Q21409819",
                "article": null
            }
        },
        {
            "type": "Feature",
            "geometry": {
                "type": "Point",
                "coordinates": [
                    14.4,
                    -9.7
                ]
            },
            "properties": {
                "name": "Q21409911",
                "article": null
            }
        },
        {
            "type": "Feature",
            "geometry": {
                "type": "Point",
                "coordinates": [
                    14.741666666,
                    -9.605277777
                ]
            },
            "properties": {
                "name": "Q21409929",
                "article": null
            }
        },
        {
            "type": "Feature",
            "geometry": {
                "type": "Point",
                "coordinates": [
                    14.5,
                    -9.95
                ]
            },
            "properties": {
                "name": "Q21409935",
                "article": null
            }
        },
        {
            "type": "Feature",
            "geometry": {
                "type": "Point",
                "coordinates": [
                    14.708888888,
                    -7.760277777
                ]
            },
            "properties": {
                "name": "Q21409936",
                "article": null
            }
        },
        {
            "type": "Feature",
            "geometry": {
                "type": "Point",
                "coordinates": [
                    14.85,
                    -9.816666666
                ]
            },
            "properties": {
                "name": "Q21409960",
                "article": null
            }
        },
        {
            "type": "Feature",
            "geometry": {
                "type": "Point",
                "coordinates": [
                    15.809444444,
                    -9.6425
                ]
            },
            "properties": {
                "name": "Q21409994",
                "article": null
            }
        },
        {
            "type": "Feature",
            "geometry": {
                "type": "Point",
                "coordinates": [
                    14.466666666,
                    -9.983333333
                ]
            },
            "properties": {
                "name": "Q21410003",
                "article": null
            }
        },
        {
            "type": "Feature",
            "geometry": {
                "type": "Point",
                "coordinates": [
                    14.516666666,
                    -9.05
                ]
            },
            "properties": {
                "name": "Q21410013",
                "article": null
            }
        },
        {
            "type": "Feature",
            "geometry": {
                "type": "Point",
                "coordinates": [
                    14.376388888,
                    -9.552222222
                ]
            },
            "properties": {
                "name": "Q21410016",
                "article": null
            }
        },
        {
            "type": "Feature",
            "geometry": {
                "type": "Point",
                "coordinates": [
                    15.45,
                    -9.2
                ]
            },
            "properties": {
                "name": "Q21410027",
                "article": null
            }
        },
        {
            "type": "Feature",
            "geometry": {
                "type": "Point",
                "coordinates": [
                    14.8,
                    -9.183333333
                ]
            },
            "properties": {
                "name": "Q21410075",
                "article": null
            }
        },
        {
            "type": "Feature",
            "geometry": {
                "type": "Point",
                "coordinates": [
                    14.85,
                    -9.4
                ]
            },
            "properties": {
                "name": "Q21410072",
                "article": null
            }
        },
        {
            "type": "Feature",
            "geometry": {
                "type": "Point",
                "coordinates": [
                    13.696388888,
                    -8.978055555
                ]
            },
            "properties": {
                "name": "Q21410073",
                "article": null
            }
        },
        {
            "type": "Feature",
            "geometry": {
                "type": "Point",
                "coordinates": [
                    14.346388888,
                    -7.666111111
                ]
            },
            "properties": {
                "name": "Q21410086",
                "article": null
            }
        },
        {
            "type": "Feature",
            "geometry": {
                "type": "Point",
                "coordinates": [
                    14.629722222,
                    -9.723888888
                ]
            },
            "properties": {
                "name": "Q21410099",
                "article": null
            }
        },
        {
            "type": "Feature",
            "geometry": {
                "type": "Point",
                "coordinates": [
                    15.516944444,
                    -9.455555555
                ]
            },
            "properties": {
                "name": "Q21410109",
                "article": null
            }
        },
        {
            "type": "Feature",
            "geometry": {
                "type": "Point",
                "coordinates": [
                    14.174166666,
                    -7.278888888
                ]
            },
            "properties": {
                "name": "Q21410122",
                "article": null
            }
        },
        {
            "type": "Feature",
            "geometry": {
                "type": "Point",
                "coordinates": [
                    14.216388888,
                    -9.624444444
                ]
            },
            "properties": {
                "name": "Q21410135",
                "article": null
            }
        },
        {
            "type": "Feature",
            "geometry": {
                "type": "Point",
                "coordinates": [
                    14.519166666,
                    -7.264166666
                ]
            },
            "properties": {
                "name": "Q21410140",
                "article": null
            }
        },
        {
            "type": "Feature",
            "geometry": {
                "type": "Point",
                "coordinates": [
                    15.433333333,
                    -9.133333333
                ]
            },
            "properties": {
                "name": "Q21410144",
                "article": null
            }
        },
        {
            "type": "Feature",
            "geometry": {
                "type": "Point",
                "coordinates": [
                    15.3,
                    -9.1
                ]
            },
            "properties": {
                "name": "Q21410156",
                "article": null
            }
        },
        {
            "type": "Feature",
            "geometry": {
                "type": "Point",
                "coordinates": [
                    15.516666666,
                    -9.45
                ]
            },
            "properties": {
                "name": "Q21410383",
                "article": null
            }
        },
        {
            "type": "Feature",
            "geometry": {
                "type": "Point",
                "coordinates": [
                    14.7,
                    -9.166666666
                ]
            },
            "properties": {
                "name": "Q21410395",
                "article": null
            }
        },
        {
            "type": "Feature",
            "geometry": {
                "type": "Point",
                "coordinates": [
                    14.6,
                    -9.966666666
                ]
            },
            "properties": {
                "name": "Q21410396",
                "article": null
            }
        },
        {
            "type": "Feature",
            "geometry": {
                "type": "Point",
                "coordinates": [
                    14.883333333,
                    -9.333333333
                ]
            },
            "properties": {
                "name": "Q21410408",
                "article": null
            }
        },
        {
            "type": "Feature",
            "geometry": {
                "type": "Point",
                "coordinates": [
                    15.359444444,
                    -9.393611111
                ]
            },
            "properties": {
                "name": "Q21410414",
                "article": null
            }
        },
        {
            "type": "Feature",
            "geometry": {
                "type": "Point",
                "coordinates": [
                    14.583333333,
                    -9.683333333
                ]
            },
            "properties": {
                "name": "Q21410432",
                "article": null
            }
        },
        {
            "type": "Feature",
            "geometry": {
                "type": "Point",
                "coordinates": [
                    13.358055555,
                    -9.128333333
                ]
            },
            "properties": {
                "name": "Q21410437",
                "article": null
            }
        },
        {
            "type": "Feature",
            "geometry": {
                "type": "Point",
                "coordinates": [
                    15.516666666,
                    -9.35
                ]
            },
            "properties": {
                "name": "Q21410451",
                "article": null
            }
        },
        {
            "type": "Feature",
            "geometry": {
                "type": "Point",
                "coordinates": [
                    15.233333333,
                    -9.033333333
                ]
            },
            "properties": {
                "name": "Q21410460",
                "article": null
            }
        },
        {
            "type": "Feature",
            "geometry": {
                "type": "Point",
                "coordinates": [
                    15.366666666,
                    -9.35
                ]
            },
            "properties": {
                "name": "Q21410468",
                "article": null
            }
        },
        {
            "type": "Feature",
            "geometry": {
                "type": "Point",
                "coordinates": [
                    15.171666666,
                    -9.644722222
                ]
            },
            "properties": {
                "name": "Q21410479",
                "article": null
            }
        },
        {
            "type": "Feature",
            "geometry": {
                "type": "Point",
                "coordinates": [
                    14.033333333,
                    -9.45
                ]
            },
            "properties": {
                "name": "Q21410477",
                "article": null
            }
        },
        {
            "type": "Feature",
            "geometry": {
                "type": "Point",
                "coordinates": [
                    15.724444444,
                    -9.955277777
                ]
            },
            "properties": {
                "name": "Q21410482",
                "article": null
            }
        },
        {
            "type": "Feature",
            "geometry": {
                "type": "Point",
                "coordinates": [
                    14.174722222,
                    -9.608055555
                ]
            },
            "properties": {
                "name": "Q21410486",
                "article": null
            }
        },
        {
            "type": "Feature",
            "geometry": {
                "type": "Point",
                "coordinates": [
                    14.034444444,
                    -9.571388888
                ]
            },
            "properties": {
                "name": "Q21410489",
                "article": null
            }
        },
        {
            "type": "Feature",
            "geometry": {
                "type": "Point",
                "coordinates": [
                    15.466666666,
                    -9.183333333
                ]
            },
            "properties": {
                "name": "Q21410493",
                "article": null
            }
        },
        {
            "type": "Feature",
            "geometry": {
                "type": "Point",
                "coordinates": [
                    14.737777777,
                    -9.555
                ]
            },
            "properties": {
                "name": "Q21410524",
                "article": null
            }
        },
        {
            "type": "Feature",
            "geometry": {
                "type": "Point",
                "coordinates": [
                    14.3,
                    -7.383333333
                ]
            },
            "properties": {
                "name": "Q21410528",
                "article": null
            }
        },
        {
            "type": "Feature",
            "geometry": {
                "type": "Point",
                "coordinates": [
                    14.316111111,
                    -7.748055555
                ]
            },
            "properties": {
                "name": "Q21410536",
                "article": null
            }
        },
        {
            "type": "Feature",
            "geometry": {
                "type": "Point",
                "coordinates": [
                    12.166666666,
                    -5.7
                ]
            },
            "properties": {
                "name": "Q21410548",
                "article": null
            }
        },
        {
            "type": "Feature",
            "geometry": {
                "type": "Point",
                "coordinates": [
                    14.166666666,
                    -6.583333333
                ]
            },
            "properties": {
                "name": "Q21410555",
                "article": null
            }
        },
        {
            "type": "Feature",
            "geometry": {
                "type": "Point",
                "coordinates": [
                    14.983611111,
                    -9.6525
                ]
            },
            "properties": {
                "name": "Q21410557",
                "article": null
            }
        },
        {
            "type": "Feature",
            "geometry": {
                "type": "Point",
                "coordinates": [
                    14.675277777,
                    -7.565
                ]
            },
            "properties": {
                "name": "Q21410323",
                "article": null
            }
        },
        {
            "type": "Feature",
            "geometry": {
                "type": "Point",
                "coordinates": [
                    14.333333333,
                    -9.833333333
                ]
            },
            "properties": {
                "name": "Q21410563",
                "article": null
            }
        },
        {
            "type": "Feature",
            "geometry": {
                "type": "Point",
                "coordinates": [
                    14.316666666,
                    -7.55
                ]
            },
            "properties": {
                "name": "Q21410618",
                "article": null
            }
        },
        {
            "type": "Feature",
            "geometry": {
                "type": "Point",
                "coordinates": [
                    13.715833333,
                    -8.528333333
                ]
            },
            "properties": {
                "name": "Q21410665",
                "article": null
            }
        },
        {
            "type": "Feature",
            "geometry": {
                "type": "Point",
                "coordinates": [
                    14.196944444,
                    -7.586944444
                ]
            },
            "properties": {
                "name": "Q21410686",
                "article": null
            }
        },
        {
            "type": "Feature",
            "geometry": {
                "type": "Point",
                "coordinates": [
                    14.283333333,
                    -9.066666666
                ]
            },
            "properties": {
                "name": "Q21410712",
                "article": null
            }
        },
        {
            "type": "Feature",
            "geometry": {
                "type": "Point",
                "coordinates": [
                    13.23333,
                    -8.8
                ]
            },
            "properties": {
                "name": "Q21410721",
                "article": null
            }
        },
        {
            "type": "Feature",
            "geometry": {
                "type": "Point",
                "coordinates": [
                    14.559722222,
                    -7.05
                ]
            },
            "properties": {
                "name": "Q21410732",
                "article": null
            }
        },
        {
            "type": "Feature",
            "geometry": {
                "type": "Point",
                "coordinates": [
                    14.233333333,
                    -9.9
                ]
            },
            "properties": {
                "name": "Q21410738",
                "article": null
            }
        },
        {
            "type": "Feature",
            "geometry": {
                "type": "Point",
                "coordinates": [
                    15.35,
                    -9.466666666
                ]
            },
            "properties": {
                "name": "Q21410780",
                "article": null
            }
        },
        {
            "type": "Feature",
            "geometry": {
                "type": "Point",
                "coordinates": [
                    14.2225,
                    -7.852222222
                ]
            },
            "properties": {
                "name": "Q21410788",
                "article": null
            }
        },
        {
            "type": "Feature",
            "geometry": {
                "type": "Point",
                "coordinates": [
                    15.6,
                    -9.483333333
                ]
            },
            "properties": {
                "name": "Q21410868",
                "article": null
            }
        },
        {
            "type": "Feature",
            "geometry": {
                "type": "Point",
                "coordinates": [
                    14.606111111,
                    -7.087222222
                ]
            },
            "properties": {
                "name": "Q21410875",
                "article": null
            }
        },
        {
            "type": "Feature",
            "geometry": {
                "type": "Point",
                "coordinates": [
                    14.668055555,
                    -11.048055555
                ]
            },
            "properties": {
                "name": "Q21411086",
                "article": null
            }
        },
        {
            "type": "Feature",
            "geometry": {
                "type": "Point",
                "coordinates": [
                    14.55,
                    -11.016666666
                ]
            },
            "properties": {
                "name": "Q21411090",
                "article": null
            }
        },
        {
            "type": "Feature",
            "geometry": {
                "type": "Point",
                "coordinates": [
                    17.433611111,
                    -10.160277777
                ]
            },
            "properties": {
                "name": "Q21411091",
                "article": null
            }
        },
        {
            "type": "Feature",
            "geometry": {
                "type": "Point",
                "coordinates": [
                    14.433333333,
                    -11.016666666
                ]
            },
            "properties": {
                "name": "Q21411089",
                "article": null
            }
        },
        {
            "type": "Feature",
            "geometry": {
                "type": "Point",
                "coordinates": [
                    14.131111111,
                    -11.224722222
                ]
            },
            "properties": {
                "name": "Q21411092",
                "article": null
            }
        },
        {
            "type": "Feature",
            "geometry": {
                "type": "Point",
                "coordinates": [
                    14.409444444,
                    -11.443055555
                ]
            },
            "properties": {
                "name": "Q21411097",
                "article": null
            }
        },