{
    "type": "FeatureCollection",
    "features": [
        {
            "type": "Feature",
            "geometry": {
                "type": "Point",
                "coordinates": [
                    89.55,
                    22.816666666
                ]
            },
            "properties": {
                "name": "Khulna",
                "article": "https://en.wikipedia.org/wiki/Khulna"
            }
        },
        {
            "type": "Feature",
            "geometry": {
                "type": "Point",
                "coordinates": [
                    92.3225,
                    20.62722222
                ]
            },
            "properties": {
                "name": "St. Martin's Island",
                "article": "https://en.wikipedia.org/wiki/St._Martin%27s_Island"
            }
        },
        {
            "type": "Feature",
            "geometry": {
                "type": "Point",
                "coordinates": [
                    90.53,
                    23.55
                ]
            },
            "properties": {
                "name": "Munshiganj",
                "article": "https://en.wikipedia.org/wiki/Munshiganj"
            }
        },
        {
            "type": "Feature",
            "geometry": {
                "type": "Point",
                "coordinates": [
                    88.6,
                    24.366666666
                ]
            },
            "properties": {
                "name": "Rajshahi",
                "article": "https://en.wikipedia.org/wiki/Rajshahi"
            }
        },
        {
            "type": "Feature",
            "geometry": {
                "type": "Point",
                "coordinates": [
                    90.756388888,
                    22.496666666
                ]
            },
            "properties": {
                "name": "Bhola Island",
                "article": "https://en.wikipedia.org/wiki/Bhola_Island"
            }
        },
        {
            "type": "Feature",
            "geometry": {
                "type": "Point",
                "coordinates": [
                    91.8325,
                    22.335
                ]
            },
            "properties": {
                "name": "Chittagong",
                "article": "https://en.wikipedia.org/wiki/Chittagong"
            }
        },
        {
            "type": "Feature",
            "geometry": {
                "type": "Point",
                "coordinates": [
                    91.866666666,
                    24.9
                ]
            },
            "properties": {
                "name": "Sylhet",
                "article": "https://en.wikipedia.org/wiki/Sylhet"
            }
        },
        {
            "type": "Feature",
            "geometry": {
                "type": "Point",
                "coordinates": [
                    89.1,
                    22.716667
                ]
            },
            "properties": {
                "name": "Satkhira",
                "article": "https://en.wikipedia.org/wiki/Satkhira"
            }
        },
        {
            "type": "Feature",
            "geometry": {
                "type": "Point",
                "coordinates": [
                    92.3372,
                    20.5808
                ]
            },
            "properties": {
                "name": "Chhera Island",
                "article": "https://en.wikipedia.org/wiki/Chhera_Island"
            }
        },
        {
            "type": "Feature",
            "geometry": {
                "type": "Point",
                "coordinates": [
                    91.421185,
                    22.490513
                ]
            },
            "properties": {
                "name": "Sandwip",
                "article": "https://en.wikipedia.org/wiki/Sandwip"
            }
        },
        {
            "type": "Feature",
            "geometry": {
                "type": "Point",
                "coordinates": [
                    90.366666666,
                    22.7
                ]
            },
            "properties": {
                "name": "Barishal",
                "article": "https://en.wikipedia.org/wiki/Barisal"
            }
        },
        {
            "type": "Feature",
            "geometry": {
                "type": "Point",
                "coordinates": [
                    91.1099,
                    23.9723
                ]
            },
            "properties": {
                "name": "Brahmanbaria",
                "article": "https://en.wikipedia.org/wiki/Brahmanbaria"
            }
        },
        {
            "type": "Feature",
            "geometry": {
                "type": "Point",
                "coordinates": [
                    92.016666666,
                    21.583333333
                ]
            },
            "properties": {
                "name": "Cox's Bazar",
                "article": "https://en.wikipedia.org/wiki/Cox%27s_Bazar"
            }
        },
        {
            "type": "Feature",
            "geometry": {
                "type": "Point",
                "coordinates": [
                    89.244444444,
                    25.75
                ]
            },
            "properties": {
                "name": "Rangpur",
                "article": "https://en.wikipedia.org/wiki/Rangpur,_Bangladesh"
            }
        },
        {
            "type": "Feature",
            "geometry": {
                "type": "Point",
                "coordinates": [
                    89.3,
                    24.016666666
                ]
            },
            "properties": {
                "name": "Pabna",
                "article": "https://en.wikipedia.org/wiki/Pabna"
            }
        },
        {
            "type": "Feature",
            "geometry": {
                "type": "Point",
                "coordinates": [
                    91.2,
                    23.45
                ]
            },
            "properties": {
                "name": "Cumilla",
                "article": "https://en.wikipedia.org/wiki/Comilla"
            }
        },
        {
            "type": "Feature",
            "geometry": {
                "type": "Point",
                "coordinates": [
                    90.416666666,
                    24.75
                ]
            },
            "properties": {
                "name": "Mymensingh",
                "article": "https://en.wikipedia.org/wiki/Mymensingh"
            }
        },
        {
            "type": "Feature",
            "geometry": {
                "type": "Point",
                "coordinates": [
                    91.8181,
                    24.2812
                ]
            },
            "properties": {
                "name": "Madhobpur Lake",
                "article": "https://en.wikipedia.org/wiki/Madhobpur_Lake"
            }
        },
        {
            "type": "Feature",
            "geometry": {
                "type": "Point",
                "coordinates": [
                    90.567387,
                    23.746114
                ]
            },
            "properties": {
                "name": "Taj Mahal Bangladesh",
                "article": "https://en.wikipedia.org/wiki/Taj_Mahal_Bangladesh"
            }
        },
        {
            "type": "Feature",
            "geometry": {
                "type": "Point",
                "coordinates": [
                    91.3917,
                    23.0167
                ]
            },
            "properties": {
                "name": "Feni",
                "article": "https://en.wikipedia.org/wiki/Feni,_Bangladesh"
            }
        },
        {
            "type": "Feature",
            "geometry": {
                "type": "Point",
                "coordinates": [
                    91.396666666,
                    23.015
                ]
            },
            "properties": {
                "name": "Feni",
                "article": "https://en.wikipedia.org/wiki/Feni,_Bangladesh"
            }
        },
        {
            "type": "Feature",
            "geometry": {
                "type": "Point",
                "coordinates": [
                    88.12802887,
                    24.88288116
                ]
            },
            "properties": {
                "name": "Gau·∏ça",
                "article": "https://en.wikipedia.org/wiki/Gau%E1%B8%8Da_(city)"
            }
        },
        {
            "type": "Feature",
            "geometry": {
                "type": "Point",
                "coordinates": [
                    92.51441,
                    21.94993
                ]
            },
            "properties": {
                "name": "Keokradong",
                "article": "https://en.wikipedia.org/wiki/Keokradong"
            }
        },
        {
            "type": "Feature",
            "geometry": {
                "type": "Point",
                "coordinates": [
                    89.21666667,
                    23.16666667
                ]
            },
            "properties": {
                "name": "Jashore",
                "article": "https://en.wikipedia.org/wiki/Jessore"
            }
        },
        {
            "type": "Feature",
            "geometry": {
                "type": "Point",
                "coordinates": [
                    91.97,
                    23.107777777
                ]
            },
            "properties": {
                "name": "Khagrachari",
                "article": "https://en.wikipedia.org/wiki/Khagrachhari"
            }
        },
        {
            "type": "Feature",
            "geometry": {
                "type": "Point",
                "coordinates": [
                    90.4,
                    23.883333333
                ]
            },
            "properties": {
                "name": "Tongi",
                "article": "https://en.wikipedia.org/wiki/Tongi"
            }
        },
        {
            "type": "Feature",
            "geometry": {
                "type": "Point",
                "coordinates": [
                    91.4,
                    25.0667
                ]
            },
            "properties": {
                "name": "Sunamganj",
                "article": "https://en.wikipedia.org/wiki/Sunamganj"
            }
        },
        {
            "type": "Feature",
            "geometry": {
                "type": "Point",
                "coordinates": [
                    91.4,
                    25.0667
                ]
            },
            "properties": {
                "name": "Sunamganj",
                "article": "https://en.wikipedia.org/wiki/Sunamganj"
            }
        },
        {
            "type": "Feature",
            "geometry": {
                "type": "Point",
                "coordinates": [
                    89.12,
                    23.9
                ]
            },
            "properties": {
                "name": "Kushtia",
                "article": "https://en.wikipedia.org/wiki/Kushtia"
            }
        },
        {
            "type": "Feature",
            "geometry": {
                "type": "Point",
                "coordinates": [
                    89.366666666,
                    24.85
                ]
            },
            "properties": {
                "name": "Bogura",
                "article": "https://en.wikipedia.org/wiki/Bogra"
            }
        },
        {
            "type": "Feature",
            "geometry": {
                "type": "Point",
                "coordinates": [
                    90.000277777,
                    23.861388888
                ]
            },
            "properties": {
                "name": "Manikganj",
                "article": "https://en.wikipedia.org/wiki/Manikganj"
            }
        },
        {
            "type": "Feature",
            "geometry": {
                "type": "Point",
                "coordinates": [
                    89.816666666,
                    23.0
                ]
            },
            "properties": {
                "name": "Gopalganj",
                "article": "https://en.wikipedia.org/wiki/Gopalganj,_Bangladesh"
            }
        },
        {
            "type": "Feature",
            "geometry": {
                "type": "Point",
                "coordinates": [
                    90.5,
                    23.616666666
                ]
            },
            "properties": {
                "name": "Narayanganj",
                "article": "https://en.wikipedia.org/wiki/Narayanganj"
            }
        },
        {
            "type": "Feature",
            "geometry": {
                "type": "Point",
                "coordinates": [
                    89.141667,
                    21.616667
                ]
            },
            "properties": {
                "name": "New Moor",
                "article": "https://en.wikipedia.org/wiki/New_Moor"
            }
        },
        {
            "type": "Feature",
            "geometry": {
                "type": "Point",
                "coordinates": [
                    88.8577,
                    23.6418
                ]
            },
            "properties": {
                "name": "Chuadanga",
                "article": "https://en.wikipedia.org/wiki/Chuadanga"
            }
        },
        {
            "type": "Feature",
            "geometry": {
                "type": "Point",
                "coordinates": [
                    89.18,
                    23.5
                ]
            },
            "properties": {
                "name": "Jhenaidah",
                "article": "https://en.wikipedia.org/wiki/Jhenaidah"
            }
        },
        {
            "type": "Feature",
            "geometry": {
                "type": "Point",
                "coordinates": [
                    90.0,
                    24.4
                ]
            },
            "properties": {
                "name": "Tangail",
                "article": "https://en.wikipedia.org/wiki/Tangail"
            }
        },
        {
            "type": "Feature",
            "geometry": {
                "type": "Point",
                "coordinates": [
                    90.375,
                    23.988888888
                ]
            },
            "properties": {
                "name": "Gazipur",
                "article": "https://en.wikipedia.org/wiki/Gazipur"
            }
        },
        {
            "type": "Feature",
            "geometry": {
                "type": "Point",
                "coordinates": [
                    89.835277777,
                    23.598611111
                ]
            },
            "properties": {
                "name": "Faridpur",
                "article": "https://en.wikipedia.org/wiki/Faridpur,_Bangladesh"
            }
        },
        {
            "type": "Feature",
            "geometry": {
                "type": "Point",
                "coordinates": [
                    90.209444444,
                    23.170833333
                ]
            },
            "properties": {
                "name": "Madaripur",
                "article": "https://en.wikipedia.org/wiki/Madaripur"
            }
        },
        {
            "type": "Feature",
            "geometry": {
                "type": "Point",
                "coordinates": [
                    89.716666666,
                    24.45
                ]
            },
            "properties": {
                "name": "Sirajganj",
                "article": "https://en.wikipedia.org/wiki/Sirajganj"
            }
        },
        {
            "type": "Feature",
            "geometry": {
                "type": "Point",
                "coordinates": [
                    92.60968,
                    21.78657
                ]
            },
            "properties": {
                "name": "Mowdok tiang",
                "article": "https://en.wikipedia.org/wiki/Saka_Haphong"
            }
        },
        {
            "type": "Feature",
            "geometry": {
                "type": "Point",
                "coordinates": [
                    90.716666666,
                    23.9
                ]
            },
            "properties": {
                "name": "Narsingdi",
                "article": "https://en.wikipedia.org/wiki/Narsingdi"
            }
        },
        {
            "type": "Feature",
            "geometry": {
                "type": "Point",
                "coordinates": [
                    90.7833,
                    24.4333
                ]
            },
            "properties": {
                "name": "Kishoreganj",
                "article": "https://en.wikipedia.org/wiki/Kishoreganj"
            }
        },
        {
            "type": "Feature",
            "geometry": {
                "type": "Point",
                "coordinates": [
                    89.34277778,
                    24.96111111
                ]
            },
            "properties": {
                "name": "Mahasthangarh",
                "article": "https://en.wikipedia.org/wiki/Mahasthangarh"
            }
        },
        {
            "type": "Feature",
            "geometry": {
                "type": "Point",
                "coordinates": [
                    91.113739,
                    22.258597
                ]
            },
            "properties": {
                "name": "Hatia Island",
                "article": "https://en.wikipedia.org/wiki/Hatiya_Island"
            }
        },
        {
            "type": "Feature",
            "geometry": {
                "type": "Point",
                "coordinates": [
                    88.9,
                    25.7833
                ]
            },
            "properties": {
                "name": "Saidpur",
                "article": "https://en.wikipedia.org/wiki/Saidpur,_Bangladesh"
            }
        },
        {
            "type": "Feature",
            "geometry": {
                "type": "Point",
                "coordinates": [
                    91.9,
                    21.483333333
                ]
            },
            "properties": {
                "name": "Sonadia Island",
                "article": "https://en.wikipedia.org/wiki/Sonadia_Island"
            }
        },
        {
            "type": "Feature",
            "geometry": {
                "type": "Point",
                "coordinates": [
                    89.541507,
                    25.328978
                ]
            },
            "properties": {
                "name": "Gaibandha",
                "article": "https://en.wikipedia.org/wiki/Gaibandha"
            }
        },
        {
            "type": "Feature",
            "geometry": {
                "type": "Point",
                "coordinates": [
                    89.541507,
                    25.328978
                ]
            },
            "properties": {
                "name": "Gaibandha",
                "article": "https://en.wikipedia.org/wiki/Gaibandha"
            }
        },
        {
            "type": "Feature",
            "geometry": {
                "type": "Point",
                "coordinates": [
                    89.96,
                    24.92
                ]
            },
            "properties": {
                "name": "Jamalpur",
                "article": "https://en.wikipedia.org/wiki/Jamalpur,_Bangladesh"
            }
        },
        {
            "type": "Feature",
            "geometry": {
                "type": "Point",
                "coordinates": [
                    88.65,
                    25.63
                ]
            },
            "properties": {
                "name": "Dinajpur",
                "article": "https://en.wikipedia.org/wiki/Dinajpur"
            }
        },
        {
            "type": "Feature",
            "geometry": {
                "type": "Point",
                "coordinates": [
                    90.394444444,
                    23.728888888
                ]
            },
            "properties": {
                "name": "Dhaka",
                "article": "https://en.wikipedia.org/wiki/Dhaka"
            }
        },
        {
            "type": "Feature",
            "geometry": {
                "type": "Point",
                "coordinates": [
                    91.010747222,
                    22.063561111
                ]
            },
            "properties": {
                "name": "Nijhum Dwip",
                "article": "https://en.wikipedia.org/wiki/Nijhum_Dwip"
            }
        },
        {
            "type": "Feature",
            "geometry": {
                "type": "Point",
                "coordinates": [
                    90.616666666,
                    23.65
                ]
            },
            "properties": {
                "name": "Sonargaon",
                "article": "https://en.wikipedia.org/wiki/Sonargaon"
            }
        },
        {
            "type": "Feature",
            "geometry": {
                "type": "Point",
                "coordinates": [
                    89.643055555,
                    25.812777777
                ]
            },
            "properties": {
                "name": "Kurigram",
                "article": "https://en.wikipedia.org/wiki/Kurigram"
            }
        },
        {
            "type": "Feature",
            "geometry": {
                "type": "Point",
                "coordinates": [
                    89.42,
                    23.49
                ]
            },
            "properties": {
                "name": "Magura",
                "article": "https://en.wikipedia.org/wiki/Magura_(city)"
            }
        },
        {
            "type": "Feature",
            "geometry": {
                "type": "Point",
                "coordinates": [
                    90.116666666,
                    22.75
                ]
            },
            "properties": {
                "name": "Magura",
                "article": "https://en.wikipedia.org/wiki/Magura,_Pirojpur"
            }
        },
        {
            "type": "Feature",
            "geometry": {
                "type": "Point",
                "coordinates": [
                    88.75,
                    24.9
                ]
            },
            "properties": {
                "name": "Naogaon",
                "article": "https://en.wikipedia.org/wiki/Naogaon"
            }
        },
        {
            "type": "Feature",
            "geometry": {
                "type": "Point",
                "coordinates": [
                    88.985833333,
                    24.414166666
                ]
            },
            "properties": {
                "name": "Natore",
                "article": "https://en.wikipedia.org/wiki/Natore"
            }
        },
        {
            "type": "Feature",
            "geometry": {
                "type": "Point",
                "coordinates": [
                    91.108333333,
                    23.965
                ]
            },
            "properties": {
                "name": "B-baria",
                "article": "https://en.wikipedia.org/wiki/B-baria_City,_Bangladesh"
            }
        },
        {
            "type": "Feature",
            "geometry": {
                "type": "Point",
                "coordinates": [
                    92.297518,
                    20.857839
                ]
            },
            "properties": {
                "name": "Teknaf",
                "article": "https://en.wikipedia.org/wiki/Teknaf"
            }
        },
        {
            "type": "Feature",
            "geometry": {
                "type": "Point",
                "coordinates": [
                    92.3,
                    20.866666666
                ]
            },
            "properties": {
                "name": "Teknaf",
                "article": "https://en.wikipedia.org/wiki/Teknaf"
            }
        },
        {
            "type": "Feature",
            "geometry": {
                "type": "Point",
                "coordinates": [
                    88.47,
                    26.030833333
                ]
            },
            "properties": {
                "name": "Thakurgaon",
                "article": "https://en.wikipedia.org/wiki/Thakurgaon,_Bangladesh"
            }
        },
        {
            "type": "Feature",
            "geometry": {
                "type": "Point",
                "coordinates": [
                    89.033333333,
                    23.65
                ]
            },
            "properties": {
                "name": "Harinakunda",
                "article": null
            }
        },
        {
            "type": "Feature",
            "geometry": {
                "type": "Point",
                "coordinates": [
                    89.966666666,
                    23.75
                ]
            },
            "properties": {
                "name": "Harirampur",
                "article": null
            }
        },
        {
            "type": "Feature",
            "geometry": {
                "type": "Point",
                "coordinates": [
                    90.013611111,
                    25.019166666
                ]
            },
            "properties": {
                "name": "Sherpur",
                "article": "https://en.wikipedia.org/wiki/Sherpur,_Bangladesh"
            }
        },
        {
            "type": "Feature",
            "geometry": {
                "type": "Point",
                "coordinates": [
                    90.466666666,
                    24.2
                ]
            },
            "properties": {
                "name": "Sreepur",
                "article": "https://en.wikipedia.org/wiki/Sreepur"
            }
        },
        {
            "type": "Feature",
            "geometry": {
                "type": "Point",
                "coordinates": [
                    90.484296,
                    24.201144
                ]
            },
            "properties": {
                "name": "Sreepur",
                "article": "https://en.wikipedia.org/wiki/Sreepur"
            }
        },
        {
            "type": "Feature",
            "geometry": {
                "type": "Point",
                "coordinates": [
                    88.972,
                    24.261
                ]
            },
            "properties": {
                "name": "Abdulpur Railway Station",
                "article": "https://en.wikipedia.org/wiki/Abdulpur_Junction_railway_station"
            }
        },
        {
            "type": "Feature",
            "geometry": {
                "type": "Point",
                "coordinates": [
                    90.40838,
                    23.85171
                ]
            },
            "properties": {
                "name": "Airport railway station",
                "article": "https://en.wikipedia.org/wiki/Dhaka_Airport_railway_station"
            }
        },
        {
            "type": "Feature",
            "geometry": {
                "type": "Point",
                "coordinates": [
                    90.412402777,
                    23.817308333
                ]
            },
            "properties": {
                "name": "Airport Road, Dhaka",
                "article": "https://en.wikipedia.org/wiki/Airport_Road,_Dhaka"
            }
        },
        {
            "type": "Feature",
            "geometry": {
                "type": "Point",
                "coordinates": [
                    90.410217,
                    23.779826
                ]
            },
            "properties": {
                "name": "BRAC Centre",
                "article": "https://en.wikipedia.org/wiki/BRAC_Centre"
            }
        },
        {
            "type": "Feature",
            "geometry": {
                "type": "Point",
                "coordinates": [
                    92.46944444,
                    21.98055556
                ]
            },
            "properties": {
                "name": "Bagakain Lake",
                "article": "https://en.wikipedia.org/wiki/Bagakain_Lake"
            }
        },
        {
            "type": "Feature",
            "geometry": {
                "type": "Point",
                "coordinates": [
                    90.402445,
                    23.740874
                ]
            },
            "properties": {
                "name": "Bailey Road",
                "article": "https://en.wikipedia.org/wiki/Bailey_Road,_Dhaka"
            }
        },
        {
            "type": "Feature",
            "geometry": {
                "type": "Point",
                "coordinates": [
                    88.9345,
                    26.3967
                ]
            },
            "properties": {
                "name": "Burimari railway station",
                "article": "https://en.wikipedia.org/wiki/Burimari_railway_station"
            }
        },
        {
            "type": "Feature",
            "geometry": {
                "type": "Point",
                "coordinates": [
                    89.01,
                    24.52
                ]
            },
            "properties": {
                "name": "Chalan Beel",
                "article": "https://en.wikipedia.org/wiki/Chalan_Beel"
            }
        },
        {
            "type": "Feature",
            "geometry": {
                "type": "Point",
                "coordinates": [
                    88.7967,
                    26.2439
                ]
            },
            "properties": {
                "name": "Chilahati railway station",
                "article": "https://en.wikipedia.org/wiki/Chilahati_railway_station"
            }
        },
        {
            "type": "Feature",
            "geometry": {
                "type": "Point",
                "coordinates": [
                    90.415559,
                    23.727146
                ]
            },
            "properties": {
                "name": "City Bank Tower",
                "article": "https://en.wikipedia.org/wiki/Jiban_Bima_Tower"
            }
        },
        {
            "type": "Feature",
            "geometry": {
                "type": "Point",
                "coordinates": [
                    90.40189,
                    23.7274
                ]
            },
            "properties": {
                "name": "Curzon Hall",
                "article": "https://en.wikipedia.org/wiki/Curzon_Hall"
            }
        },
        {
            "type": "Feature",
            "geometry": {
                "type": "Point",
                "coordinates": [
                    90.74,
                    21.906
                ]
            },
            "properties": {
                "name": "Dal Char",
                "article": "https://en.wikipedia.org/wiki/Dhal_Char"
            }
        },
        {
            "type": "Feature",
            "geometry": {
                "type": "Point",
                "coordinates": [
                    88.7904,
                    23.5036
                ]
            },
            "properties": {
                "name": "Darshana railway station",
                "article": "https://en.wikipedia.org/wiki/Darshana_railway_station"
            }
        },
        {
            "type": "Feature",
            "geometry": {
                "type": "Point",
                "coordinates": [
                    89.85,
                    23.966666666
                ]
            },
            "properties": {
                "name": "Daulatpur",
                "article": "https://en.wikipedia.org/wiki/Daulatpur,_Manikganj"
            }
        },
        {
            "type": "Feature",
            "geometry": {
                "type": "Point",
                "coordinates": [
                    90.4062875,
                    23.7237065
                ]
            },
            "properties": {
                "name": "Dhaka Nagar Bhaban",
                "article": "https://en.wikipedia.org/wiki/Nagar_Bhaban"
            }
        },
        {
            "type": "Feature",
            "geometry": {
                "type": "Point",
                "coordinates": [
                    90.40854,
                    23.72378
                ]
            },
            "properties": {
                "name": "Dhaka Nagar Bhaban",
                "article": "https://en.wikipedia.org/wiki/Nagar_Bhaban"
            }
        },
        {
            "type": "Feature",
            "geometry": {
                "type": "Point",
                "coordinates": [
                    90.3776,
                    23.7455
                ]
            },
            "properties": {
                "name": "Dhanmondi Lake",
                "article": "https://en.wikipedia.org/wiki/Dhanmondi_Lake"
            }
        },
        {
            "type": "Feature",
            "geometry": {
                "type": "Point",
                "coordinates": [
                    89.4987355,
                    21.7822804
                ]
            },
            "properties": {
                "name": "Dublar Char",
                "article": "https://en.wikipedia.org/wiki/Dublar_Char"
            }
        },
        {
            "type": "Feature",
            "geometry": {
                "type": "Point",
                "coordinates": [
                    89.0067,
                    25.2773
                ]
            },
            "properties": {
                "name": "Hili Railway Station",
                "article": "https://en.wikipedia.org/wiki/Hili_railway_station"
            }
        },
        {
            "type": "Feature",
            "geometry": {
                "type": "Point",
                "coordinates": [
                    89.0629,
                    24.1295
                ]
            },
            "properties": {
                "name": "Iswardi railway station",
                "article": "https://en.wikipedia.org/wiki/Ishwardi_Junction_railway_station"
            }
        },
        {
            "type": "Feature",
            "geometry": {
                "type": "Point",
                "coordinates": [
                    90.42686,
                    23.73054
                ]
            },
            "properties": {
                "name": "Kamalapur railway station",
                "article": "https://en.wikipedia.org/wiki/Kamalapur_railway_station"
            }
        },
        {
            "type": "Feature",
            "geometry": {
                "type": "Point",
                "coordinates": [
                    90.066666666,
                    22.633333333
                ]
            },
            "properties": {
                "name": "Kawkhali",
                "article": "https://en.wikipedia.org/wiki/Kawkhali"
            }
        },
        {
            "type": "Feature",
            "geometry": {
                "type": "Point",
                "coordinates": [
                    88.88333333,
                    24.45
                ]
            },
            "properties": {
                "name": "Khoksa",
                "article": "https://en.wikipedia.org/wiki/Khoksa"
            }
        },
        {
            "type": "Feature",
            "geometry": {
                "type": "Point",
                "coordinates": [
                    89.283333333,
                    23.8
                ]
            },
            "properties": {
                "name": "Khoksa",
                "article": "https://en.wikipedia.org/wiki/Khoksa"
            }
        },
        {
            "type": "Feature",
            "geometry": {
                "type": "Point",
                "coordinates": [
                    90.1167,
                    21.8167
                ]
            },
            "properties": {
                "name": "Kuakata",
                "article": "https://en.wikipedia.org/wiki/Kuakata"
            }
        },
        {
            "type": "Feature",
            "geometry": {
                "type": "Point",
                "coordinates": [
                    89.44548,
                    25.91193
                ]
            },
            "properties": {
                "name": "Lalmonirhat railway station",
                "article": "https://en.wikipedia.org/wiki/Lalmonirhat_Junction_railway_station"
            }
        },
        {
            "type": "Feature",
            "geometry": {
                "type": "Point",
                "coordinates": [
                    90.392497,
                    23.731547
                ]
            },
            "properties": {
                "name": "Madhur Canteen",
                "article": "https://en.wikipedia.org/wiki/Madhur_Canteen"
            }
        },
        {
            "type": "Feature",
            "geometry": {
                "type": "Point",
                "coordinates": [
                    91.1378,
                    23.4261
                ]
            },
            "properties": {
                "name": "Mainamati",
                "article": "https://en.wikipedia.org/wiki/Mainamati"
            }
        },
        {
            "type": "Feature",
            "geometry": {
                "type": "Point",
                "coordinates": [
                    90.966666666,
                    22.3
                ]
            },
            "properties": {
                "name": "Manpura Island",
                "article": "https://en.wikipedia.org/wiki/Manpura_Island"
            }
        },
        {
            "type": "Feature",
            "geometry": {
                "type": "Point",
                "coordinates": [
                    89.45184,
                    25.99224
                ]
            },
            "properties": {
                "name": "Mogalhat railway station",
                "article": "https://en.wikipedia.org/wiki/Mogalhat_railway_station"
            }
        },
        {
            "type": "Feature",
            "geometry": {
                "type": "Point",
                "coordinates": [
                    90.52046,
                    23.7786
                ]
            },
            "properties": {
                "name": "Murapara Rajbari",
                "article": "https://en.wikipedia.org/wiki/Murapara_Rajbari"
            }
        },
        {
            "type": "Feature",
            "geometry": {
                "type": "Point",
                "coordinates": [
                    90.39277778,
                    23.72722222
                ]
            },
            "properties": {
                "name": "Nazrul Islam Hall",
                "article": null
            }
        },
        {
            "type": "Feature",
            "geometry": {
                "type": "Point",
                "coordinates": [
                    90.40285,
                    23.73108
                ]
            },
            "properties": {
                "name": "Old High Court Building, Dhaka",
                "article": "https://en.wikipedia.org/wiki/Old_High_Court_Building,_Dhaka"
            }
        },
        {
            "type": "Feature",
            "geometry": {
                "type": "Point",
                "coordinates": [
                    88.2667,
                    24.6
                ]
            },
            "properties": {
                "name": "Nawabganj",
                "article": "https://en.wikipedia.org/wiki/Chapai_Nawabganj"
            }
        },
        {
            "type": "Feature",
            "geometry": {
                "type": "Point",
                "coordinates": [
                    89.34583333,
                    24.96277778
                ]
            },
            "properties": {
                "name": "Pundranagar",
                "article": "https://en.wikipedia.org/wiki/Pundranagar"
            }
        },
        {
            "type": "Feature",
            "geometry": {
                "type": "Point",
                "coordinates": [
                    90.4158659,
                    23.7262606
                ]
            },
            "properties": {
                "name": "RAJUK Bhaban",
                "article": "https://en.wikipedia.org/wiki/RAJUK_Bhaban"
            }
        },
        {
            "type": "Feature",
            "geometry": {
                "type": "Point",
                "coordinates": [
                    88.623333333,
                    25.554444444
                ]
            },
            "properties": {
                "name": "Ramsagar",
                "article": "https://en.wikipedia.org/wiki/Ramsagar"
            }
        },
        {
            "type": "Feature",
            "geometry": {
                "type": "Point",
                "coordinates": [
                    90.42648,
                    23.71829
                ]
            },
            "properties": {
                "name": "Rose Garden Palace",
                "article": "https://en.wikipedia.org/wiki/Rose_Garden_Palace"
            }
        },
        {
            "type": "Feature",
            "geometry": {
                "type": "Point",
                "coordinates": [
                    90.3907,
                    23.7294
                ]
            },
            "properties": {
                "name": "Salimullah Muslim Hall",
                "article": "https://en.wikipedia.org/wiki/Salimullah_Muslim_Hall"
            }
        },
        {
            "type": "Feature",
            "geometry": {
                "type": "Point",
                "coordinates": [
                    88.9857,
                    24.8053
                ]
            },
            "properties": {
                "name": "Santahar Junction railway station",
                "article": "https://en.wikipedia.org/wiki/Santahar_Junction_railway_station"
            }
        },
        {
            "type": "Feature",
            "geometry": {
                "type": "Point",
                "coordinates": [
                    91.173333,
                    24.051667
                ]
            },
            "properties": {
                "name": "Shahbazpur",
                "article": null
            }
        },
        {
            "type": "Feature",
            "geometry": {
                "type": "Point",
                "coordinates": [
                    90.4016,
                    23.7258
                ]
            },
            "properties": {
                "name": "Shahidullah Hall",
                "article": "https://en.wikipedia.org/wiki/Dr._Muhammad_Shahidullah_Hall"
            }
        },
        {
            "type": "Feature",
            "geometry": {
                "type": "Point",
                "coordinates": [
                    91.1372098,
                    23.426234
                ]
            },
            "properties": {
                "name": "Shalban Vihara",
                "article": "https://en.wikipedia.org/wiki/Shalban_Vihara"
            }
        },
        {
            "type": "Feature",
            "geometry": {
                "type": "Point",
                "coordinates": [
                    92.334,
                    20.7674
                ]
            },
            "properties": {
                "name": "Shapuree Island",
                "article": "https://en.wikipedia.org/wiki/Shapuree_Island"
            }
        },
        {
            "type": "Feature",
            "geometry": {
                "type": "Point",
                "coordinates": [
                    88.9911,
                    24.42
                ]
            },
            "properties": {
                "name": "Uttara Gano Bhaban",
                "article": "https://en.wikipedia.org/wiki/Uttara_Ganabhaban"
            }
        },
        {
            "type": "Feature",
            "geometry": {
                "type": "Point",
                "coordinates": [
                    90.528611111,
                    23.631944444
                ]
            },
            "properties": {
                "name": "Kadam Rasul",
                "article": null
            }
        },
        {
            "type": "Feature",
            "geometry": {
                "type": "Point",
                "coordinates": [
                    89.6475,
                    23.76416667
                ]
            },
            "properties": {
                "name": "Rajbari",
                "article": "https://en.wikipedia.org/wiki/Rajbari,_Bangladesh"
            }
        },
        {
            "type": "Feature",
            "geometry": {
                "type": "Point",
                "coordinates": [
                    91.1274697,
                    23.4493711
                ]
            },
            "properties": {
                "name": "Anand Bihar",
                "article": null
            }
        },
        {
            "type": "Feature",
            "geometry": {
                "type": "Point",
                "coordinates": [
                    91.1213082,
                    23.4609286
                ]
            },
            "properties": {
                "name": "Kotila Mura",
                "article": null
            }
        },
        {
            "type": "Feature",
            "geometry": {
                "type": "Point",
                "coordinates": [
                    90.3942,
                    23.7291
                ]
            },
            "properties": {
                "name": "Jagannath Hall",
                "article": "https://en.wikipedia.org/wiki/Jagannath_Hall"
            }
        },
        {
            "type": "Feature",
            "geometry": {
                "type": "Point",
                "coordinates": [
                    91.860116512,
                    24.89067835
                ]
            },
            "properties": {
                "name": "Jitu Miyar Bari",
                "article": null
            }
        },
        {
            "type": "Feature",
            "geometry": {
                "type": "Point",
                "coordinates": [
                    90.4131071,
                    23.7063302
                ]
            },
            "properties": {
                "name": "Beauty Boarding",
                "article": "https://en.wikipedia.org/wiki/Beauty_Boarding"
            }
        },
        {
            "type": "Feature",
            "geometry": {
                "type": "Point",
                "coordinates": [
                    90.516666666,
                    23.683333333
                ]
            },
            "properties": {
                "name": "Siddhirganj",
                "article": "https://en.wikipedia.org/wiki/Siddhirganj"
            }
        },
        {
            "type": "Feature",
            "geometry": {
                "type": "Point",
                "coordinates": [
                    90.6339,
                    23.2579
                ]
            },
            "properties": {
                "name": "Padma Meghna River Estuarine",
                "article": null
            }
        },
        {
            "type": "Feature",
            "geometry": {
                "type": "Point",
                "coordinates": [
                    88.14159,
                    24.83566
                ]
            },
            "properties": {
                "name": "Gaud",
                "article": null
            }
        },
        {
            "type": "Feature",
            "geometry": {
                "type": "Point",
                "coordinates": [
                    88.5513,
                    25.6323
                ]
            },
            "properties": {
                "name": "Biral railway station",
                "article": "https://en.wikipedia.org/wiki/Biral_railway_station"
            }
        },
        {
            "type": "Feature",
            "geometry": {
                "type": "Point",
                "coordinates": [
                    92.5926,
                    22.04165
                ]
            },
            "properties": {
                "name": "Dumlong",
                "article": "https://en.wikipedia.org/wiki/Dumlong"
            }
        },
        {
            "type": "Feature",
            "geometry": {
                "type": "Point",
                "coordinates": [
                    90.4201,
                    23.9984
                ]
            },
            "properties": {
                "name": "Joydebpur junction railway station",
                "article": "https://en.wikipedia.org/wiki/Joydebpur_Junction_railway_station"
            }
        },
        {
            "type": "Feature",
            "geometry": {
                "type": "Point",
                "coordinates": [
                    91.9226,
                    21.584
                ]
            },
            "properties": {
                "name": "Maheshkhali Island",
                "article": "https://en.wikipedia.org/wiki/Maheshkhali_Island"
            }
        },
        {
            "type": "Feature",
            "geometry": {
                "type": "Point",
                "coordinates": [
                    92.60243,
                    21.98079
                ]
            },
            "properties": {
                "name": "Mukhra Thuthai haphong",
                "article": "https://en.wikipedia.org/wiki/Mukhra_Thuthai_haphong"
            }
        },
        {
            "type": "Feature",
            "geometry": {
                "type": "Point",
                "coordinates": [
                    88.319413888,
                    24.820694444
                ]
            },
            "properties": {
                "name": "Rohanpur Railway Station",
                "article": "https://en.wikipedia.org/wiki/Rohanpur_railway_station"
            }
        },
        {
            "type": "Feature",
            "geometry": {
                "type": "Point",
                "coordinates": [
                    91.83477,
                    22.3493
                ]
            },
            "properties": {
                "name": "A. K. Khan Tower",
                "article": null
            }
        },
        {
            "type": "Feature",
            "geometry": {
                "type": "Point",
                "coordinates": [
                    90.374,
                    23.76521
                ]
            },
            "properties": {
                "name": "Ganabhaban",
                "article": "https://en.wikipedia.org/wiki/Ganabhaban"
            }
        },
        {
            "type": "Feature",
            "geometry": {
                "type": "Point",
                "coordinates": [
                    88.97508,
                    24.614009
                ]
            },
            "properties": {
                "name": "Ahsanganj railway station",
                "article": "https://en.wikipedia.org/wiki/Ahsanganj_railway_station"
            }
        },
        {
            "type": "Feature",
            "geometry": {
                "type": "Point",
                "coordinates": [
                    89.0125956,
                    25.240616
                ]
            },
            "properties": {
                "name": "Bagjana Railway Station",
                "article": "https://en.wikipedia.org/wiki/Bagjana_railway_station"
            }
        },
        {
            "type": "Feature",
            "geometry": {
                "type": "Point",
                "coordinates": [
                    90.654,
                    23.225
                ]
            },
            "properties": {
                "name": "Chandpur",
                "article": "https://en.wikipedia.org/wiki/Chandpur,_Bangladesh"
            }
        },
        {
            "type": "Feature",
            "geometry": {
                "type": "Point",
                "coordinates": [
                    91.882,
                    24.915
                ]
            },
            "properties": {
                "name": "Chowkideki",
                "article": null
            }
        },
        {
            "type": "Feature",
            "geometry": {
                "type": "Point",
                "coordinates": [
                    91.1271622,
                    23.4388217
                ]
            },
            "properties": {
                "name": "Itakhola Mura",
                "article": null
            }
        },
        {
            "type": "Feature",
            "geometry": {
                "type": "Point",
                "coordinates": [
                    89.011944444,
                    24.960555555
                ]
            },
            "properties": {
                "name": "Akkelpur Railway Station",
                "article": "https://en.wikipedia.org/wiki/Akkelpur_railway_station"
            }
        },
        {
            "type": "Feature",
            "geometry": {
                "type": "Point",
                "coordinates": [
                    91.1733,
                    24.0517
                ]
            },
            "properties": {
                "name": "Shahbazpur Town, Brahmanbaria, Bangladesh",
                "article": null
            }
        },
        {
            "type": "Feature",
            "geometry": {
                "type": "Point",
                "coordinates": [
                    92.58906,
                    21.90965
                ]
            },
            "properties": {
                "name": "Thingdawl Te Tlang",
                "article": "https://en.wikipedia.org/wiki/Thingdawl_Te_Tlang"
            }
        },
        {
            "type": "Feature",
            "geometry": {
                "type": "Point",
                "coordinates": [
                    89.0213,
                    25.1891
                ]
            },
            "properties": {
                "name": "Panchbibi Railway Station",
                "article": "https://en.wikipedia.org/wiki/Panchbibi_railway_station"
            }
        },
        {
            "type": "Feature",
            "geometry": {
                "type": "Point",
                "coordinates": [
                    89.0018,
                    24.8769
                ]
            },
            "properties": {
                "name": "Tilakpur Railway Station",
                "article": "https://en.wikipedia.org/wiki/Tilakpur_railway_station"
            }
        },
        {
            "type": "Feature",
            "geometry": {
                "type": "Point",
                "coordinates": [
                    89.015136,
                    24.922062
                ]
            },
            "properties": {
                "name": "Jafarpur Railway Station",
                "article": "https://en.wikipedia.org/wiki/Jafarpur_railway_station"
            }
        },
        {
            "type": "Feature",
            "geometry": {
                "type": "Point",
                "coordinates": [
                    89.0218,
                    25.0303
                ]
            },
            "properties": {
                "name": "Jamalganj Railway Station",
                "article": "https://en.wikipedia.org/wiki/Jamalganj_railway_station"
            }
        },
        {
            "type": "Feature",
            "geometry": {
                "type": "Point",
                "coordinates": [
                    89.0259,
                    25.099
                ]
            },
            "properties": {
                "name": "Joypurhat Railway Station",
                "article": "https://en.wikipedia.org/wiki/Joypurhat_railway_station"
            }
        },
        {
            "type": "Feature",
            "geometry": {
                "type": "Point",
                "coordinates": [
                    90.38138,
                    23.76917
                ]
            },
            "properties": {
                "name": "Bangabandhu International Conference Center",
                "article": "https://en.wikipedia.org/wiki/Bangabandhu_International_Conference_Center"
            }
        },
        {
            "type": "Feature",
            "geometry": {
                "type": "Point",
                "coordinates": [
                    91.1240602,
                    23.2546121
                ]
            },
            "properties": {
                "name": "Laksam Railway Junction",
                "article": "https://en.wikipedia.org/wiki/Laksam_Junction_railway_station"
            }
        },
        {
            "type": "Feature",
            "geometry": {
                "type": "Point",
                "coordinates": [
                    91.1094,
                    22.9393
                ]
            },
            "properties": {
                "name": "Chowmuhani",
                "article": "https://en.wikipedia.org/wiki/Chowmuhani"
            }
        },
        {
            "type": "Feature",
            "geometry": {
                "type": "Point",
                "coordinates": [
                    91.1,
                    22.8333
                ]
            },
            "properties": {
                "name": "Maijdee",
                "article": "https://en.wikipedia.org/wiki/Maijdee"
            }
        },
        {
            "type": "Feature",
            "geometry": {
                "type": "Point",
                "coordinates": [
                    91.8338933,
                    22.3436506
                ]
            },
            "properties": {
                "name": "Jatra Mohan Sen Hall",
                "article": null
            }
        },
        {
            "type": "Feature",
            "geometry": {
                "type": "Point",
                "coordinates": [
                    92.6047,
                    21.67331
                ]
            },
            "properties": {
                "name": "Zow Tlang / Reang Haphong",
                "article": "https://en.wikipedia.org/wiki/Zow_Tlang"
            }
        },
        {
            "type": "Feature",
            "geometry": {
                "type": "Point",
                "coordinates": [
                    90.224444444,
                    24.060277777
                ]
            },
            "properties": {
                "name": "Kaliakair",
                "article": "https://en.wikipedia.org/wiki/Kaliakair"
            }
        },
        {
            "type": "Feature",
            "geometry": {
                "type": "Point",
                "coordinates": [
                    90.28,
                    24.1
                ]
            },
            "properties": {
                "name": "Kaliakair",
                "article": "https://en.wikipedia.org/wiki/Kaliakair"
            }
        },
        {
            "type": "Feature",
            "geometry": {
                "type": "Point",
                "coordinates": [
                    90.05,
                    24.21667
                ]
            },
            "properties": {
                "name": "Basail",
                "article": null
            }
        },
        {
            "type": "Feature",
            "geometry": {
                "type": "Point",
                "coordinates": [
                    91.93367,
                    21.49883
                ]
            },
            "properties": {
                "name": "Hamidabdia Island",
                "article": null
            }
        },
        {
            "type": "Feature",
            "geometry": {
                "type": "Point",
                "coordinates": [
                    91.95113,
                    21.61117
                ]
            },
            "properties": {
                "name": "Maheskhali Island",
                "article": null
            }
        },
        {
            "type": "Feature",
            "geometry": {
                "type": "Point",
                "coordinates": [
                    92.043888888,
                    22.703888888
                ]
            },
            "properties": {
                "name": "Q21745624",
                "article": null
            }
        },
        {
            "type": "Feature",
            "geometry": {
                "type": "Point",
                "coordinates": [
                    90.65,
                    21.93333
                ]
            },
            "properties": {
                "name": "Kukuri Mukuri Char",
                "article": null
            }
        },
        {
            "type": "Feature",
            "geometry": {
                "type": "Point",
                "coordinates": [
                    91.995,
                    23.257222222
                ]
            },
            "properties": {
                "name": "Q21745638",
                "article": null
            }
        },
        {
            "type": "Feature",
            "geometry": {
                "type": "Point",
                "coordinates": [
                    91.86563,
                    21.84103
                ]
            },
            "properties": {
                "name": "Kutubdia Island",
                "article": null
            }
        },
        {
            "type": "Feature",
            "geometry": {
                "type": "Point",
                "coordinates": [
                    91.28333,
                    22.58333
                ]
            },
            "properties": {
                "name": "Lakhi Char",
                "article": null
            }
        },
        {
            "type": "Feature",
            "geometry": {
                "type": "Point",
                "coordinates": [
                    92.53524,
                    21.86184
                ]
            },
            "properties": {
                "name": "Lakhudaung",
                "article": null
            }
        },
        {
            "type": "Feature",
            "geometry": {
                "type": "Point",
                "coordinates": [
                    91.613336666,
                    22.81667
                ]
            },
            "properties": {
                "name": "Lakhimura",
                "article": null
            }
        },
        {
            "type": "Feature",
            "geometry": {
                "type": "Point",
                "coordinates": [
                    92.52183,
                    22.02926
                ]
            },
            "properties": {
                "name": "Lakho Taung",
                "article": null
            }
        },
        {
            "type": "Feature",
            "geometry": {
                "type": "Point",
                "coordinates": [
                    91.842222222,
                    25.101944444
                ]
            },
            "properties": {
                "name": "Q21745655",
                "article": null
            }
        },
        {
            "type": "Feature",
            "geometry": {
                "type": "Point",
                "coordinates": [
                    90.55,
                    21.95
                ]
            },
            "properties": {
                "name": "Char Lakshmi",
                "article": "https://en.wikipedia.org/wiki/Char_Lakshmi"
            }
        },
        {
            "type": "Feature",
            "geometry": {
                "type": "Point",
                "coordinates": [
                    91.166666666,
                    22.283333333
                ]
            },
            "properties": {
                "name": "Q21745653",
                "article": null
            }
        },
        {
            "type": "Feature",
            "geometry": {
                "type": "Point",
                "coordinates": [
                    91.124444444,
                    23.418888888
                ]
            },
            "properties": {
                "name": "Q21745656",
                "article": null
            }
        },
        {
            "type": "Feature",
            "geometry": {
                "type": "Point",
                "coordinates": [
                    91.776666666,
                    24.442777777
                ]
            },
            "properties": {
                "name": "Q21745663",
                "article": null
            }
        },
        {
            "type": "Feature",
            "geometry": {
                "type": "Point",
                "coordinates": [
                    91.87,
                    21.530555555
                ]
            },
            "properties": {
                "name": "Q21745661",
                "article": null
            }
        },
        {
            "type": "Feature",
            "geometry": {
                "type": "Point",
                "coordinates": [
                    91.2,
                    22.73333
                ]
            },
            "properties": {
                "name": "Lengta Char",
                "article": null
            }
        },
        {
            "type": "Feature",
            "geometry": {
                "type": "Point",
                "coordinates": [
                    91.83333,
                    22.3
                ]
            },
            "properties": {
                "name": "Lukia Island",
                "article": null
            }
        },
        {
            "type": "Feature",
            "geometry": {
                "type": "Point",
                "coordinates": [
                    92.53066,
                    21.81646
                ]
            },
            "properties": {
                "name": "Lungphe Taung",
                "article": null
            }
        },
        {
            "type": "Feature",
            "geometry": {
                "type": "Point",
                "coordinates": [
                    92.32973,
                    21.87016
                ]
            },
            "properties": {
                "name": "Lurain Taung",
                "article": null
            }
        },
        {
            "type": "Feature",
            "geometry": {
                "type": "Point",
                "coordinates": [
                    91.99015,
                    23.30421
                ]
            },
            "properties": {
                "name": "Lutiban",
                "article": null
            }
        },
        {
            "type": "Feature",
            "geometry": {
                "type": "Point",
                "coordinates": [
                    92.335,
                    23.126666666
                ]
            },
            "properties": {
                "name": "Q21745672",
                "article": null
            }
        },
        {
            "type": "Feature",
            "geometry": {
                "type": "Point",
                "coordinates": [
                    92.233333333,
                    23.616666666
                ]
            },
            "properties": {
                "name": "Q21745673",
                "article": null
            }
        },
        {
            "type": "Feature",
            "geometry": {
                "type": "Point",
                "coordinates": [
                    92.24275,
                    23.56214
                ]
            },
            "properties": {
                "name": "Lungtian",
                "article": null
            }
        },
        {
            "type": "Feature",
            "geometry": {
                "type": "Point",
                "coordinates": [
                    91.08333,
                    22.11667
                ]
            },
            "properties": {
                "name": "MacPherson Char",
                "article": null
            }
        },
        {
            "type": "Feature",
            "geometry": {
                "type": "Point",
                "coordinates": [
                    91.05,
                    22.2
                ]
            },
            "properties": {
                "name": "Madhya Char",
                "article": null
            }
        },
        {
            "type": "Feature",
            "geometry": {
                "type": "Point",
                "coordinates": [
                    91.875833333,
                    24.694166666
                ]
            },
            "properties": {
                "name": "Q21745690",
                "article": null
            }
        },
        {
            "type": "Feature",
            "geometry": {
                "type": "Point",
                "coordinates": [
                    92.1,
                    24.716666666
                ]
            },
            "properties": {
                "name": "Q21745691",
                "article": null
            }
        },
        {
            "type": "Feature",
            "geometry": {
                "type": "Point",
                "coordinates": [
                    92.228055555,
                    23.355
                ]
            },
            "properties": {
                "name": "Q21745688",
                "article": null
            }
        },
        {
            "type": "Feature",
            "geometry": {
                "type": "Point",
                "coordinates": [
                    90.65,
                    22.1
                ]
            },
            "properties": {
                "name": "Char Mandal",
                "article": null
            }
        },
        {
            "type": "Feature",
            "geometry": {
                "type": "Point",
                "coordinates": [
                    90.63946,
                    21.997
                ]
            },
            "properties": {
                "name": "Manika Char",
                "article": null
            }
        },
        {
            "type": "Feature",
            "geometry": {
                "type": "Point",
                "coordinates": [
                    91.029166666,
                    24.300833333
                ]
            },
            "properties": {
                "name": "Q21745705",
                "article": null
            }
        },
        {
            "type": "Feature",
            "geometry": {
                "type": "Point",
                "coordinates": [
                    90.39662,
                    23.74139
                ]
            },
            "properties": {
                "name": "InterContinental Dhaka",
                "article": "https://en.wikipedia.org/wiki/InterContinental_Dhaka"
            }
        },
        {
            "type": "Feature",
            "geometry": {
                "type": "Point",
                "coordinates": [
                    92.434,
                    22.8366
                ]
            },
            "properties": {
                "name": "Q21745727",
                "article": null
            }
        },
        {
            "type": "Feature",
            "geometry": {
                "type": "Point",
                "coordinates": [
                    91.887777777,
                    21.708055555
                ]
            },
            "properties": {
                "name": "Q21745725",
                "article": null
            }
        },
        {
            "type": "Feature",
            "geometry": {
                "type": "Point",
                "coordinates": [
                    91.816666666,
                    22.216666666
                ]
            },
            "properties": {
                "name": "Q21745733",
                "article": null
            }
        },
        {
            "type": "Feature",
            "geometry": {
                "type": "Point",
                "coordinates": [
                    90.53333,
                    21.9
                ]
            },
            "properties": {
                "name": "Char Montaj",
                "article": null
            }
        },
        {
            "type": "Feature",
            "geometry": {
                "type": "Point",
                "coordinates": [
                    92.680833333,
                    21.286944444
                ]
            },
            "properties": {
                "name": "Mowdok Taung",
                "article": null
            }
        },
        {
            "type": "Feature",
            "geometry": {
                "type": "Point",
                "coordinates": [
                    92.24806,
                    21.66806
                ]
            },
            "properties": {
                "name": "Muranja Taung",
                "article": null
            }
        },
        {
            "type": "Feature",
            "geometry": {
                "type": "Point",
                "coordinates": [
                    90.87068,
                    25.01573
                ]
            },
            "properties": {
                "name": "Q21745766",
                "article": null
            }
        },
        {
            "type": "Feature",
            "geometry": {
                "type": "Point",
                "coordinates": [
                    92.6225,
                    21.5025
                ]
            },
            "properties": {
                "name": "Naprai Taung",
                "article": null
            }
        },
        {
            "type": "Feature",
            "geometry": {
                "type": "Point",
                "coordinates": [
                    90.51179,
                    21.9856
                ]
            },
            "properties": {
                "name": "Char Nazir",
                "article": null
            }
        },
        {
            "type": "Feature",
            "geometry": {
                "type": "Point",
                "coordinates": [
                    91.45,
                    22.76667
                ]
            },
            "properties": {
                "name": "Nilokhi Char",
                "article": null
            }
        },
        {
            "type": "Feature",
            "geometry": {
                "type": "Point",
                "coordinates": [
                    91.186944444,
                    24.895
                ]
            },
            "properties": {
                "name": "Q21745788",
                "article": null
            }
        },
        {
            "type": "Feature",
            "geometry": {
                "type": "Point",
                "coordinates": [
                    91.2025,
                    25.183333333
                ]
            },
            "properties": {
                "name": "Q21745793",
                "article": null
            }
        },
        {
            "type": "Feature",
            "geometry": {
                "type": "Point",
                "coordinates": [
                    91.817777777,
                    24.821666666
                ]
            },
            "properties": {
                "name": "Q21745809",
                "article": null
            }
        },
        {
            "type": "Feature",
            "geometry": {
                "type": "Point",
                "coordinates": [
                    90.63946,
                    21.997
                ]
            },
            "properties": {
                "name": "Manika Char",
                "article": null
            }
        },
        {
            "type": "Feature",
            "geometry": {
                "type": "Point",
                "coordinates": [
                    91.029166666,
                    24.300833333
                ]
            },
            "properties": {
                "name": "Q21745705",
                "article": null
            }
        },
        {
            "type": "Feature",
            "geometry": {
                "type": "Point",
                "coordinates": [
                    92.434,
                    22.8366
                ]
            },
            "properties": {
                "name": "Q21745727",
                "article": null
            }
        },
        {
            "type": "Feature",
            "geometry": {
                "type": "Point",
                "coordinates": [
                    91.887777777,
                    21.708055555
                ]
            },
            "properties": {
                "name": "Q21745725",
                "article": null
            }
        },
        {
            "type": "Feature",
            "geometry": {
                "type": "Point",
                "coordinates": [
                    91.816666666,
                    22.216666666
                ]
            },
            "properties": {
                "name": "Q21745733",
                "article": null
            }
        },
        {
            "type": "Feature",
            "geometry": {
                "type": "Point",
                "coordinates": [
                    90.333333333,
                    21.983333333
                ]
            },
            "properties": {
                "name": "Q21745831",
                "article": null
            }
        },
        {
            "type": "Feature",
            "geometry": {
                "type": "Point",
                "coordinates": [
                    92.508888888,
                    22.109166666
                ]
            },
            "properties": {
                "name": "Poltai Taung",
                "article": null
            }
        },
        {
            "type": "Feature",
            "geometry": {
                "type": "Point",
                "coordinates": [
                    90.916666666,
                    22.416666666
                ]
            },
            "properties": {
                "name": "Q21745838",
                "article": null
            }
        },
        {
            "type": "Feature",
            "geometry": {
                "type": "Point",
                "coordinates": [
                    89.33812,
                    21.70755
                ]
            },
            "properties": {
                "name": "Putney Island",
                "article": null
            }
        },
        {
            "type": "Feature",
            "geometry": {
                "type": "Point",
                "coordinates": [
                    92.483769,
                    22.184286
                ]
            },
            "properties": {
                "name": "Sippi Arsuang",
                "article": null
            }
        },
        {
            "type": "Feature",
            "geometry": {
                "type": "Point",
                "coordinates": [
                    89.9662,
                    23.8259
                ]
            },
            "properties": {
                "name": "Q21745849",
                "article": null
            }
        },
        {
            "type": "Feature",
            "geometry": {
                "type": "Point",
                "coordinates": [
                    92.135277777,
                    22.573888888
                ]
            },
            "properties": {
                "name": "Q21745852",
                "article": null
            }
        },
        {
            "type": "Feature",
            "geometry": {
                "type": "Point",
                "coordinates": [
                    92.560555555,
                    21.97
                ]
            },
            "properties": {
                "name": "Rankhiang Taung",
                "article": null
            }
        },
        {
            "type": "Feature",
            "geometry": {
                "type": "Point",
                "coordinates": [
                    91.092777777,
                    25.146111111
                ]
            },
            "properties": {
                "name": "Q21745862",
                "article": null
            }
        },
        {
            "type": "Feature",
            "geometry": {
                "type": "Point",
                "coordinates": [
                    92.603611111,
                    21.981111111
                ]
            },
            "properties": {
                "name": "Q21745866",
                "article": null
            }
        },
        {
            "type": "Feature",
            "geometry": {
                "type": "Point",
                "coordinates": [
                    92.552222222,
                    21.382777777
                ]
            },
            "properties": {
                "name": "Roling Taung",
                "article": null
            }
        },
        {
            "type": "Feature",
            "geometry": {
                "type": "Point",
                "coordinates": [
                    92.442222222,
                    21.671388888
                ]
            },
            "properties": {
                "name": "Rungrang Taung",
                "article": null
            }
        },
        {
            "type": "Feature",
            "geometry": {
                "type": "Point",
                "coordinates": [
                    92.225277777,
                    23.306666666
                ]
            },
            "properties": {
                "name": "Q21745868",
                "article": null
            }
        },
        {
            "type": "Feature",
            "geometry": {
                "type": "Point",
                "coordinates": [
                    92.5258,
                    22.3343
                ]
            },
            "properties": {
                "name": "Q21745875",
                "article": null
            }
        },
        {
            "type": "Feature",
            "geometry": {
                "type": "Point",
                "coordinates": [
                    91.18,
                    24.098055555
                ]
            },
            "properties": {
                "name": "Q21745873",
                "article": null
            }
        },
        {
            "type": "Feature",
            "geometry": {
                "type": "Point",
                "coordinates": [
                    92.453888888,
                    22.684166666
                ]
            },
            "properties": {
                "name": "Q21745876",
                "article": null
            }
        },
        {
            "type": "Feature",
            "geometry": {
                "type": "Point",
                "coordinates": [
                    92.32653,
                    20.61132
                ]
            },
            "properties": {
                "name": "Saint Martins Island",
                "article": null
            }
        },
        {
            "type": "Feature",
            "geometry": {
                "type": "Point",
                "coordinates": [
                    90.16943,
                    24.31988
                ]
            },
            "properties": {
                "name": "Sakhipur",
                "article": "https://en.wikipedia.org/wiki/Sakhipur"
            }
        },
        {
            "type": "Feature",
            "geometry": {
                "type": "Point",
                "coordinates": [
                    91.121111111,
                    25.174166666
                ]
            },
            "properties": {
                "name": "Q21745894",
                "article": null
            }
        },
        {
            "type": "Feature",
            "geometry": {
                "type": "Point",
                "coordinates": [
                    90.366666666,
                    21.783333333
                ]
            },
            "properties": {
                "name": "Q21745895",
                "article": null
            }
        },
        {
            "type": "Feature",
            "geometry": {
                "type": "Point",
                "coordinates": [
                    91.486944444,
                    22.491944444
                ]
            },
            "properties": {
                "name": "Q21745898",
                "article": null
            }
        },
        {
            "type": "Feature",
            "geometry": {
                "type": "Point",
                "coordinates": [
                    91.129722222,
                    22.258611111
                ]
            },
            "properties": {
                "name": "Q21745899",
                "article": null
            }
        },
        {
            "type": "Feature",
            "geometry": {
                "type": "Point",
                "coordinates": [
                    92.4634,
                    21.551
                ]
            },
            "properties": {
                "name": "Sara Taung",
                "article": null
            }
        },
        {
            "type": "Feature",
            "geometry": {
                "type": "Point",
                "coordinates": [
                    92.309722222,
                    20.768333333
                ]
            },
            "properties": {
                "name": "Q21745916",
                "article": null
            }
        },
        {
            "type": "Feature",
            "geometry": {
                "type": "Point",
                "coordinates": [
                    91.35,
                    22.6
                ]
            },
            "properties": {
                "name": "Q21745923",
                "article": null
            }
        },
        {
            "type": "Feature",
            "geometry": {
                "type": "Point",
                "coordinates": [
                    90.098333333,
                    24.102777777
                ]
            },
            "properties": {
                "name": "Mirzapur",
                "article": "https://en.wikipedia.org/wiki/Mirzapur,_Bangladesh"
            }
        },
        {
            "type": "Feature",
            "geometry": {
                "type": "Point",
                "coordinates": [
                    88.557777777,
                    26.333333333
                ]
            },
            "properties": {
                "name": "Panchagarh",
                "article": "https://en.wikipedia.org/wiki/Panchagarh"
            }
        },
        {
            "type": "Feature",
            "geometry": {
                "type": "Point",
                "coordinates": [
                    91.992777777,
                    24.8925
                ]
            },
            "properties": {
                "name": "Q21747556",
                "article": null
            }
        },
        {
            "type": "Feature",
            "geometry": {
                "type": "Point",
                "coordinates": [
                    91.436111111,
                    25.053888888
                ]
            },
            "properties": {
                "name": "Q21747563",
                "article": null
            }
        },
        {
            "type": "Feature",
            "geometry": {
                "type": "Point",
                "coordinates": [
                    91.750277777,
                    24.934444444
                ]
            },
            "properties": {
                "name": "Q21747560",
                "article": null
            }
        },
        {
            "type": "Feature",
            "geometry": {
                "type": "Point",
                "coordinates": [
                    91.18333,
                    22.5
                ]
            },
            "properties": {
                "name": "Bairagya Char",
                "article": null
            }
        },
        {
            "type": "Feature",
            "geometry": {
                "type": "Point",
                "coordinates": [
                    91.18306,
                    25.11851
                ]
            },
            "properties": {
                "name": "Baidar Bil",
                "article": null
            }
        },
        {
            "type": "Feature",
            "geometry": {
                "type": "Point",
                "coordinates": [
                    91.78224,
                    24.30835
                ]
            },
            "properties": {
                "name": "Balisira Hills",
                "article": null
            }
        },
        {
            "type": "Feature",
            "geometry": {
                "type": "Point",
                "coordinates": [
                    91.171666666,
                    25.045833333
                ]
            },
            "properties": {
                "name": "Q21747590",
                "article": null
            }
        },
        {
            "type": "Feature",
            "geometry": {
                "type": "Point",
                "coordinates": [
                    91.083055555,
                    24.375833333
                ]
            },
            "properties": {
                "name": "Q21747591",
                "article": null
            }
        },
        {
            "type": "Feature",
            "geometry": {
                "type": "Point",
                "coordinates": [
                    92.2,
                    24.833333333
                ]
            },
            "properties": {
                "name": "Q21747588",
                "article": null
            }
        },
        {
            "type": "Feature",
            "geometry": {
                "type": "Point",
                "coordinates": [
                    91.651388888,
                    24.541944444
                ]
            },
            "properties": {
                "name": "Q21747594",
                "article": null
            }
        },
        {
            "type": "Feature",
            "geometry": {
                "type": "Point",
                "coordinates": [
                    92.054722222,
                    21.188055555
                ]
            },
            "properties": {
                "name": "Q21747592",
                "article": null
            }
        },
        {
            "type": "Feature",
            "geometry": {
                "type": "Point",
                "coordinates": [
                    91.620833333,
                    25.028888888
                ]
            },
            "properties": {
                "name": "Q21747602",
                "article": null
            }
        },
        {
            "type": "Feature",
            "geometry": {
                "type": "Point",
                "coordinates": [
                    91.988611111,
                    24.966944444
                ]
            },
            "properties": {
                "name": "Q21747610",
                "article": null
            }
        },
        {
            "type": "Feature",
            "geometry": {
                "type": "Point",
                "coordinates": [
                    92.33755,
                    22.79083
                ]
            },
            "properties": {
                "name": "Q21747608",
                "article": null
            }
        },
        {
            "type": "Feature",
            "geometry": {
                "type": "Point",
                "coordinates": [
                    92.382496666,
                    22.51417
                ]
            },
            "properties": {
                "name": "Belachari",
                "article": null
            }
        },
        {
            "type": "Feature",
            "geometry": {
                "type": "Point",
                "coordinates": [
                    92.166666666,
                    25.0
                ]
            },
            "properties": {
                "name": "Q21747616",
                "article": null
            }
        },
        {
            "type": "Feature",
            "geometry": {
                "type": "Point",
                "coordinates": [
                    91.003611111,
                    24.229166666
                ]
            },
            "properties": {
                "name": "Q21747621",
                "article": null
            }
        },
        {
            "type": "Feature",
            "geometry": {
                "type": "Point",
                "coordinates": [
                    91.960263333,
                    23.031223333
                ]
            },
            "properties": {
                "name": "Bhang Mura",
                "article": null
            }
        },
        {
            "type": "Feature",
            "geometry": {
                "type": "Point",
                "coordinates": [
                    91.235277777,
                    25.083055555
                ]
            },
            "properties": {
                "name": "Q21747759",
                "article": null
            }
        },
        {
            "type": "Feature",
            "geometry": {
                "type": "Point",
                "coordinates": [
                    92.348888888,
                    22.9475
                ]
            },
            "properties": {
                "name": "Q21747763",
                "article": null
            }
        },
        {
            "type": "Feature",
            "geometry": {
                "type": "Point",
                "coordinates": [
                    91.683333333,
                    25.016666666
                ]
            },
            "properties": {
                "name": "Q21747766",
                "article": null
            }
        },
        {
            "type": "Feature",
            "geometry": {
                "type": "Point",
                "coordinates": [
                    91.183333333,
                    25.15
                ]
            },
            "properties": {
                "name": "Q21745931",
                "article": null
            }
        },
        {
            "type": "Feature",
            "geometry": {
                "type": "Point",
                "coordinates": [
                    91.062777777,
                    25.15
                ]
            },
            "properties": {
                "name": "Q21745959",
                "article": null
            }
        },
        {
            "type": "Feature",
            "geometry": {
                "type": "Point",
                "coordinates": [
                    92.6492,
                    21.385
                ]
            },
            "properties": {
                "name": "Tankhanai Taung",
                "article": null
            }
        },
        {
            "type": "Feature",
            "geometry": {
                "type": "Point",
                "coordinates": [
                    92.405277777,
                    22.306944444
                ]
            },
            "properties": {
                "name": "Tankhol Taung",
                "article": null
            }
        },
        {
            "type": "Feature",
            "geometry": {
                "type": "Point",
                "coordinates": [
                    91.05,
                    25.116666666
                ]
            },
            "properties": {
                "name": "Q21745960",
                "article": null
            }
        },
        {
            "type": "Feature",
            "geometry": {
                "type": "Point",
                "coordinates": [
                    91.655277777,
                    25.046111111
                ]
            },
            "properties": {
                "name": "Q21745964",
                "article": null
            }
        },
        {
            "type": "Feature",
            "geometry": {
                "type": "Point",
                "coordinates": [
                    92.473888888,
                    22.535
                ]
            },
            "properties": {
                "name": "Techari",
                "article": null
            }
        },
        {
            "type": "Feature",
            "geometry": {
                "type": "Point",
                "coordinates": [
                    92.1975,
                    21.061388888
                ]
            },
            "properties": {
                "name": "Taungyo Taung",
                "article": null
            }
        },
        {
            "type": "Feature",
            "geometry": {
                "type": "Point",
                "coordinates": [
                    92.38,
                    21.82
                ]
            },
            "properties": {
                "name": "Thaingkhiang Taung",
                "article": null
            }
        },
        {
            "type": "Feature",
            "geometry": {
                "type": "Point",
                "coordinates": [
                    90.866666666,
                    25.1
                ]
            },
            "properties": {
                "name": "Q21745973",
                "article": null
            }
        },
        {
            "type": "Feature",
            "geometry": {
                "type": "Point",
                "coordinates": [
                    92.244166666,
                    23.610555555
                ]
            },
            "properties": {
                "name": "Thangnang",
                "article": null
            }
        },
        {
            "type": "Feature",
            "geometry": {
                "type": "Point",
                "coordinates": [
                    91.989444444,
                    25.067777777
                ]
            },
            "properties": {
                "name": "Q21745993",
                "article": null
            }
        },
        {
            "type": "Feature",
            "geometry": {
                "type": "Point",
                "coordinates": [
                    91.949444444,
                    25.115
                ]
            },
            "properties": {
                "name": "Q21746003",
                "article": null
            }
        },
        {
            "type": "Feature",
            "geometry": {
                "type": "Point",
                "coordinates": [
                    92.5617,
                    21.29
                ]
            },