{
    "type": "FeatureCollection",
    "features": [
        {
            "type": "Feature",
            "geometry": {
                "type": "Point",
                "coordinates": [
                    24.817,
                    53.15
                ]
            },
            "properties": {
                "name": "Battle of Zelva",
                "article": null
            }
        },
        {
            "type": "Feature",
            "geometry": {
                "type": "Point",
                "coordinates": [
                    26.816666666,
                    55.4
                ]
            },
            "properties": {
                "name": "Bohinskaje",
                "article": null
            }
        },
        {
            "type": "Feature",
            "geometry": {
                "type": "Point",
                "coordinates": [
                    26.614,
                    55.632
                ]
            },
            "properties": {
                "name": "Drūkšiai",
                "article": "https://en.wikipedia.org/wiki/Dr%C5%ABk%C5%A1iai"
            }
        },
        {
            "type": "Feature",
            "geometry": {
                "type": "Point",
                "coordinates": [
                    26.263,
                    53.03958
                ]
            },
            "properties": {
                "name": "Siege of Liachavičy",
                "article": null
            }
        },
        {
            "type": "Feature",
            "geometry": {
                "type": "Point",
                "coordinates": [
                    23.652777777,
                    52.083333333
                ]
            },
            "properties": {
                "name": "Battle of Brześć Litewski",
                "article": "https://en.wikipedia.org/wiki/Battle_of_Brze%C5%9B%C4%87_Litewski"
            }
        },
        {
            "type": "Feature",
            "geometry": {
                "type": "Point",
                "coordinates": [
                    29.25,
                    54.75
                ]
            },
            "properties": {
                "name": "Battle of Czasniki",
                "article": "https://en.wikipedia.org/wiki/Battle_of_Chashniki"
            }
        },
        {
            "type": "Feature",
            "geometry": {
                "type": "Point",
                "coordinates": [
                    27.028055555,
                    55.616280555
                ]
            },
            "properties": {
                "name": "Dryviaty",
                "article": "https://en.wikipedia.org/wiki/Dryvyaty"
            }
        },
        {
            "type": "Feature",
            "geometry": {
                "type": "Point",
                "coordinates": [
                    26.749722222,
                    54.8525
                ]
            },
            "properties": {
                "name": "Narač",
                "article": "https://en.wikipedia.org/wiki/Narach_(lake)"
            }
        },
        {
            "type": "Feature",
            "geometry": {
                "type": "Point",
                "coordinates": [
                    23.680555555,
                    52.100472222
                ]
            },
            "properties": {
                "name": "Brest-Tsentralny railway station",
                "article": "https://en.wikipedia.org/wiki/Brest-Tsentralny_railway_station"
            }
        },
        {
            "type": "Feature",
            "geometry": {
                "type": "Point",
                "coordinates": [
                    27.551111111,
                    53.890666666
                ]
            },
            "properties": {
                "name": "Minsk Pasažyrski railway station",
                "article": "https://en.wikipedia.org/wiki/Minsk_railway_station"
            }
        },
        {
            "type": "Feature",
            "geometry": {
                "type": "Point",
                "coordinates": [
                    30.230741,
                    53.812705
                ]
            },
            "properties": {
                "name": "Battle of Saltanovka",
                "article": "https://en.wikipedia.org/wiki/Battle_of_Saltanovka"
            }
        },
        {
            "type": "Feature",
            "geometry": {
                "type": "Point",
                "coordinates": [
                    27.571388888,
                    53.896944444
                ]
            },
            "properties": {
                "name": "Čyrvonaarmejskaja Street, Minsk",
                "article": null
            }
        },
        {
            "type": "Feature",
            "geometry": {
                "type": "Point",
                "coordinates": [
                    27.05,
                    55.75
                ]
            },
            "properties": {
                "name": "Snudy",
                "article": "https://en.wikipedia.org/wiki/Snudy_Lake"
            }
        },
        {
            "type": "Feature",
            "geometry": {
                "type": "Point",
                "coordinates": [
                    28.700555555,
                    54.922222222
                ]
            },
            "properties": {
                "name": "Liepieĺ Lake",
                "article": null
            }
        },
        {
            "type": "Feature",
            "geometry": {
                "type": "Point",
                "coordinates": [
                    27.576666666,
                    53.931388888
                ]
            },
            "properties": {
                "name": "Q1988631",
                "article": null
            }
        },
        {
            "type": "Feature",
            "geometry": {
                "type": "Point",
                "coordinates": [
                    27.551111111,
                    53.891666666
                ]
            },
            "properties": {
                "name": "Train Station square, Minsk",
                "article": null
            }
        },
        {
            "type": "Feature",
            "geometry": {
                "type": "Point",
                "coordinates": [
                    26.042527777,
                    53.12925
                ]
            },
            "properties": {
                "name": "Baranavichy-Palyeskiya",
                "article": null
            }
        },
        {
            "type": "Feature",
            "geometry": {
                "type": "Point",
                "coordinates": [
                    31.0017,
                    52.443
                ]
            },
            "properties": {
                "name": "Savieckaja Street",
                "article": null
            }
        },
        {
            "type": "Feature",
            "geometry": {
                "type": "Point",
                "coordinates": [
                    25.993833333,
                    53.13225
                ]
            },
            "properties": {
                "name": "Baranavichy-Tsentral′nyya",
                "article": null
            }
        },
        {
            "type": "Feature",
            "geometry": {
                "type": "Point",
                "coordinates": [
                    24.266666666,
                    51.891666666
                ]
            },
            "properties": {
                "name": "Q2034963",
                "article": null
            }
        },
        {
            "type": "Feature",
            "geometry": {
                "type": "Point",
                "coordinates": [
                    25.59602223,
                    52.3199639
                ]
            },
            "properties": {
                "name": "Q2039508",
                "article": null
            }
        },
        {
            "type": "Feature",
            "geometry": {
                "type": "Point",
                "coordinates": [
                    25.77527778,
                    53.60222222
                ]
            },
            "properties": {
                "name": "Hara Zamkavaya",
                "article": null
            }
        },
        {
            "type": "Feature",
            "geometry": {
                "type": "Point",
                "coordinates": [
                    25.7742,
                    53.6067
                ]
            },
            "properties": {
                "name": "Hara Zamkavaya",
                "article": null
            }
        },
        {
            "type": "Feature",
            "geometry": {
                "type": "Point",
                "coordinates": [
                    26.9,
                    54.866666666
                ]
            },
            "properties": {
                "name": "Miastra",
                "article": null
            }
        },
        {
            "type": "Feature",
            "geometry": {
                "type": "Point",
                "coordinates": [
                    26.957777777,
                    54.848611111
                ]
            },
            "properties": {
                "name": "Batoryna",
                "article": null
            }
        },
        {
            "type": "Feature",
            "geometry": {
                "type": "Point",
                "coordinates": [
                    28.416666666,
                    56.073611111
                ]
            },
            "properties": {
                "name": "Lisna",
                "article": null
            }
        },
        {
            "type": "Feature",
            "geometry": {
                "type": "Point",
                "coordinates": [
                    27.05,
                    55.58
                ]
            },
            "properties": {
                "name": "Braslau Lakes",
                "article": null
            }
        },
        {
            "type": "Feature",
            "geometry": {
                "type": "Point",
                "coordinates": [
                    26.8425,
                    55.029166666
                ]
            },
            "properties": {
                "name": "Doŭža",
                "article": null
            }
        },
        {
            "type": "Feature",
            "geometry": {
                "type": "Point",
                "coordinates": [
                    26.858055555,
                    54.832222222
                ]
            },
            "properties": {
                "name": "Bliednaje",
                "article": null
            }
        },
        {
            "type": "Feature",
            "geometry": {
                "type": "Point",
                "coordinates": [
                    26.8522,
                    54.9555
                ]
            },
            "properties": {
                "name": "Q2045189",
                "article": null
            }
        },
        {
            "type": "Feature",
            "geometry": {
                "type": "Point",
                "coordinates": [
                    26.711388888,
                    55.537222222
                ]
            },
            "properties": {
                "name": "Q2047820",
                "article": null
            }
        },
        {
            "type": "Feature",
            "geometry": {
                "type": "Point",
                "coordinates": [
                    26.7135,
                    55.5472
                ]
            },
            "properties": {
                "name": "Q2047820",
                "article": null
            }
        },
        {
            "type": "Feature",
            "geometry": {
                "type": "Point",
                "coordinates": [
                    27.56777778,
                    53.90277778
                ]
            },
            "properties": {
                "name": "Karl Marx street",
                "article": null
            }
        },
        {
            "type": "Feature",
            "geometry": {
                "type": "Point",
                "coordinates": [
                    26.417,
                    54.971
                ]
            },
            "properties": {
                "name": "Q2047864",
                "article": null
            }
        },
        {
            "type": "Feature",
            "geometry": {
                "type": "Point",
                "coordinates": [
                    28.213055555,
                    55.180277777
                ]
            },
            "properties": {
                "name": "Sho Lake",
                "article": null
            }
        },
        {
            "type": "Feature",
            "geometry": {
                "type": "Point",
                "coordinates": [
                    30.375503,
                    54.520783
                ]
            },
            "properties": {
                "name": "Orsha-Tsentralnaya",
                "article": null
            }
        },
        {
            "type": "Feature",
            "geometry": {
                "type": "Point",
                "coordinates": [
                    30.184959305,
                    55.1950035
                ]
            },
            "properties": {
                "name": "Vitsebsk",
                "article": null
            }
        },
        {
            "type": "Feature",
            "geometry": {
                "type": "Point",
                "coordinates": [
                    28.42,
                    54.51
                ]
            },
            "properties": {
                "name": "Pialik",
                "article": null
            }
        },
        {
            "type": "Feature",
            "geometry": {
                "type": "Point",
                "coordinates": [
                    30.991111111,
                    52.430833333
                ]
            },
            "properties": {
                "name": "Homyel′-Pasazhyrski",
                "article": null
            }
        },
        {
            "type": "Feature",
            "geometry": {
                "type": "Point",
                "coordinates": [
                    27.138333333,
                    55.730555555
                ]
            },
            "properties": {
                "name": "Southern Volasa",
                "article": null
            }
        },
        {
            "type": "Feature",
            "geometry": {
                "type": "Point",
                "coordinates": [
                    26.83925,
                    54.31625
                ]
            },
            "properties": {
                "name": "Maladziečna",
                "article": null
            }
        },
        {
            "type": "Feature",
            "geometry": {
                "type": "Point",
                "coordinates": [
                    23.708861111,
                    51.810944444
                ]
            },
            "properties": {
                "name": "Q2080584",
                "article": null
            }
        },
        {
            "type": "Feature",
            "geometry": {
                "type": "Point",
                "coordinates": [
                    24.613055555,
                    51.986
                ]
            },
            "properties": {
                "name": "Q2080644",
                "article": null
            }
        },
        {
            "type": "Feature",
            "geometry": {
                "type": "Point",
                "coordinates": [
                    25.781944444,
                    52.630277777
                ]
            },
            "properties": {
                "name": "Babrovickaje",
                "article": null
            }
        },
        {
            "type": "Feature",
            "geometry": {
                "type": "Point",
                "coordinates": [
                    28.935,
                    55.140555555
                ]
            },
            "properties": {
                "name": "Atolava Lake",
                "article": null
            }
        },
        {
            "type": "Feature",
            "geometry": {
                "type": "Point",
                "coordinates": [
                    24.199166666,
                    53.766388888
                ]
            },
            "properties": {
                "name": "Bielaje Lake, Hrodna District",
                "article": null
            }
        },
        {
            "type": "Feature",
            "geometry": {
                "type": "Point",
                "coordinates": [
                    26.373461,
                    54.965844
                ]
            },
            "properties": {
                "name": "Miortvaje Lake, Miadziel district",
                "article": null
            }
        },
        {
            "type": "Feature",
            "geometry": {
                "type": "Point",
                "coordinates": [
                    27.9723,
                    52.4052
                ]
            },
            "properties": {
                "name": "Lake Chervonoye",
                "article": "https://en.wikipedia.org/wiki/Lake_Chervonoye"
            }
        },
        {
            "type": "Feature",
            "geometry": {
                "type": "Point",
                "coordinates": [
                    29.088888888,
                    54.665277777
                ]
            },
            "properties": {
                "name": "Lukomskaje",
                "article": "https://en.wikipedia.org/wiki/Lake_Lukomlskoye"
            }
        },
        {
            "type": "Feature",
            "geometry": {
                "type": "Point",
                "coordinates": [
                    27.016666666,
                    55.7
                ]
            },
            "properties": {
                "name": "Strusta",
                "article": "https://en.wikipedia.org/wiki/Lake_Strusta"
            }
        },
        {
            "type": "Feature",
            "geometry": {
                "type": "Point",
                "coordinates": [
                    28.151666666,
                    56.0525
                ]
            },
            "properties": {
                "name": "Asviejskaje Lake",
                "article": "https://en.wikipedia.org/wiki/Lake_Osveya"
            }
        },
        {
            "type": "Feature",
            "geometry": {
                "type": "Point",
                "coordinates": [
                    27.58583333,
                    53.91666667
                ]
            },
            "properties": {
                "name": "Niezaliežnasci Avenue",
                "article": "https://en.wikipedia.org/wiki/Independence_Avenue_(Minsk)"
            }
        },
        {
            "type": "Feature",
            "geometry": {
                "type": "Point",
                "coordinates": [
                    28.174783333,
                    55.225888888
                ]
            },
            "properties": {
                "name": "Doŭhaje Lake",
                "article": null
            }
        },
        {
            "type": "Feature",
            "geometry": {
                "type": "Point",
                "coordinates": [
                    28.168055555,
                    55.231111111
                ]
            },
            "properties": {
                "name": "Doŭhaje Lake",
                "article": null
            }
        },
        {
            "type": "Feature",
            "geometry": {
                "type": "Point",
                "coordinates": [
                    25.340555555,
                    52.408611111
                ]
            },
            "properties": {
                "name": "Sporaŭskaje",
                "article": null
            }
        },
        {
            "type": "Feature",
            "geometry": {
                "type": "Point",
                "coordinates": [
                    26.85,
                    54.933333333
                ]
            },
            "properties": {
                "name": "Miadziel Lake",
                "article": null
            }
        },
        {
            "type": "Feature",
            "geometry": {
                "type": "Point",
                "coordinates": [
                    27.005202777,
                    55.666694444
                ]
            },
            "properties": {
                "name": "Jeĺna",
                "article": null
            }
        },
        {
            "type": "Feature",
            "geometry": {
                "type": "Point",
                "coordinates": [
                    30.79124,
                    55.14356
                ]
            },
            "properties": {
                "name": "Q2500934",
                "article": null
            }
        },
        {
            "type": "Feature",
            "geometry": {
                "type": "Point",
                "coordinates": [
                    29.0375,
                    55.160277777
                ]
            },
            "properties": {
                "name": "Kryvoje",
                "article": null
            }
        },
        {
            "type": "Feature",
            "geometry": {
                "type": "Point",
                "coordinates": [
                    28.818055555,
                    55.277777777
                ]
            },
            "properties": {
                "name": "Janova Lake",
                "article": null
            }
        },
        {
            "type": "Feature",
            "geometry": {
                "type": "Point",
                "coordinates": [
                    25.947222222,
                    52.684166666
                ]
            },
            "properties": {
                "name": "Vyhanaščanskaje Vozera",
                "article": "https://en.wikipedia.org/wiki/Vyhana%C5%A1%C4%8Danskaje_Lake"
            }
        },
        {
            "type": "Feature",
            "geometry": {
                "type": "Point",
                "coordinates": [
                    26.416666666,
                    54.975833333
                ]
            },
            "properties": {
                "name": "Balduk Lake",
                "article": null
            }
        },
        {
            "type": "Feature",
            "geometry": {
                "type": "Point",
                "coordinates": [
                    27.5322,
                    54.1677
                ]
            },
            "properties": {
                "name": "Lysaja",
                "article": null
            }
        },
        {
            "type": "Feature",
            "geometry": {
                "type": "Point",
                "coordinates": [
                    27.534444444,
                    54.168888888
                ]
            },
            "properties": {
                "name": "Lysaja",
                "article": null
            }
        },
        {
            "type": "Feature",
            "geometry": {
                "type": "Point",
                "coordinates": [
                    25.916666666,
                    53.433333333
                ]
            },
            "properties": {
                "name": "Śviciaź Lake",
                "article": null
            }
        },
        {
            "type": "Feature",
            "geometry": {
                "type": "Point",
                "coordinates": [
                    26.7,
                    55.7
                ]
            },
            "properties": {
                "name": "Ryčy",
                "article": "https://en.wikipedia.org/wiki/Lake_Rychy"
            }
        },
        {
            "type": "Feature",
            "geometry": {
                "type": "Point",
                "coordinates": [
                    26.71667,
                    55.7
                ]
            },
            "properties": {
                "name": "Ryčy",
                "article": "https://en.wikipedia.org/wiki/Lake_Rychy"
            }
        },
        {
            "type": "Feature",
            "geometry": {
                "type": "Point",
                "coordinates": [
                    21.08408056,
                    52.50813611
                ]
            },
            "properties": {
                "name": "Battle of the River Bug",
                "article": "https://en.wikipedia.org/wiki/Battle_of_the_River_Bug"
            }
        },
        {
            "type": "Feature",
            "geometry": {
                "type": "Point",
                "coordinates": [
                    26.381666666,
                    54.960833333
                ]
            },
            "properties": {
                "name": "Hlublia",
                "article": null
            }
        },
        {
            "type": "Feature",
            "geometry": {
                "type": "Point",
                "coordinates": [
                    27.5544,
                    53.899
                ]
            },
            "properties": {
                "name": "Polish Bank in Minsk",
                "article": null
            }
        },
        {
            "type": "Feature",
            "geometry": {
                "type": "Point",
                "coordinates": [
                    23.81369,
                    53.69028
                ]
            },
            "properties": {
                "name": "Q2833827",
                "article": null
            }
        },
        {
            "type": "Feature",
            "geometry": {
                "type": "Point",
                "coordinates": [
                    29.441375,
                    54.250306
                ]
            },
            "properties": {
                "name": "Q2913508",
                "article": null
            }
        },
        {
            "type": "Feature",
            "geometry": {
                "type": "Point",
                "coordinates": [
                    26.474444444,
                    54.806944444
                ]
            },
            "properties": {
                "name": "Svir Lake",
                "article": null
            }
        },
        {
            "type": "Feature",
            "geometry": {
                "type": "Point",
                "coordinates": [
                    26.389027777,
                    54.963888888
                ]
            },
            "properties": {
                "name": "Hlubieĺka Lake",
                "article": null
            }
        },
        {
            "type": "Feature",
            "geometry": {
                "type": "Point",
                "coordinates": [
                    27.011775,
                    55.652602777
                ]
            },
            "properties": {
                "name": "Biareža",
                "article": null
            }
        },
        {
            "type": "Feature",
            "geometry": {
                "type": "Point",
                "coordinates": [
                    27.285,
                    55.626388888
                ]
            },
            "properties": {
                "name": "Lake Ikazn",
                "article": "https://en.wikipedia.org/wiki/Lake_Ikazn"
            }
        },
        {
            "type": "Feature",
            "geometry": {
                "type": "Point",
                "coordinates": [
                    27.554797222,
                    53.895202777
                ]
            },
            "properties": {
                "name": "Crowne Plaza, Minsk",
                "article": null
            }
        },
        {
            "type": "Feature",
            "geometry": {
                "type": "Point",
                "coordinates": [
                    26.759166666,
                    55.512222222
                ]
            },
            "properties": {
                "name": "Abakryteli",
                "article": "https://en.wikipedia.org/wiki/Lake_Abakrytseli"
            }
        },
        {
            "type": "Feature",
            "geometry": {
                "type": "Point",
                "coordinates": [
                    27.189230555,
                    55.680125
                ]
            },
            "properties": {
                "name": "Lake Ilmenak",
                "article": "https://en.wikipedia.org/wiki/Lake_Ilmenak"
            }
        },
        {
            "type": "Feature",
            "geometry": {
                "type": "Point",
                "coordinates": [
                    28.420308333,
                    55.2756
                ]
            },
            "properties": {
                "name": "Lake Babyna",
                "article": "https://en.wikipedia.org/wiki/Lake_Babyna"
            }
        },
        {
            "type": "Feature",
            "geometry": {
                "type": "Point",
                "coordinates": [
                    26.7871,
                    55.6756
                ]
            },
            "properties": {
                "name": "Ozero Sita",
                "article": null
            }
        },
        {
            "type": "Feature",
            "geometry": {
                "type": "Point",
                "coordinates": [
                    26.79333333,
                    55.67138889
                ]
            },
            "properties": {
                "name": "Ozero Sita",
                "article": null
            }
        },
        {
            "type": "Feature",
            "geometry": {
                "type": "Point",
                "coordinates": [
                    27.55998057,
                    53.90507501
                ]
            },
            "properties": {
                "name": "House of Wańkowicz family in Minsk",
                "article": null
            }
        },
        {
            "type": "Feature",
            "geometry": {
                "type": "Point",
                "coordinates": [
                    26.4132,
                    54.9713
                ]
            },
            "properties": {
                "name": "Akuniok Lake",
                "article": null
            }
        },
        {
            "type": "Feature",
            "geometry": {
                "type": "Point",
                "coordinates": [
                    26.3832,
                    54.9862
                ]
            },
            "properties": {
                "name": "Q3917287",
                "article": null
            }
        },
        {
            "type": "Feature",
            "geometry": {
                "type": "Point",
                "coordinates": [
                    26.3942,
                    54.9842
                ]
            },
            "properties": {
                "name": "Balduchytsa",
                "article": null
            }
        },
        {
            "type": "Feature",
            "geometry": {
                "type": "Point",
                "coordinates": [
                    26.390277777,
                    54.979722222
                ]
            },
            "properties": {
                "name": "Vel’chinaya",
                "article": null
            }
        },
        {
            "type": "Feature",
            "geometry": {
                "type": "Point",
                "coordinates": [
                    26.453783333,
                    54.947593611
                ]
            },
            "properties": {
                "name": "Maly Bolcik",
                "article": null
            }
        },
        {
            "type": "Feature",
            "geometry": {
                "type": "Point",
                "coordinates": [
                    26.4022,
                    54.9747
                ]
            },
            "properties": {
                "name": "Q3917321",
                "article": null
            }
        },
        {
            "type": "Feature",
            "geometry": {
                "type": "Point",
                "coordinates": [
                    26.458333333,
                    54.952777777
                ]
            },
            "properties": {
                "name": "Vialiki Bolcik",
                "article": null
            }
        },
        {
            "type": "Feature",
            "geometry": {
                "type": "Point",
                "coordinates": [
                    26.3644,
                    54.9589
                ]
            },
            "properties": {
                "name": "Q3917348",
                "article": null
            }
        },
        {
            "type": "Feature",
            "geometry": {
                "type": "Point",
                "coordinates": [
                    28.55,
                    55.1167
                ]
            },
            "properties": {
                "name": "Q3917460",
                "article": null
            }
        },
        {
            "type": "Feature",
            "geometry": {
                "type": "Point",
                "coordinates": [
                    27.557171,
                    53.902697
                ]
            },
            "properties": {
                "name": "Radzivił Palace in Minsk",
                "article": null
            }
        },
        {
            "type": "Feature",
            "geometry": {
                "type": "Point",
                "coordinates": [
                    27.5652,
                    53.9052
                ]
            },
            "properties": {
                "name": "Janka Kupala Street, Minsk",
                "article": null
            }
        },
        {
            "type": "Feature",
            "geometry": {
                "type": "Point",
                "coordinates": [
                    27.564322222,
                    53.902288888
                ]
            },
            "properties": {
                "name": "Central House of Officers (Minsk)",
                "article": "https://en.wikipedia.org/wiki/Central_House_of_Officers_(Minsk)"
            }
        },
        {
            "type": "Feature",
            "geometry": {
                "type": "Point",
                "coordinates": [
                    28.799444444,
                    55.238888888
                ]
            },
            "properties": {
                "name": "Q3917651",
                "article": null
            }
        },
        {
            "type": "Feature",
            "geometry": {
                "type": "Point",
                "coordinates": [
                    23.5031,
                    53.9067
                ]
            },
            "properties": {
                "name": "Q3917738",
                "article": null
            }
        },
        {
            "type": "Feature",
            "geometry": {
                "type": "Point",
                "coordinates": [
                    27.0989,
                    55.6714
                ]
            },
            "properties": {
                "name": "Vojsa",
                "article": null
            }
        },
        {
            "type": "Feature",
            "geometry": {
                "type": "Point",
                "coordinates": [
                    27.09527778,
                    55.67555556
                ]
            },
            "properties": {
                "name": "Vojsa",
                "article": null
            }
        },
        {
            "type": "Feature",
            "geometry": {
                "type": "Point",
                "coordinates": [
                    27.11,
                    55.65694444
                ]
            },
            "properties": {
                "name": "Niespiš",
                "article": null
            }
        },
        {
            "type": "Feature",
            "geometry": {
                "type": "Point",
                "coordinates": [
                    26.4228,
                    54.9639
                ]
            },
            "properties": {
                "name": "Q3917768",
                "article": null
            }
        },
        {
            "type": "Feature",
            "geometry": {
                "type": "Point",
                "coordinates": [
                    26.2896833,
                    54.8485
                ]
            },
            "properties": {
                "name": "Jodzi",
                "article": "https://en.wikipedia.org/wiki/Lake_Yedigei"
            }
        },
        {
            "type": "Feature",
            "geometry": {
                "type": "Point",
                "coordinates": [
                    26.2908,
                    54.8485
                ]
            },
            "properties": {
                "name": "Jodzi",
                "article": "https://en.wikipedia.org/wiki/Lake_Yedigei"
            }
        },
        {
            "type": "Feature",
            "geometry": {
                "type": "Point",
                "coordinates": [
                    29.04416667,
                    55.11777778
                ]
            },
            "properties": {
                "name": "Q3917773",
                "article": null
            }
        },
        {
            "type": "Feature",
            "geometry": {
                "type": "Point",
                "coordinates": [
                    28.33333333,
                    56.05
                ]
            },
            "properties": {
                "name": "Bielaje",
                "article": null
            }
        },
        {
            "type": "Feature",
            "geometry": {
                "type": "Point",
                "coordinates": [
                    30.03667,
                    52.89028
                ]
            },
            "properties": {
                "name": "Zhlobin",
                "article": null
            }
        },
        {
            "type": "Feature",
            "geometry": {
                "type": "Point",
                "coordinates": [
                    29.154722222,
                    54.565833333
                ]
            },
            "properties": {
                "name": "Sialiava",
                "article": "https://en.wikipedia.org/wiki/Syalyava"
            }
        },
        {
            "type": "Feature",
            "geometry": {
                "type": "Point",
                "coordinates": [
                    27.557272222,
                    53.902675
                ]
            },
            "properties": {
                "name": "Hotel Europe, Minsk",
                "article": null
            }
        },
        {
            "type": "Feature",
            "geometry": {
                "type": "Point",
                "coordinates": [
                    27.58526,
                    53.91425
                ]
            },
            "properties": {
                "name": "Muliavina Boulevard, Minsk",
                "article": null
            }
        },
        {
            "type": "Feature",
            "geometry": {
                "type": "Point",
                "coordinates": [
                    27.4801,
                    53.85249
                ]
            },
            "properties": {
                "name": "Q3918649",
                "article": null
            }
        },
        {
            "type": "Feature",
            "geometry": {
                "type": "Point",
                "coordinates": [
                    27.564268,
                    53.89997
                ]
            },
            "properties": {
                "name": "Administration of the President of Belarus",
                "article": "https://en.wikipedia.org/wiki/Presidential_Administration_of_Belarus"
            }
        },
        {
            "type": "Feature",
            "geometry": {
                "type": "Point",
                "coordinates": [
                    29.0675,
                    55.9022
                ]
            },
            "properties": {
                "name": "Nieščarda",
                "article": "https://en.wikipedia.org/wiki/Lake_Neshcharda"
            }
        },
        {
            "type": "Feature",
            "geometry": {
                "type": "Point",
                "coordinates": [
                    29.078333333,
                    55.914722222
                ]
            },
            "properties": {
                "name": "Nieščarda",
                "article": "https://en.wikipedia.org/wiki/Lake_Neshcharda"
            }
        },
        {
            "type": "Feature",
            "geometry": {
                "type": "Point",
                "coordinates": [
                    28.8475,
                    55.20222222
                ]
            },
            "properties": {
                "name": "Čarscviackaje Lake",
                "article": null
            }
        },
        {
            "type": "Feature",
            "geometry": {
                "type": "Point",
                "coordinates": [
                    28.47916667,
                    56.05
                ]
            },
            "properties": {
                "name": "Bielaje",
                "article": null
            }
        },
        {
            "type": "Feature",
            "geometry": {
                "type": "Point",
                "coordinates": [
                    28.9375,
                    55.09361111
                ]
            },
            "properties": {
                "name": "Q3919153",
                "article": null
            }
        },
        {
            "type": "Feature",
            "geometry": {
                "type": "Point",
                "coordinates": [
                    27.5378,
                    53.8964
                ]
            },
            "properties": {
                "name": "Franciška Bahuševiča Square, Minsk",
                "article": null
            }
        },
        {
            "type": "Feature",
            "geometry": {
                "type": "Point",
                "coordinates": [
                    27.576447,
                    53.844345
                ]
            },
            "properties": {
                "name": "Q3919189",
                "article": null
            }
        },
        {
            "type": "Feature",
            "geometry": {
                "type": "Point",
                "coordinates": [
                    30.95533,
                    52.40312
                ]
            },
            "properties": {
                "name": "Bratoŭ Liziukovych Street",
                "article": null
            }
        },
        {
            "type": "Feature",
            "geometry": {
                "type": "Point",
                "coordinates": [
                    29.657736111,
                    55.207472222
                ]
            },
            "properties": {
                "name": "Budaviesć Lake",
                "article": null
            }
        },
        {
            "type": "Feature",
            "geometry": {
                "type": "Point",
                "coordinates": [
                    26.804152777,
                    55.046761111
                ]
            },
            "properties": {
                "name": "Ozero Svito",
                "article": null
            }
        },
        {
            "type": "Feature",
            "geometry": {
                "type": "Point",
                "coordinates": [
                    26.8051,
                    55.0466
                ]
            },
            "properties": {
                "name": "Ozero Svito",
                "article": null
            }
        },
        {
            "type": "Feature",
            "geometry": {
                "type": "Point",
                "coordinates": [
                    28.989313888,
                    55.229658333
                ]
            },
            "properties": {
                "name": "Q3919295",
                "article": null
            }
        },
        {
            "type": "Feature",
            "geometry": {
                "type": "Point",
                "coordinates": [
                    28.999872222,
                    55.150333333
                ]
            },
            "properties": {
                "name": "Q3919293",
                "article": null
            }
        },
        {
            "type": "Feature",
            "geometry": {
                "type": "Point",
                "coordinates": [
                    28.550119444,
                    55.274569444
                ]
            },
            "properties": {
                "name": "Q3919302",
                "article": null
            }
        },
        {
            "type": "Feature",
            "geometry": {
                "type": "Point",
                "coordinates": [
                    26.8724944,
                    54.9649139
                ]
            },
            "properties": {
                "name": "Q3919303",
                "article": null
            }
        },
        {
            "type": "Feature",
            "geometry": {
                "type": "Point",
                "coordinates": [
                    28.528533333,
                    55.063033333
                ]
            },
            "properties": {
                "name": "Q3919306",
                "article": null
            }
        },
        {
            "type": "Feature",
            "geometry": {
                "type": "Point",
                "coordinates": [
                    27.16584167,
                    55.68523056
                ]
            },
            "properties": {
                "name": "Pociech",
                "article": null
            }
        },
        {
            "type": "Feature",
            "geometry": {
                "type": "Point",
                "coordinates": [
                    27.1675,
                    55.6859
                ]
            },
            "properties": {
                "name": "Pociech",
                "article": null
            }
        },
        {
            "type": "Feature",
            "geometry": {
                "type": "Point",
                "coordinates": [
                    27.633333333,
                    52.083333333
                ]
            },
            "properties": {
                "name": "Q3919309",
                "article": null
            }
        },
        {
            "type": "Feature",
            "geometry": {
                "type": "Point",
                "coordinates": [
                    26.787327777,
                    55.069766666
                ]
            },
            "properties": {
                "name": "Spory",
                "article": null
            }
        },
        {
            "type": "Feature",
            "geometry": {
                "type": "Point",
                "coordinates": [
                    28.443,
                    55.010708333
                ]
            },
            "properties": {
                "name": "Q3919317",
                "article": null
            }
        },
        {
            "type": "Feature",
            "geometry": {
                "type": "Point",
                "coordinates": [
                    28.62496389,
                    55.14439722
                ]
            },
            "properties": {
                "name": "Viečallie",
                "article": null
            }
        },
        {
            "type": "Feature",
            "geometry": {
                "type": "Point",
                "coordinates": [
                    28.6266,
                    55.1458
                ]
            },
            "properties": {
                "name": "Viečallie",
                "article": null
            }
        },
        {
            "type": "Feature",
            "geometry": {
                "type": "Point",
                "coordinates": [
                    28.43485,
                    55.192783333
                ]
            },
            "properties": {
                "name": "Q3919334",
                "article": null
            }
        },
        {
            "type": "Feature",
            "geometry": {
                "type": "Point",
                "coordinates": [
                    28.436111111,
                    55.194444444
                ]
            },
            "properties": {
                "name": "Q3919334",
                "article": null
            }
        },
        {
            "type": "Feature",
            "geometry": {
                "type": "Point",
                "coordinates": [
                    28.445319444,
                    54.980422222
                ]
            },
            "properties": {
                "name": "Q3919335",
                "article": null
            }
        },
        {
            "type": "Feature",
            "geometry": {
                "type": "Point",
                "coordinates": [
                    26.566666666,
                    54.722222222
                ]
            },
            "properties": {
                "name": "Višnieŭskaje Lake",
                "article": null
            }
        },
        {
            "type": "Feature",
            "geometry": {
                "type": "Point",
                "coordinates": [
                    28.89833333,
                    55.20472222
                ]
            },
            "properties": {
                "name": "Q3919431",
                "article": null
            }
        },
        {
            "type": "Feature",
            "geometry": {
                "type": "Point",
                "coordinates": [
                    29.08138889,
                    55.12722222
                ]
            },
            "properties": {
                "name": "Paŭazierje",
                "article": null
            }
        },
        {
            "type": "Feature",
            "geometry": {
                "type": "Point",
                "coordinates": [
                    29.06472222,
                    55.15472222
                ]
            },
            "properties": {
                "name": "Q3919438",
                "article": null
            }
        },
        {
            "type": "Feature",
            "geometry": {
                "type": "Point",
                "coordinates": [
                    29.10611111,
                    55.16027778
                ]
            },
            "properties": {
                "name": "Q3919443",
                "article": null
            }
        },
        {
            "type": "Feature",
            "geometry": {
                "type": "Point",
                "coordinates": [
                    26.4457,
                    54.8252
                ]
            },
            "properties": {
                "name": "Q3919469",
                "article": null
            }
        },
        {
            "type": "Feature",
            "geometry": {
                "type": "Point",
                "coordinates": [
                    27.56168,
                    53.90366
                ]
            },
            "properties": {
                "name": "Q3919511",
                "article": null
            }
        },
        {
            "type": "Feature",
            "geometry": {
                "type": "Point",
                "coordinates": [
                    27.552486111,
                    53.897736111
                ]
            },
            "properties": {
                "name": "Čapski Palace, Minsk",
                "article": null
            }
        },
        {
            "type": "Feature",
            "geometry": {
                "type": "Point",
                "coordinates": [
                    23.8313,
                    53.6785
                ]
            },
            "properties": {
                "name": "Jesuit Pharmacy in Grodno",
                "article": "https://en.wikipedia.org/wiki/Jesuit_Pharmacy_in_Grodno"
            }
        },
        {
            "type": "Feature",
            "geometry": {
                "type": "Point",
                "coordinates": [
                    23.6167,
                    51.6
                ]
            },
            "properties": {
                "name": "Q3919544",
                "article": null
            }
        },
        {
            "type": "Feature",
            "geometry": {
                "type": "Point",
                "coordinates": [
                    30.9455,
                    52.40553
                ]
            },
            "properties": {
                "name": "Kastryčnika Avenue",
                "article": null
            }
        },
        {
            "type": "Feature",
            "geometry": {
                "type": "Point",
                "coordinates": [
                    31.02956,
                    52.38057
                ]
            },
            "properties": {
                "name": "Iĺiča Street",
                "article": null
            }
        },
        {
            "type": "Feature",
            "geometry": {
                "type": "Point",
                "coordinates": [
                    30.977444444,
                    52.404694444
                ]
            },
            "properties": {
                "name": "Bahdana Chmiaĺnickaha Street",
                "article": null
            }
        },
        {
            "type": "Feature",
            "geometry": {
                "type": "Point",
                "coordinates": [
                    30.99862,
                    52.44042
                ]
            },
            "properties": {
                "name": "Kirava Street",
                "article": null
            }
        },
        {
            "type": "Feature",
            "geometry": {
                "type": "Point",
                "coordinates": [
                    30.9495,
                    52.4219
                ]
            },
            "properties": {
                "name": "Barykina Street",
                "article": null
            }
        },
        {
            "type": "Feature",
            "geometry": {
                "type": "Point",
                "coordinates": [
                    31.0049,
                    52.4211
                ]
            },
            "properties": {
                "name": "Internacyjanaĺnaja Street",
                "article": null
            }
        },
        {
            "type": "Feature",
            "geometry": {
                "type": "Point",
                "coordinates": [
                    30.9973,
                    52.4601
                ]
            },
            "properties": {
                "name": "Malajčuka Street",
                "article": null
            }
        },
        {
            "type": "Feature",
            "geometry": {
                "type": "Point",
                "coordinates": [
                    30.95504,
                    52.45764
                ]
            },
            "properties": {
                "name": "Kasmanaŭtaŭ Avenue",
                "article": null
            }
        },
        {
            "type": "Feature",
            "geometry": {
                "type": "Point",
                "coordinates": [
                    27.537888888,
                    53.884611111
                ]
            },
            "properties": {
                "name": "Instytut Kul′tury",
                "article": null
            }
        },
        {
            "type": "Feature",
            "geometry": {
                "type": "Point",
                "coordinates": [
                    27.586111111,
                    53.890888888
                ]
            },
            "properties": {
                "name": "Minsk East railway station",
                "article": null
            }
        },
        {
            "type": "Feature",
            "geometry": {
                "type": "Point",
                "coordinates": [
                    26.260672222,
                    54.863147222
                ]
            },
            "properties": {
                "name": "Halodna Lake",
                "article": null
            }
        },
        {
            "type": "Feature",
            "geometry": {
                "type": "Point",
                "coordinates": [
                    29.005086388,
                    55.249350111
                ]
            },
            "properties": {
                "name": "Q3919689",
                "article": null
            }
        },
        {
            "type": "Feature",
            "geometry": {
                "type": "Point",
                "coordinates": [
                    27.376213888,
                    55.610644444
                ]
            },
            "properties": {
                "name": "Absterna Lake",
                "article": null
            }
        },
        {
            "type": "Feature",
            "geometry": {
                "type": "Point",
                "coordinates": [
                    26.304275,
                    54.841677777
                ]
            },
            "properties": {
                "name": "Gulbeza Lake",
                "article": null
            }
        },
        {
            "type": "Feature",
            "geometry": {
                "type": "Point",
                "coordinates": [
                    27.129022222,
                    55.749675
                ]
            },
            "properties": {
                "name": "Nothern Volasa",
                "article": null
            }
        },
        {
            "type": "Feature",
            "geometry": {
                "type": "Point",
                "coordinates": [
                    27.1371,
                    55.7486
                ]
            },
            "properties": {
                "name": "Nothern Volasa",
                "article": null
            }
        },
        {
            "type": "Feature",
            "geometry": {
                "type": "Point",
                "coordinates": [
                    28.467591666,
                    55.0293
                ]
            },
            "properties": {
                "name": "Q3919696",
                "article": null
            }
        },
        {
            "type": "Feature",
            "geometry": {
                "type": "Point",
                "coordinates": [
                    27.4078,
                    55.590666666
                ]
            },
            "properties": {
                "name": "Q3919697",
                "article": null
            }
        },
        {
            "type": "Feature",
            "geometry": {
                "type": "Point",
                "coordinates": [
                    28.939,
                    55.156541666
                ]
            },
            "properties": {
                "name": "Q3919702",
                "article": null
            }
        },
        {
            "type": "Feature",
            "geometry": {
                "type": "Point",
                "coordinates": [
                    29.054633333,
                    55.182052777
                ]
            },
            "properties": {
                "name": "Q3919701",
                "article": null
            }
        },
        {
            "type": "Feature",
            "geometry": {
                "type": "Point",
                "coordinates": [
                    27.0222,
                    55.7028
                ]
            },
            "properties": {
                "name": "Nabista Lake",
                "article": null
            }
        },
        {
            "type": "Feature",
            "geometry": {
                "type": "Point",
                "coordinates": [
                    27.431916666,
                    55.645486111
                ]
            },
            "properties": {
                "name": "Nabista Lake",
                "article": null
            }
        },
        {
            "type": "Feature",
            "geometry": {
                "type": "Point",
                "coordinates": [
                    27.345741666,
                    55.635458333
                ]
            },
            "properties": {
                "name": "Q3919704",
                "article": null
            }
        },
        {
            "type": "Feature",
            "geometry": {
                "type": "Point",
                "coordinates": [
                    28.805380555,
                    55.302963888
                ]
            },
            "properties": {
                "name": "Zaščaty Lake",
                "article": null
            }
        },
        {
            "type": "Feature",
            "geometry": {
                "type": "Point",
                "coordinates": [
                    28.5741083,
                    55.2352389
                ]
            },
            "properties": {
                "name": "Q3919710",
                "article": null
            }
        },
        {
            "type": "Feature",
            "geometry": {
                "type": "Point",
                "coordinates": [
                    26.213208333,
                    54.886975
                ]
            },
            "properties": {
                "name": "Kaimin Lake",
                "article": null
            }
        },
        {
            "type": "Feature",
            "geometry": {
                "type": "Point",
                "coordinates": [
                    27.243433333,
                    55.573541666
                ]
            },
            "properties": {
                "name": "Q3919708",
                "article": null
            }
        },
        {
            "type": "Feature",
            "geometry": {
                "type": "Point",
                "coordinates": [
                    29.0360972,
                    55.1757917
                ]
            },
            "properties": {
                "name": "Kolpina",
                "article": null
            }
        },
        {
            "type": "Feature",
            "geometry": {
                "type": "Point",
                "coordinates": [
                    28.645822222,
                    55.238763888
                ]
            },
            "properties": {
                "name": "Q3919715",
                "article": null
            }
        },
        {
            "type": "Feature",
            "geometry": {
                "type": "Point",
                "coordinates": [
                    27.369261111,
                    55.650086111
                ]
            },
            "properties": {
                "name": "Q3919713",
                "article": null
            }
        },
        {
            "type": "Feature",
            "geometry": {
                "type": "Point",
                "coordinates": [
                    28.679252777,
                    55.207283333
                ]
            },
            "properties": {
                "name": "Arechaŭna Lake, Ušačy District",
                "article": null
            }
        },
        {
            "type": "Feature",
            "geometry": {
                "type": "Point",
                "coordinates": [
                    29.021158333,
                    55.201111111
                ]
            },
            "properties": {
                "name": "Q3919717",
                "article": null
            }
        },
        {
            "type": "Feature",
            "geometry": {
                "type": "Point",
                "coordinates": [
                    28.518105555,
                    55.178966666
                ]
            },
            "properties": {
                "name": "Q3919722",
                "article": null
            }
        },
        {
            "type": "Feature",
            "geometry": {
                "type": "Point",
                "coordinates": [
                    26.146527777,
                    54.903869444
                ]
            },
            "properties": {
                "name": "Klieviel",
                "article": null
            }
        },
        {
            "type": "Feature",
            "geometry": {
                "type": "Point",
                "coordinates": [
                    26.323758333,
                    54.833325
                ]
            },
            "properties": {
                "name": "Vierabji",
                "article": null
            }
        },
        {
            "type": "Feature",
            "geometry": {
                "type": "Point",
                "coordinates": [
                    28.758258333,
                    55.310536111
                ]
            },
            "properties": {
                "name": "Homieĺ Lake",
                "article": null
            }
        },
        {
            "type": "Feature",
            "geometry": {
                "type": "Point",
                "coordinates": [
                    26.272344444,
                    54.859763888
                ]
            },
            "properties": {
                "name": "Galadzyanka Lake",
                "article": null
            }
        },
        {
            "type": "Feature",
            "geometry": {
                "type": "Point",
                "coordinates": [
                    29.0188417,
                    55.22545
                ]
            },
            "properties": {
                "name": "Q3919728",
                "article": null
            }
        },
        {
            "type": "Feature",
            "geometry": {
                "type": "Point",
                "coordinates": [
                    27.5732,
                    55.607
                ]
            },
            "properties": {
                "name": "Asinaŭka",
                "article": null
            }
        },
        {
            "type": "Feature",
            "geometry": {
                "type": "Point",
                "coordinates": [
                    27.573452777,
                    55.6073
                ]
            },
            "properties": {
                "name": "Asinaŭka",
                "article": null
            }
        },
        {
            "type": "Feature",
            "geometry": {
                "type": "Point",
                "coordinates": [
                    26.828527777,
                    55.055513888
                ]
            },
            "properties": {
                "name": "Hlodava",
                "article": null
            }
        },
        {
            "type": "Feature",
            "geometry": {
                "type": "Point",
                "coordinates": [
                    26.892333333,
                    54.896638888
                ]
            },
            "properties": {
                "name": "Rudakova Lake",
                "article": null
            }
        },
        {
            "type": "Feature",
            "geometry": {
                "type": "Point",
                "coordinates": [
                    27.54801,
                    53.90135
                ]
            },
            "properties": {
                "name": "Niamiha Street",
                "article": "https://en.wikipedia.org/wiki/Niamiha_Street"
            }
        },
        {
            "type": "Feature",
            "geometry": {
                "type": "Point",
                "coordinates": [
                    28.6365083,
                    55.2115917
                ]
            },
            "properties": {
                "name": "Q3919744",
                "article": null
            }
        },
        {
            "type": "Feature",
            "geometry": {
                "type": "Point",
                "coordinates": [
                    27.446182,
                    53.879042
                ]
            },
            "properties": {
                "name": "Q3919750",
                "article": null
            }
        },
        {
            "type": "Feature",
            "geometry": {
                "type": "Point",
                "coordinates": [
                    27.48126,
                    53.9292
                ]
            },
            "properties": {
                "name": "Q3919770",
                "article": null
            }
        },
        {
            "type": "Feature",
            "geometry": {
                "type": "Point",
                "coordinates": [
                    30.033333333,
                    55.379166666
                ]
            },
            "properties": {
                "name": "Losvida",
                "article": null
            }
        },
        {
            "type": "Feature",
            "geometry": {
                "type": "Point",
                "coordinates": [
                    27.60167,
                    53.91262
                ]
            },
            "properties": {
                "name": "Piatruś Broŭka Street",
                "article": null
            }
        },
        {
            "type": "Feature",
            "geometry": {
                "type": "Point",
                "coordinates": [
                    27.540286,
                    53.930969
                ]
            },
            "properties": {
                "name": "Q3919779",
                "article": null
            }
        },
        {
            "type": "Feature",
            "geometry": {
                "type": "Point",
                "coordinates": [
                    27.50777778,
                    53.89194444
                ]
            },
            "properties": {
                "name": "Carla Libknehta Street",
                "article": null
            }
        },
        {
            "type": "Feature",
            "geometry": {
                "type": "Point",
                "coordinates": [
                    27.62775,
                    53.92234
                ]
            },
            "properties": {
                "name": "Q3919991",
                "article": null
            }
        },
        {
            "type": "Feature",
            "geometry": {
                "type": "Point",
                "coordinates": [
                    27.4161,
                    53.8871
                ]
            },
            "properties": {
                "name": "Q3920053",
                "article": null
            }
        },
        {
            "type": "Feature",
            "geometry": {
                "type": "Point",
                "coordinates": [
                    27.635,
                    53.9447
                ]
            },
            "properties": {
                "name": "Kalinoŭskaha Street, Minsk",
                "article": null
            }
        },
        {
            "type": "Feature",
            "geometry": {
                "type": "Point",
                "coordinates": [
                    28.528533333,
                    55.063033333
                ]
            },
            "properties": {
                "name": "Q3919306",
                "article": null
            }
        },
        {
            "type": "Feature",
            "geometry": {
                "type": "Point",
                "coordinates": [
                    27.16584167,
                    55.68523056
                ]
            },
            "properties": {
                "name": "Pociech",
                "article": null
            }
        },
        {
            "type": "Feature",
            "geometry": {
                "type": "Point",
                "coordinates": [
                    27.1675,
                    55.6859
                ]
            },
            "properties": {
                "name": "Pociech",
                "article": null
            }
        },
        {
            "type": "Feature",
            "geometry": {
                "type": "Point",
                "coordinates": [
                    27.633333333,
                    52.083333333
                ]
            },
            "properties": {
                "name": "Q3919309",
                "article": null
            }
        },
        {
            "type": "Feature",
            "geometry": {
                "type": "Point",
                "coordinates": [
                    26.787327777,
                    55.069766666
                ]
            },
            "properties": {
                "name": "Spory",
                "article": null
            }
        },
        {
            "type": "Feature",
            "geometry": {
                "type": "Point",
                "coordinates": [
                    28.443,
                    55.010708333
                ]
            },
            "properties": {
                "name": "Q3919317",
                "article": null
            }
        },
        {
            "type": "Feature",
            "geometry": {
                "type": "Point",
                "coordinates": [
                    28.62496389,
                    55.14439722
                ]
            },
            "properties": {
                "name": "Viečallie",
                "article": null
            }
        },
        {
            "type": "Feature",
            "geometry": {
                "type": "Point",
                "coordinates": [
                    28.6266,
                    55.1458
                ]
            },
            "properties": {
                "name": "Viečallie",
                "article": null
            }
        },
        {
            "type": "Feature",
            "geometry": {
                "type": "Point",
                "coordinates": [
                    28.43485,
                    55.192783333
                ]
            },
            "properties": {
                "name": "Q3919334",
                "article": null
            }
        },
        {
            "type": "Feature",
            "geometry": {
                "type": "Point",
                "coordinates": [
                    28.436111111,
                    55.194444444
                ]
            },
            "properties": {
                "name": "Q3919334",
                "article": null
            }
        },
        {
            "type": "Feature",
            "geometry": {
                "type": "Point",
                "coordinates": [
                    28.445319444,
                    54.980422222
                ]
            },
            "properties": {
                "name": "Q3919335",
                "article": null
            }
        },
        {
            "type": "Feature",
            "geometry": {
                "type": "Point",
                "coordinates": [
                    26.566666666,
                    54.722222222
                ]
            },
            "properties": {
                "name": "Višnieŭskaje Lake",
                "article": null
            }
        },
        {
            "type": "Feature",
            "geometry": {
                "type": "Point",
                "coordinates": [
                    26.746472222,
                    54.955736111
                ]
            },
            "properties": {
                "name": "Kuźmičy",
                "article": null
            }
        },
        {
            "type": "Feature",
            "geometry": {
                "type": "Point",
                "coordinates": [
                    26.943283333,
                    55.630902777
                ]
            },
            "properties": {
                "name": "Q3920949",
                "article": null
            }
        },
        {
            "type": "Feature",
            "geometry": {
                "type": "Point",
                "coordinates": [
                    26.9355,
                    55.5567
                ]
            },
            "properties": {
                "name": "Q3920952",
                "article": null
            }
        },
        {
            "type": "Feature",
            "geometry": {
                "type": "Point",
                "coordinates": [
                    30.197,
                    55.19475
                ]
            },
            "properties": {
                "name": "Q3936603",
                "article": null
            }
        },
        {
            "type": "Feature",
            "geometry": {
                "type": "Point",
                "coordinates": [
                    28.997983333,
                    55.223441666
                ]
            },
            "properties": {
                "name": "Q3946893",
                "article": null
            }
        },
        {
            "type": "Feature",
            "geometry": {
                "type": "Point",
                "coordinates": [
                    29.033175,
                    55.129386111
                ]
            },
            "properties": {
                "name": "Q3946938",
                "article": null
            }
        },
        {
            "type": "Feature",
            "geometry": {
                "type": "Point",
                "coordinates": [
                    26.720638888,
                    55.617527777
                ]
            },
            "properties": {
                "name": "Q3946993",
                "article": null
            }
        },
        {
            "type": "Feature",
            "geometry": {
                "type": "Point",
                "coordinates": [
                    27.00917,
                    55.69444
                ]
            },
            "properties": {
                "name": "Shova",
                "article": null
            }
        },
        {
            "type": "Feature",
            "geometry": {
                "type": "Point",
                "coordinates": [
                    27.032777777,
                    55.695277777
                ]
            },
            "properties": {
                "name": "Chaychyn",
                "article": null
            }
        },
        {
            "type": "Feature",
            "geometry": {
                "type": "Point",
                "coordinates": [
                    27.0343,
                    55.6958
                ]
            },
            "properties": {
                "name": "Chaychyn",
                "article": null
            }
        },
        {
            "type": "Feature",
            "geometry": {
                "type": "Point",
                "coordinates": [
                    27.81076,
                    55.52813
                ]
            },
            "properties": {
                "name": "Q4059699",
                "article": null
            }
        },
        {
            "type": "Feature",
            "geometry": {
                "type": "Point",
                "coordinates": [
                    29.895166666,
                    55.418305555
                ]
            },
            "properties": {
                "name": "Q4064662",
                "article": null
            }
        },
        {
            "type": "Feature",
            "geometry": {
                "type": "Point",
                "coordinates": [
                    27.227333333,
                    54.046277777
                ]
            },
            "properties": {
                "name": "Anusina",
                "article": null
            }
        },
        {
            "type": "Feature",
            "geometry": {
                "type": "Point",
                "coordinates": [
                    26.730444444,
                    54.33175
                ]
            },
            "properties": {
                "name": "Asanawski",
                "article": null
            }
        },
        {
            "type": "Feature",
            "geometry": {
                "type": "Point",
                "coordinates": [
                    27.007694444,
                    53.564027777
                ]
            },
            "properties": {
                "name": "Asina",
                "article": null
            }
        },
        {
            "type": "Feature",
            "geometry": {
                "type": "Point",
                "coordinates": [
                    27.284222222,
                    54.008888888
                ]
            },
            "properties": {
                "name": "Bielaruś",
                "article": null
            }
        },
        {
            "type": "Feature",
            "geometry": {
                "type": "Point",
                "coordinates": [
                    26.456138888,
                    54.456833333
                ]
            },
            "properties": {
                "name": "Byelasyel′ski",
                "article": null
            }
        },
        {
            "type": "Feature",
            "geometry": {
                "type": "Point",
                "coordinates": [
                    29.795833333,
                    55.645555555
                ]
            },
            "properties": {
                "name": "Q4085112",
                "article": null
            }
        },
        {
            "type": "Feature",
            "geometry": {
                "type": "Point",
                "coordinates": [
                    27.55483,
                    53.89047
                ]
            },
            "properties": {
                "name": "Babrujskaja street, Minsk",
                "article": null
            }
        },
        {
            "type": "Feature",
            "geometry": {
                "type": "Point",
                "coordinates": [
                    27.085166666,
                    54.190944444
                ]
            },
            "properties": {
                "name": "Bayary",
                "article": null
            }
        },
        {
            "type": "Feature",
            "geometry": {
                "type": "Point",
                "coordinates": [
                    25.6172633,
                    52.8767894
                ]
            },
            "properties": {
                "name": "Bytsyen′",
                "article": null
            }
        },
        {
            "type": "Feature",
            "geometry": {
                "type": "Point",
                "coordinates": [
                    28.1827,
                    53.4633
                ]
            },
            "properties": {
                "name": "Vyalyenski",
                "article": null
            }
        },
        {
            "type": "Feature",
            "geometry": {
                "type": "Point",
                "coordinates": [
                    29.722777777,
                    55.598611111
                ]
            },
            "properties": {
                "name": "Q4107850",
                "article": null
            }
        },
        {
            "type": "Feature",
            "geometry": {
                "type": "Point",
                "coordinates": [
                    26.569611111,
                    53.353527777
                ]
            },
            "properties": {
                "name": "Varatsishcha",
                "article": null
            }
        },
        {
            "type": "Feature",
            "geometry": {
                "type": "Point",
                "coordinates": [
                    30.340555555,
                    55.447222222
                ]
            },
            "properties": {
                "name": "Q4129018",
                "article": null
            }
        },
        {
            "type": "Feature",
            "geometry": {
                "type": "Point",
                "coordinates": [
                    30.617166666,
                    55.25775
                ]
            },
            "properties": {
                "name": "Q4129020",
                "article": null
            }
        },
        {
            "type": "Feature",
            "geometry": {
                "type": "Point",
                "coordinates": [
                    27.191722222,
                    54.091527777
                ]
            },
            "properties": {
                "name": "Viazynka",
                "article": null
            }
        },
        {
            "type": "Feature",
            "geometry": {
                "type": "Point",
                "coordinates": [
                    26.269222222,
                    54.496111111
                ]
            },
            "properties": {
                "name": "Havutsi",
                "article": null
            }
        },
        {
            "type": "Feature",
            "geometry": {
                "type": "Point",
                "coordinates": [
                    30.959194444,
                    52.439527777
                ]
            },
            "properties": {
                "name": "Homyel′-Tsotny",
                "article": null
            }
        },
        {
            "type": "Feature",
            "geometry": {
                "type": "Point",
                "coordinates": [
                    30.988333333,
                    52.44975
                ]
            },
            "properties": {
                "name": "Homyel′-Nyatsotny",
                "article": null
            }
        },
        {
            "type": "Feature",
            "geometry": {
                "type": "Point",
                "coordinates": [
                    26.538194444,
                    53.314777777
                ]
            },
            "properties": {
                "name": "Haradzyeya",
                "article": null
            }
        },
        {
            "type": "Feature",
            "geometry": {
                "type": "Point",
                "coordinates": [
                    30.155555555,
                    55.090277777
                ]
            },
            "properties": {
                "name": "Q4145290",
                "article": null
            }
        },
        {
            "type": "Feature",
            "geometry": {
                "type": "Point",
                "coordinates": [
                    29.832777777,
                    55.149722222
                ]
            },
            "properties": {
                "name": "Q4145289",
                "article": null
            }
        },
        {
            "type": "Feature",
            "geometry": {
                "type": "Point",
                "coordinates": [
                    29.069833333,
                    55.975194444
                ]
            },
            "properties": {
                "name": "Harodna",
                "article": null
            }
        },
        {
            "type": "Feature",
            "geometry": {
                "type": "Point",
                "coordinates": [
                    25.8633211,
                    53.04011
                ]
            },
            "properties": {
                "name": "Hrytsavyets",
                "article": null
            }
        },
        {
            "type": "Feature",
            "geometry": {
                "type": "Point",
                "coordinates": [
                    25.89314,
                    54.59613
                ]
            },
            "properties": {
                "name": "Hudahay",
                "article": null
            }
        },
        {
            "type": "Feature",
            "geometry": {
                "type": "Point",
                "coordinates": [
                    27.35,
                    53.8925
                ]
            },
            "properties": {
                "name": "Dzyehtsyarowka",
                "article": null
            }
        },
        {
            "type": "Feature",
            "geometry": {
                "type": "Point",
                "coordinates": [
                    27.133583333,
                    53.672444444
                ]
            },
            "properties": {
                "name": "Dzyarzhynsk",
                "article": null
            }
        },
        {
            "type": "Feature",
            "geometry": {
                "type": "Point",
                "coordinates": [
                    31.321888888,
                    52.398722222
                ]
            },
            "properties": {
                "name": "Dobrush",
                "article": null
            }
        },
        {
            "type": "Feature",
            "geometry": {
                "type": "Point",
                "coordinates": [
                    30.214524,
                    55.19785
                ]
            },
            "properties": {
                "name": "Q4165597",
                "article": null
            }
        },
        {
            "type": "Feature",
            "geometry": {
                "type": "Point",
                "coordinates": [
                    28.001747,
                    54.599716
                ]
            },
            "properties": {
                "name": "Damaškaŭskaje Lake",
                "article": null
            }
        },
        {
            "type": "Feature",
            "geometry": {
                "type": "Point",
                "coordinates": [
                    27.142083333,
                    54.106333333
                ]
            },
            "properties": {
                "name": "Dubravy",
                "article": null
            }
        },
        {
            "type": "Feature",
            "geometry": {
                "type": "Point",
                "coordinates": [
                    31.220305555,
                    52.389
                ]
            },
            "properties": {
                "name": "Dudarava",
                "article": null
            }
        },
        {
            "type": "Feature",
            "geometry": {
                "type": "Point",
                "coordinates": [
                    27.425555555,
                    53.947527777
                ]
            },
            "properties": {
                "name": "Zhdanovichy",
                "article": null
            }
        },
        {
            "type": "Feature",
            "geometry": {
                "type": "Point",
                "coordinates": [
                    29.581666666,
                    55.65
                ]
            },
            "properties": {
                "name": "Q4181008",
                "article": null
            }
        },
        {
            "type": "Feature",
            "geometry": {
                "type": "Point",
                "coordinates": [
                    31.477638888,
                    52.433111111
                ]
            },
            "properties": {
                "name": "Zakapytstsye",
                "article": null
            }
        },
        {
            "type": "Feature",
            "geometry": {
                "type": "Point",
                "coordinates": [
                    26.541444444,
                    54.421194444
                ]
            },
            "properties": {
                "name": "Zalyessye",
                "article": null
            }
        },
        {
            "type": "Feature",
            "geometry": {
                "type": "Point",
                "coordinates": [
                    29.848888888,
                    55.308333333
                ]
            },
            "properties": {
                "name": "Q4187533",
                "article": null
            }
        },
        {
            "type": "Feature",
            "geometry": {
                "type": "Point",
                "coordinates": [
                    26.596944444,
                    54.39
                ]
            },
            "properties": {
                "name": "Zaskavichy",
                "article": null
            }
        },
        {
            "type": "Feature",
            "geometry": {
                "type": "Point",
                "coordinates": [
                    30.368055555,
                    55.416666666
                ]
            },
            "properties": {
                "name": "Q4188851",
                "article": null
            }
        },
        {
            "type": "Feature",
            "geometry": {
                "type": "Point",
                "coordinates": [
                    30.5996,
                    54.8292
                ]
            },
            "properties": {
                "name": "Zielianskoje",
                "article": null
            }
        },
        {
            "type": "Feature",
            "geometry": {
                "type": "Point",
                "coordinates": [
                    27.294722222,
                    53.979055555
                ]
            },
            "properties": {
                "name": "Zyalyonaye",
                "article": null
            }
        },
        {
            "type": "Feature",
            "geometry": {
                "type": "Point",
                "coordinates": [
                    28.41,
                    52.635
                ]
            },
            "properties": {
                "name": "Q4194917",
                "article": null
            }
        },
        {
            "type": "Feature",
            "geometry": {
                "type": "Point",
                "coordinates": [
                    31.089722222,
                    52.404055555
                ]
            },
            "properties": {
                "name": "Iputs′",
                "article": null
            }
        },
        {
            "type": "Feature",
            "geometry": {
                "type": "Point",
                "coordinates": [
                    27.688997222,
                    55.135791666
                ]
            },
            "properties": {
                "name": "Kahaĺnaje",
                "article": null
            }
        },
        {
            "type": "Feature",
            "geometry": {
                "type": "Point",
                "coordinates": [
                    29.313154,
                    52.138888
                ]
            },
            "properties": {
                "name": "Kalinkavičy",
                "article": null
            }
        },
        {
            "type": "Feature",
            "geometry": {
                "type": "Point",
                "coordinates": [
                    25.951388888,
                    54.571555555
                ]
            },
            "properties": {
                "name": "Kamyenka",
                "article": null
            }
        },
        {
            "type": "Feature",
            "geometry": {
                "type": "Point",
                "coordinates": [
                    27.096861111,
                    53.643166666
                ]
            },
            "properties": {
                "name": "Klypawshchyna",
                "article": null
            }
        },
        {
            "type": "Feature",
            "geometry": {
                "type": "Point",
                "coordinates": [
                    27.158694444,
                    53.68275
                ]
            },
            "properties": {
                "name": "Kojdanava",
                "article": null
            }
        },
        {
            "type": "Feature",
            "geometry": {
                "type": "Point",
                "coordinates": [
                    27.775138888,
                    53.945555555
                ]
            },
            "properties": {
                "name": "Kalodziščy railway station",
                "article": null
            }
        },
        {
            "type": "Feature",
            "geometry": {
                "type": "Point",
                "coordinates": [
                    26.925444444,
                    53.528583333
                ]
            },
            "properties": {
                "name": "Kolasava",
                "article": null
            }
        },
        {
            "type": "Feature",
            "geometry": {
                "type": "Point",
                "coordinates": [
                    27.579638888,
                    53.80825
                ]
            },
            "properties": {
                "name": "Kalyadzichy",
                "article": null
            }
        },
        {
            "type": "Feature",
            "geometry": {
                "type": "Point",
                "coordinates": [
                    31.116222222,
                    52.354916666
                ]
            },
            "properties": {
                "name": "Karanyowka",
                "article": null
            }
        },
        {
            "type": "Feature",
            "geometry": {
                "type": "Point",
                "coordinates": [
                    30.940361111,
                    52.524111111
                ]
            },
            "properties": {
                "name": "Kastsyukowka",
                "article": null
            }
        },
        {
            "type": "Feature",
            "geometry": {
                "type": "Point",
                "coordinates": [
                    26.404027777,
                    52.71125
                ]
            },
            "properties": {
                "name": "Q4236613",
                "article": null
            }
        },
        {
            "type": "Feature",
            "geometry": {
                "type": "Point",
                "coordinates": [
                    29.903055555,
                    55.5
                ]
            },
            "properties": {
                "name": "Q4237149",
                "article": null
            }
        },
        {
            "type": "Feature",
            "geometry": {
                "type": "Point",
                "coordinates": [
                    31.006986111,
                    52.426783333
                ]
            },