{
    "type": "FeatureCollection",
    "features": [
        {
            "type": "Feature",
            "geometry": {
                "type": "Point",
                "coordinates": [
                    -88.188611111,
                    17.498611111
                ]
            },
            "properties": {
                "name": "Belize City",
                "article": "https://en.wikipedia.org/wiki/Belize_City"
            }
        },
        {
            "type": "Feature",
            "geometry": {
                "type": "Point",
                "coordinates": [
                    -88.49765,
                    17.189877777
                ]
            },
            "properties": {
                "name": "Actun Tunichil Muknal",
                "article": "https://en.wikipedia.org/wiki/Actun_Tunichil_Muknal"
            }
        },
        {
            "type": "Feature",
            "geometry": {
                "type": "Point",
                "coordinates": [
                    -88.33333333,
                    17.75
                ]
            },
            "properties": {
                "name": "Altun Ha",
                "article": "https://en.wikipedia.org/wiki/Altun_Ha"
            }
        },
        {
            "type": "Feature",
            "geometry": {
                "type": "Point",
                "coordinates": [
                    -87.931038888,
                    18.013947222
                ]
            },
            "properties": {
                "name": "Ambergris Caye",
                "article": "https://en.wikipedia.org/wiki/Ambergris_Caye"
            }
        },
        {
            "type": "Feature",
            "geometry": {
                "type": "Point",
                "coordinates": [
                    -89.133333333,
                    17.066666666
                ]
            },
            "properties": {
                "name": "Benque Viejo del Carmen",
                "article": "https://en.wikipedia.org/wiki/Benque_Viejo_del_Carmen"
            }
        },
        {
            "type": "Feature",
            "geometry": {
                "type": "Point",
                "coordinates": [
                    -88.965,
                    16.281111
                ]
            },
            "properties": {
                "name": "Lubaantun",
                "article": "https://en.wikipedia.org/wiki/Lubaantun"
            }
        },
        {
            "type": "Feature",
            "geometry": {
                "type": "Point",
                "coordinates": [
                    -89.07833,
                    16.23667
                ]
            },
            "properties": {
                "name": "Uxbenka",
                "article": "https://en.wikipedia.org/wiki/Uxbenka"
            }
        },
        {
            "type": "Feature",
            "geometry": {
                "type": "Point",
                "coordinates": [
                    -87.961111111,
                    17.921388888
                ]
            },
            "properties": {
                "name": "San Pedro Town",
                "article": "https://en.wikipedia.org/wiki/San_Pedro_Town"
            }
        },
        {
            "type": "Feature",
            "geometry": {
                "type": "Point",
                "coordinates": [
                    -89.0696,
                    17.1588
                ]
            },
            "properties": {
                "name": "San Ignacio",
                "article": "https://en.wikipedia.org/wiki/San_Ignacio,_Belize"
            }
        },
        {
            "type": "Feature",
            "geometry": {
                "type": "Point",
                "coordinates": [
                    -88.6,
                    16.8
                ]
            },
            "properties": {
                "name": "Victoria Peak",
                "article": "https://en.wikipedia.org/wiki/Victoria_Peak_(Belize)"
            }
        },
        {
            "type": "Feature",
            "geometry": {
                "type": "Point",
                "coordinates": [
                    -88.4,
                    18.4
                ]
            },
            "properties": {
                "name": "Corozal",
                "article": "https://en.wikipedia.org/wiki/Corozal_Town"
            }
        },
        {
            "type": "Feature",
            "geometry": {
                "type": "Point",
                "coordinates": [
                    -88.558333333,
                    18.075
                ]
            },
            "properties": {
                "name": "Orange Walk Town",
                "article": "https://en.wikipedia.org/wiki/Orange_Walk_Town"
            }
        },
        {
            "type": "Feature",
            "geometry": {
                "type": "Point",
                "coordinates": [
                    -88.8,
                    16.1
                ]
            },
            "properties": {
                "name": "Punta Gorda",
                "article": "https://en.wikipedia.org/wiki/Punta_Gorda,_Belize"
            }
        },
        {
            "type": "Feature",
            "geometry": {
                "type": "Point",
                "coordinates": [
                    -88.216666666,
                    16.966666666
                ]
            },
            "properties": {
                "name": "Dangriga",
                "article": "https://en.wikipedia.org/wiki/Dangriga"
            }
        },
        {
            "type": "Feature",
            "geometry": {
                "type": "Point",
                "coordinates": [
                    -88.6,
                    18.06666667
                ]
            },
            "properties": {
                "name": "Cuello",
                "article": "https://en.wikipedia.org/wiki/Cuello"
            }
        },
        {
            "type": "Feature",
            "geometry": {
                "type": "Point",
                "coordinates": [
                    -89.061111111,
                    17.155555555
                ]
            },
            "properties": {
                "name": "Cahal Pech",
                "article": "https://en.wikipedia.org/wiki/Cahal_Pech"
            }
        },
        {
            "type": "Feature",
            "geometry": {
                "type": "Point",
                "coordinates": [
                    -88.654469444,
                    17.752566666
                ]
            },
            "properties": {
                "name": "Lamanai",
                "article": "https://en.wikipedia.org/wiki/Lamanai"
            }
        },
        {
            "type": "Feature",
            "geometry": {
                "type": "Point",
                "coordinates": [
                    -89.117591666,
                    16.763927777
                ]
            },
            "properties": {
                "name": "Caracol",
                "article": "https://en.wikipedia.org/wiki/Caracol"
            }
        },
        {
            "type": "Feature",
            "geometry": {
                "type": "Point",
                "coordinates": [
                    -88.02898,
                    17.74215
                ]
            },
            "properties": {
                "name": "Caye Caulker",
                "article": "https://en.wikipedia.org/wiki/Caye_Caulker"
            }
        },
        {
            "type": "Feature",
            "geometry": {
                "type": "Point",
                "coordinates": [
                    -88.025,
                    17.7425
                ]
            },
            "properties": {
                "name": "Caye Caulker",
                "article": "https://en.wikipedia.org/wiki/Caye_Caulker"
            }
        },
        {
            "type": "Feature",
            "geometry": {
                "type": "Point",
                "coordinates": [
                    -88.350555555,
                    18.353888888
                ]
            },
            "properties": {
                "name": "Cerros",
                "article": "https://en.wikipedia.org/wiki/Cerros"
            }
        },
        {
            "type": "Feature",
            "geometry": {
                "type": "Point",
                "coordinates": [
                    -88.35202778,
                    18.35833056
                ]
            },
            "properties": {
                "name": "Cerros",
                "article": "https://en.wikipedia.org/wiki/Cerros"
            }
        },
        {
            "type": "Feature",
            "geometry": {
                "type": "Point",
                "coordinates": [
                    -88.8,
                    16.316666666
                ]
            },
            "properties": {
                "name": "Nim Li Punit",
                "article": "https://en.wikipedia.org/wiki/Nim_Li_Punit"
            }
        },
        {
            "type": "Feature",
            "geometry": {
                "type": "Point",
                "coordinates": [
                    -89.15540278,
                    17.25677222
                ]
            },
            "properties": {
                "name": "El Pilar",
                "article": "https://en.wikipedia.org/wiki/El_Pilar"
            }
        },
        {
            "type": "Feature",
            "geometry": {
                "type": "Point",
                "coordinates": [
                    -89.133888888,
                    17.083888888
                ]
            },
            "properties": {
                "name": "Xunantunich",
                "article": "https://en.wikipedia.org/wiki/Xunantunich"
            }
        },
        {
            "type": "Feature",
            "geometry": {
                "type": "Point",
                "coordinates": [
                    -89.00273,
                    17.24567
                ]
            },
            "properties": {
                "name": "Spanish Lookout",
                "article": "https://en.wikipedia.org/wiki/Spanish_Lookout"
            }
        },
        {
            "type": "Feature",
            "geometry": {
                "type": "Point",
                "coordinates": [
                    -88.0739,
                    17.5531
                ]
            },
            "properties": {
                "name": "Battle of St. George's Caye",
                "article": "https://en.wikipedia.org/wiki/Battle_of_St._George%27s_Caye"
            }
        },
        {
            "type": "Feature",
            "geometry": {
                "type": "Point",
                "coordinates": [
                    -88.1225,
                    17.94722222
                ]
            },
            "properties": {
                "name": "Cayo Espanto",
                "article": "https://en.wikipedia.org/wiki/Cayo_Espanto"
            }
        },
        {
            "type": "Feature",
            "geometry": {
                "type": "Point",
                "coordinates": [
                    -88.995,
                    17.092
                ]
            },
            "properties": {
                "name": "Pacbitun",
                "article": "https://en.wikipedia.org/wiki/Pacbitun"
            }
        },
        {
            "type": "Feature",
            "geometry": {
                "type": "Point",
                "coordinates": [
                    -88.3,
                    17.35
                ]
            },
            "properties": {
                "name": "Bird Island",
                "article": "https://en.wikipedia.org/wiki/Bird_Island_(Belize)"
            }
        },
        {
            "type": "Feature",
            "geometry": {
                "type": "Point",
                "coordinates": [
                    -87.78333333,
                    17.48333333
                ]
            },
            "properties": {
                "name": "Baby Roach Cay",
                "article": null
            }
        },
        {
            "type": "Feature",
            "geometry": {
                "type": "Point",
                "coordinates": [
                    -89.01944444,
                    17.20305556
                ]
            },
            "properties": {
                "name": "Baking Pot",
                "article": "https://en.wikipedia.org/wiki/Baking_Pot"
            }
        },
        {
            "type": "Feature",
            "geometry": {
                "type": "Point",
                "coordinates": [
                    -88.89345,
                    17.86799
                ]
            },
            "properties": {
                "name": "Blue Creek, archeological site",
                "article": "https://en.wikipedia.org/wiki/Blue_Creek_(Belize)"
            }
        },
        {
            "type": "Feature",
            "geometry": {
                "type": "Point",
                "coordinates": [
                    -88.0425,
                    17.695833333
                ]
            },
            "properties": {
                "name": "Caye Chapel",
                "article": "https://en.wikipedia.org/wiki/Caye_Chapel"
            }
        },
        {
            "type": "Feature",
            "geometry": {
                "type": "Point",
                "coordinates": [
                    -88.037222222,
                    17.348888888
                ]
            },
            "properties": {
                "name": "Goff's Caye",
                "article": "https://en.wikipedia.org/wiki/Goff%27s_Caye"
            }
        },
        {
            "type": "Feature",
            "geometry": {
                "type": "Point",
                "coordinates": [
                    -87.536388888,
                    17.204722222
                ]
            },
            "properties": {
                "name": "Half Moon Caye",
                "article": "https://en.wikipedia.org/wiki/Half_Moon_Caye"
            }
        },
        {
            "type": "Feature",
            "geometry": {
                "type": "Point",
                "coordinates": [
                    -88.72972,
                    17.81611
                ]
            },
            "properties": {
                "name": "Ka'Kabish",
                "article": "https://en.wikipedia.org/wiki/Ka%CA%BCKabish"
            }
        },
        {
            "type": "Feature",
            "geometry": {
                "type": "Point",
                "coordinates": [
                    -88.95,
                    17.78333
                ]
            },
            "properties": {
                "name": "La Milpa",
                "article": "https://en.wikipedia.org/wiki/La_Milpa"
            }
        },
        {
            "type": "Feature",
            "geometry": {
                "type": "Point",
                "coordinates": [
                    -87.594444444,
                    17.206944444
                ]
            },
            "properties": {
                "name": "Long Caye",
                "article": "https://en.wikipedia.org/wiki/Long_Caye"
            }
        },
        {
            "type": "Feature",
            "geometry": {
                "type": "Point",
                "coordinates": [
                    -88.58475,
                    18.21731
                ]
            },
            "properties": {
                "name": "Nohmul",
                "article": "https://en.wikipedia.org/wiki/Nohmul"
            }
        },
        {
            "type": "Feature",
            "geometry": {
                "type": "Point",
                "coordinates": [
                    -88.584731,
                    18.217356
                ]
            },
            "properties": {
                "name": "Nohmul",
                "article": "https://en.wikipedia.org/wiki/Nohmul"
            }
        },
        {
            "type": "Feature",
            "geometry": {
                "type": "Point",
                "coordinates": [
                    -87.5044,
                    17.4448
                ]
            },
            "properties": {
                "name": "Northern Caye",
                "article": "https://en.wikipedia.org/wiki/Northern_Caye"
            }
        },
        {
            "type": "Feature",
            "geometry": {
                "type": "Point",
                "coordinates": [
                    -87.5037,
                    17.44557
                ]
            },
            "properties": {
                "name": "Northern Caye",
                "article": "https://en.wikipedia.org/wiki/Northern_Caye"
            }
        },
        {
            "type": "Feature",
            "geometry": {
                "type": "Point",
                "coordinates": [
                    -89.24289444,
                    16.104625
                ]
            },
            "properties": {
                "name": "Pusilha",
                "article": "https://en.wikipedia.org/wiki/Pusilha"
            }
        },
        {
            "type": "Feature",
            "geometry": {
                "type": "Point",
                "coordinates": [
                    -89.19478,
                    16.11294
                ]
            },
            "properties": {
                "name": "Pusilha",
                "article": "https://en.wikipedia.org/wiki/Pusilha"
            }
        },
        {
            "type": "Feature",
            "geometry": {
                "type": "Point",
                "coordinates": [
                    -88.130722222,
                    16.851319444
                ]
            },
            "properties": {
                "name": "Royal Belize",
                "article": "https://en.wikipedia.org/wiki/Royal_Belize"
            }
        },
        {
            "type": "Feature",
            "geometry": {
                "type": "Point",
                "coordinates": [
                    -88.273888888,
                    17.444166666
                ]
            },
            "properties": {
                "name": "Q21867038",
                "article": null
            }
        },
        {
            "type": "Feature",
            "geometry": {
                "type": "Point",
                "coordinates": [
                    -88.415833333,
                    17.6875
                ]
            },
            "properties": {
                "name": "Q21867039",
                "article": null
            }
        },
        {
            "type": "Feature",
            "geometry": {
                "type": "Point",
                "coordinates": [
                    -88.470555555,
                    17.985833333
                ]
            },
            "properties": {
                "name": "Q21867045",
                "article": null
            }
        },
        {
            "type": "Feature",
            "geometry": {
                "type": "Point",
                "coordinates": [
                    -88.27928,
                    16.51596
                ]
            },
            "properties": {
                "name": "Lark Cay",
                "article": null
            }
        },
        {
            "type": "Feature",
            "geometry": {
                "type": "Point",
                "coordinates": [
                    -88.24303,
                    17.71823
                ]
            },
            "properties": {
                "name": "Last Chance Cay",
                "article": null
            }
        },
        {
            "type": "Feature",
            "geometry": {
                "type": "Point",
                "coordinates": [
                    -88.283333333,
                    16.533333333
                ]
            },
            "properties": {
                "name": "Q21867060",
                "article": null
            }
        },
        {
            "type": "Feature",
            "geometry": {
                "type": "Point",
                "coordinates": [
                    -88.608333333,
                    16.480833333
                ]
            },
            "properties": {
                "name": "Q21867061",
                "article": null
            }
        },
        {
            "type": "Feature",
            "geometry": {
                "type": "Point",
                "coordinates": [
                    -88.383333333,
                    16.15
                ]
            },
            "properties": {
                "name": "Q21867064",
                "article": null
            }
        },
        {
            "type": "Feature",
            "geometry": {
                "type": "Point",
                "coordinates": [
                    -88.609722222,
                    16.725833333
                ]
            },
            "properties": {
                "name": "Q21867070",
                "article": null
            }
        },
        {
            "type": "Feature",
            "geometry": {
                "type": "Point",
                "coordinates": [
                    -88.25,
                    16.083333333
                ]
            },
            "properties": {
                "name": "Lime Cay",
                "article": null
            }
        },
        {
            "type": "Feature",
            "geometry": {
                "type": "Point",
                "coordinates": [
                    -88.16667,
                    16.7
                ]
            },
            "properties": {
                "name": "Little Peter Cay",
                "article": null
            }
        },
        {
            "type": "Feature",
            "geometry": {
                "type": "Point",
                "coordinates": [
                    -89.0787,
                    16.4194
                ]
            },
            "properties": {
                "name": "Little Quartz Ridge",
                "article": null
            }
        },
        {
            "type": "Feature",
            "geometry": {
                "type": "Point",
                "coordinates": [
                    -88.47712,
                    16.36896
                ]
            },
            "properties": {
                "name": "Little Monkey Cay",
                "article": null
            }
        },
        {
            "type": "Feature",
            "geometry": {
                "type": "Point",
                "coordinates": [
                    -88.1,
                    16.433333333
                ]
            },
            "properties": {
                "name": "Little Water Cay",
                "article": null
            }
        },
        {
            "type": "Feature",
            "geometry": {
                "type": "Point",
                "coordinates": [
                    -87.766666666,
                    16.733333333
                ]
            },
            "properties": {
                "name": "Long Cay",
                "article": null
            }
        },
        {
            "type": "Feature",
            "geometry": {
                "type": "Point",
                "coordinates": [
                    -88.59606,
                    17.88236
                ]
            },
            "properties": {
                "name": "Locust Hill Pond",
                "article": null
            }
        },
        {
            "type": "Feature",
            "geometry": {
                "type": "Point",
                "coordinates": [
                    -88.461944444,
                    16.847777777
                ]
            },
            "properties": {
                "name": "Q21867086",
                "article": null
            }
        },
        {
            "type": "Feature",
            "geometry": {
                "type": "Point",
                "coordinates": [
                    -88.2,
                    16.483333333
                ]
            },
            "properties": {
                "name": "Long Coco Cay",
                "article": null
            }
        },
        {
            "type": "Feature",
            "geometry": {
                "type": "Point",
                "coordinates": [
                    -88.168611111,
                    17.331111111
                ]
            },
            "properties": {
                "name": "Long Cay",
                "article": null
            }
        },
        {
            "type": "Feature",
            "geometry": {
                "type": "Point",
                "coordinates": [
                    -88.069166666,
                    17.629444444
                ]
            },
            "properties": {
                "name": "Long Cay",
                "article": null
            }
        },
        {
            "type": "Feature",
            "geometry": {
                "type": "Point",
                "coordinates": [
                    -88.1,
                    16.55
                ]
            },
            "properties": {
                "name": "Q21867088",
                "article": null
            }
        },
        {
            "type": "Feature",
            "geometry": {
                "type": "Point",
                "coordinates": [
                    -88.3898,
                    17.001
                ]
            },
            "properties": {
                "name": "Macaroni Hill",
                "article": null
            }
        },
        {
            "type": "Feature",
            "geometry": {
                "type": "Point",
                "coordinates": [
                    -88.97493,
                    16.17568
                ]
            },
            "properties": {
                "name": "Mafredi Lagoon",
                "article": null
            }
        },
        {
            "type": "Feature",
            "geometry": {
                "type": "Point",
                "coordinates": [
                    -87.9,
                    17.216666666
                ]
            },
            "properties": {
                "name": "Man of War Cay",
                "article": null
            }
        },
        {
            "type": "Feature",
            "geometry": {
                "type": "Point",
                "coordinates": [
                    -88.15,
                    18.383333333
                ]
            },
            "properties": {
                "name": "Man of War Cay",
                "article": null
            }
        },
        {
            "type": "Feature",
            "geometry": {
                "type": "Point",
                "coordinates": [
                    -88.094444444,
                    16.871111111
                ]
            },
            "properties": {
                "name": "Man of War Cay",
                "article": null
            }
        },
        {
            "type": "Feature",
            "geometry": {
                "type": "Point",
                "coordinates": [
                    -88.612222222,
                    17.0425
                ]
            },
            "properties": {
                "name": "Q21867122",
                "article": null
            }
        },
        {
            "type": "Feature",
            "geometry": {
                "type": "Point",
                "coordinates": [
                    -88.113333333,
                    17.517777777
                ]
            },
            "properties": {
                "name": "Mapp's Cay",
                "article": null
            }
        },
        {
            "type": "Feature",
            "geometry": {
                "type": "Point",
                "coordinates": [
                    -88.33298,
                    17.14241
                ]
            },
            "properties": {
                "name": "Matamore Pine Ridge",
                "article": null
            }
        },
        {
            "type": "Feature",
            "geometry": {
                "type": "Point",
                "coordinates": [
                    -88.24277,
                    17.73677
                ]
            },
            "properties": {
                "name": "Marlowe Cay",
                "article": null
            }
        },
        {
            "type": "Feature",
            "geometry": {
                "type": "Point",
                "coordinates": [
                    -87.76667,
                    17.6
                ]
            },
            "properties": {
                "name": "Mauger Cay",
                "article": null
            }
        },
        {
            "type": "Feature",
            "geometry": {
                "type": "Point",
                "coordinates": [
                    -87.93634,
                    17.96822
                ]
            },
            "properties": {
                "name": "Laguna de Mato",
                "article": null
            }
        },
        {
            "type": "Feature",
            "geometry": {
                "type": "Point",
                "coordinates": [
                    -88.7675,
                    17.25
                ]
            },
            "properties": {
                "name": "Belmopan",
                "article": "https://en.wikipedia.org/wiki/Belmopan"
            }
        },
        {
            "type": "Feature",
            "geometry": {
                "type": "Point",
                "coordinates": [
                    -89.05,
                    16.5
                ]
            },
            "properties": {
                "name": "Doyle's Delight",
                "article": "https://en.wikipedia.org/wiki/Doyle%27s_Delight"
            }
        },
        {
            "type": "Feature",
            "geometry": {
                "type": "Point",
                "coordinates": [
                    -88.561666666,
                    18.209722222
                ]
            },
            "properties": {
                "name": "San Pablo",
                "article": "https://en.wikipedia.org/wiki/San_Pablo,_Orange_Walk"
            }
        },
        {
            "type": "Feature",
            "geometry": {
                "type": "Point",
                "coordinates": [
                    -87.48811111,
                    17.464
                ]
            },
            "properties": {
                "name": "Sandbore Caye",
                "article": "https://en.wikipedia.org/wiki/Sandbore_Caye"
            }
        },
        {
            "type": "Feature",
            "geometry": {
                "type": "Point",
                "coordinates": [
                    -88.395,
                    18.40222222
                ]
            },
            "properties": {
                "name": "Santa Rita Corozal",
                "article": "https://en.wikipedia.org/wiki/Santa_Rita,_Corozal"
            }
        },
        {
            "type": "Feature",
            "geometry": {
                "type": "Point",
                "coordinates": [
                    -88.39,
                    18.41
                ]
            },
            "properties": {
                "name": "Santa Rita Corozal",
                "article": "https://en.wikipedia.org/wiki/Santa_Rita,_Corozal"
            }
        },
        {
            "type": "Feature",
            "geometry": {
                "type": "Point",
                "coordinates": [
                    -88.073888888,
                    17.553055555
                ]
            },
            "properties": {
                "name": "St. George's Caye",
                "article": "https://en.wikipedia.org/wiki/St._George%27s_Caye"
            }
        },
        {
            "type": "Feature",
            "geometry": {
                "type": "Point",
                "coordinates": [
                    -88.0619,
                    16.8983
                ]
            },
            "properties": {
                "name": "Tobacco Caye",
                "article": "https://en.wikipedia.org/wiki/Tobacco_Caye"
            }
        },
        {
            "type": "Feature",
            "geometry": {
                "type": "Point",
                "coordinates": [
                    -88.19725,
                    16.443443
                ]
            },
            "properties": {
                "name": "Laughing Bird Caye",
                "article": "https://en.wikipedia.org/wiki/Laughing_Bird_Caye"
            }
        },
        {
            "type": "Feature",
            "geometry": {
                "type": "Point",
                "coordinates": [
                    -88.13333333,
                    17.66666667
                ]
            },
            "properties": {
                "name": "Hick's Cayes",
                "article": "https://en.wikipedia.org/wiki/Hick%27s_Cayes"
            }
        },
        {
            "type": "Feature",
            "geometry": {
                "type": "Point",
                "coordinates": [
                    -89.11667,
                    17.11667
                ]
            },
            "properties": {
                "name": "Buenavista del Cayo",
                "article": null
            }
        },
        {
            "type": "Feature",
            "geometry": {
                "type": "Point",
                "coordinates": [
                    -89.03333,
                    17.55
                ]
            },
            "properties": {
                "name": "Chan Chich",
                "article": null
            }
        },
        {
            "type": "Feature",
            "geometry": {
                "type": "Point",
                "coordinates": [
                    -88.53333,
                    17.76667
                ]
            },
            "properties": {
                "name": "Chau Hiix",
                "article": null
            }
        },
        {
            "type": "Feature",
            "geometry": {
                "type": "Point",
                "coordinates": [
                    -88.94694,
                    16.2825
                ]
            },
            "properties": {
                "name": "Uxbentun",
                "article": null
            }
        },
        {
            "type": "Feature",
            "geometry": {
                "type": "Point",
                "coordinates": [
                    -88.8,
                    16.316666666
                ]
            },
            "properties": {
                "name": "Xnaheb",
                "article": "https://en.wikipedia.org/wiki/Xnaheb"
            }
        },
        {
            "type": "Feature",
            "geometry": {
                "type": "Point",
                "coordinates": [
                    -88.20002778,
                    17.52508333
                ]
            },
            "properties": {
                "name": "Moho Caye",
                "article": "https://en.wikipedia.org/wiki/Moho_Caye"
            }
        },
        {
            "type": "Feature",
            "geometry": {
                "type": "Point",
                "coordinates": [
                    -88.9247,
                    15.891
                ]
            },
            "properties": {
                "name": "Sarstoon Island",
                "article": "https://en.wikipedia.org/wiki/Sarstoon_Island"
            }
        },
        {
            "type": "Feature",
            "geometry": {
                "type": "Point",
                "coordinates": [
                    -88.43835,
                    18.04331
                ]
            },
            "properties": {
                "name": "Honey Camp Lagoon",
                "article": "https://en.wikipedia.org/wiki/Honey_Camp_Lagoon"
            }
        },
        {
            "type": "Feature",
            "geometry": {
                "type": "Point",
                "coordinates": [
                    -88.933333333,
                    17.183333333
                ]
            },
            "properties": {
                "name": "Q21867009",
                "article": null
            }
        },
        {
            "type": "Feature",
            "geometry": {
                "type": "Point",
                "coordinates": [
                    -88.26667,
                    16.1
                ]
            },
            "properties": {
                "name": "Hunting Cay",
                "article": null
            }
        },
        {
            "type": "Feature",
            "geometry": {
                "type": "Point",
                "coordinates": [
                    -88.08281,
                    16.97966
                ]
            },
            "properties": {
                "name": "Hutson Cay",
                "article": null
            }
        },
        {
            "type": "Feature",
            "geometry": {
                "type": "Point",
                "coordinates": [
                    -88.256944444,
                    17.713333333
                ]
            },
            "properties": {
                "name": "Iguana Cay",
                "article": null
            }
        },
        {
            "type": "Feature",
            "geometry": {
                "type": "Point",
                "coordinates": [
                    -88.08281,
                    16.97966
                ]
            },
            "properties": {
                "name": "Hutson Cay",
                "article": null
            }
        },
        {
            "type": "Feature",
            "geometry": {
                "type": "Point",
                "coordinates": [
                    -88.256944444,
                    17.713333333
                ]
            },
            "properties": {
                "name": "Iguana Cay",
                "article": null
            }
        },
        {
            "type": "Feature",
            "geometry": {
                "type": "Point",
                "coordinates": [
                    -87.97373,
                    18.04655
                ]
            },
            "properties": {
                "name": "Cayo Iguano",
                "article": null
            }
        },
        {
            "type": "Feature",
            "geometry": {
                "type": "Point",
                "coordinates": [
                    -88.46166,
                    16.42754
                ]
            },
            "properties": {
                "name": "Indian Hill Lagoon",
                "article": null
            }
        },
        {
            "type": "Feature",
            "geometry": {
                "type": "Point",
                "coordinates": [
                    -88.066666666,
                    16.533333333
                ]
            },
            "properties": {
                "name": "Jack's Cay",
                "article": null
            }
        },
        {
            "type": "Feature",
            "geometry": {
                "type": "Point",
                "coordinates": [
                    -88.273888888,
                    17.444166666
                ]
            },
            "properties": {
                "name": "Q21867038",
                "article": null
            }
        },
        {
            "type": "Feature",
            "geometry": {
                "type": "Point",
                "coordinates": [
                    -88.415833333,
                    17.6875
                ]
            },
            "properties": {
                "name": "Q21867039",
                "article": null
            }
        },
        {
            "type": "Feature",
            "geometry": {
                "type": "Point",
                "coordinates": [
                    -88.470555555,
                    17.985833333
                ]
            },
            "properties": {
                "name": "Q21867045",
                "article": null
            }
        },
        {
            "type": "Feature",
            "geometry": {
                "type": "Point",
                "coordinates": [
                    -88.27928,
                    16.51596
                ]
            },
            "properties": {
                "name": "Lark Cay",
                "article": null
            }
        },
        {
            "type": "Feature",
            "geometry": {
                "type": "Point",
                "coordinates": [
                    -88.283333333,
                    16.533333333
                ]
            },
            "properties": {
                "name": "Q21867060",
                "article": null
            }
        },
        {
            "type": "Feature",
            "geometry": {
                "type": "Point",
                "coordinates": [
                    -88.36878,
                    16.95733
                ]
            },
            "properties": {
                "name": "Monday Morning Ridge",
                "article": null
            }
        },
        {
            "type": "Feature",
            "geometry": {
                "type": "Point",
                "coordinates": [
                    -88.0815,
                    17.59146
                ]
            },
            "properties": {
                "name": "Montego Cay",
                "article": null
            }
        },
        {
            "type": "Feature",
            "geometry": {
                "type": "Point",
                "coordinates": [
                    -88.083333333,
                    17.966666666
                ]
            },
            "properties": {
                "name": "Mosquito Cay",
                "article": null
            }
        },
        {
            "type": "Feature",
            "geometry": {
                "type": "Point",
                "coordinates": [
                    -88.5494,
                    16.9719
                ]
            },
            "properties": {
                "name": "Mount Mossy",
                "article": null
            }
        },
        {
            "type": "Feature",
            "geometry": {
                "type": "Point",
                "coordinates": [
                    -88.216666666,
                    16.466666666
                ]
            },
            "properties": {
                "name": "Mosquito Cay",
                "article": null
            }
        },
        {
            "type": "Feature",
            "geometry": {
                "type": "Point",
                "coordinates": [
                    -88.079166666,
                    17.034166666
                ]
            },
            "properties": {
                "name": "Q21867169",
                "article": null
            }
        },
        {
            "type": "Feature",
            "geometry": {
                "type": "Point",
                "coordinates": [
                    -88.49671,
                    17.49381
                ]
            },
            "properties": {
                "name": "Mucklehany Lagoon",
                "article": null
            }
        },
        {
            "type": "Feature",
            "geometry": {
                "type": "Point",
                "coordinates": [
                    -88.8,
                    16.983333333
                ]
            },
            "properties": {
                "name": "Q21867176",
                "article": null
            }
        },
        {
            "type": "Feature",
            "geometry": {
                "type": "Point",
                "coordinates": [
                    -88.09018,
                    17.25345
                ]
            },
            "properties": {
                "name": "Negro Head",
                "article": null
            }
        },
        {
            "type": "Feature",
            "geometry": {
                "type": "Point",
                "coordinates": [
                    -88.333333333,
                    17.633333333
                ]
            },
            "properties": {
                "name": "Q21867199",
                "article": null
            }
        },
        {
            "type": "Feature",
            "geometry": {
                "type": "Point",
                "coordinates": [
                    -88.666388888,
                    16.504444444
                ]
            },
            "properties": {
                "name": "Q21867197",
                "article": null
            }
        },
        {
            "type": "Feature",
            "geometry": {
                "type": "Point",
                "coordinates": [
                    -88.25,
                    16.1
                ]
            },
            "properties": {
                "name": "Nicholas Cay",
                "article": null
            }
        },
        {
            "type": "Feature",
            "geometry": {
                "type": "Point",
                "coordinates": [
                    -88.23333,
                    16.13333
                ]
            },
            "properties": {
                "name": "Northeast Sapodilla Cay",
                "article": null
            }
        },
        {
            "type": "Feature",
            "geometry": {
                "type": "Point",
                "coordinates": [
                    -88.183333333,
                    16.666666666
                ]
            },
            "properties": {
                "name": "Northeast Cay",
                "article": null
            }
        },
        {
            "type": "Feature",
            "geometry": {
                "type": "Point",
                "coordinates": [
                    -87.766666666,
                    16.75
                ]
            },
            "properties": {
                "name": "Northeast Cay",
                "article": null
            }
        },
        {
            "type": "Feature",
            "geometry": {
                "type": "Point",
                "coordinates": [
                    -88.522222222,
                    17.755277777
                ]
            },
            "properties": {
                "name": "Q21867218",
                "article": null
            }
        },
        {
            "type": "Feature",
            "geometry": {
                "type": "Point",
                "coordinates": [
                    -88.333333333,
                    17.333333333
                ]
            },
            "properties": {
                "name": "Q21867216",
                "article": null
            }
        },
        {
            "type": "Feature",
            "geometry": {
                "type": "Point",
                "coordinates": [
                    -87.833333333,
                    17.483333333
                ]
            },
            "properties": {
                "name": "Q21867217",
                "article": null
            }
        },
        {
            "type": "Feature",
            "geometry": {
                "type": "Point",
                "coordinates": [
                    -88.22122,
                    17.87569
                ]
            },
            "properties": {
                "name": "Northern River Lagoon",
                "article": null
            }
        },
        {
            "type": "Feature",
            "geometry": {
                "type": "Point",
                "coordinates": [
                    -88.18333,
                    16.23333
                ]
            },
            "properties": {
                "name": "North Spot",
                "article": null
            }
        },
        {
            "type": "Feature",
            "geometry": {
                "type": "Point",
                "coordinates": [
                    -88.15,
                    16.7
                ]
            },
            "properties": {
                "name": "Norval Cay",
                "article": null
            }
        },
        {
            "type": "Feature",
            "geometry": {
                "type": "Point",
                "coordinates": [
                    -88.53333,
                    16.33333
                ]
            },
            "properties": {
                "name": "Paddys Bluff",
                "article": null
            }
        },
        {
            "type": "Feature",
            "geometry": {
                "type": "Point",
                "coordinates": [
                    -88.42971,
                    16.42499
                ]
            },
            "properties": {
                "name": "Palmetto Cay",
                "article": null
            }
        },
        {
            "type": "Feature",
            "geometry": {
                "type": "Point",
                "coordinates": [
                    -88.03706,
                    17.4028
                ]
            },
            "properties": {
                "name": "Paunch Cay Spit",
                "article": null
            }
        },
        {
            "type": "Feature",
            "geometry": {
                "type": "Point",
                "coordinates": [
                    -87.766666666,
                    17.483333333
                ]
            },
            "properties": {
                "name": "Pelican Cay",
                "article": null
            }
        },
        {
            "type": "Feature",
            "geometry": {
                "type": "Point",
                "coordinates": [
                    -88.38151,
                    17.33984
                ]
            },
            "properties": {
                "name": "Pecarry Hills",
                "article": null
            }
        },
        {
            "type": "Feature",
            "geometry": {
                "type": "Point",
                "coordinates": [
                    -88.29635,
                    18.01295
                ]
            },
            "properties": {
                "name": "Peppercamp Lagoon",
                "article": null
            }
        },
        {
            "type": "Feature",
            "geometry": {
                "type": "Point",
                "coordinates": [
                    -88.16667,
                    16.7
                ]
            },
            "properties": {
                "name": "Peter Douglas Cay",
                "article": null
            }
        },
        {
            "type": "Feature",
            "geometry": {
                "type": "Point",
                "coordinates": [
                    -88.695555555,
                    16.587222222
                ]
            },
            "properties": {
                "name": "Q21867261",
                "article": null
            }
        },
        {
            "type": "Feature",
            "geometry": {
                "type": "Point",
                "coordinates": [
                    -88.36013,
                    16.5104
                ]
            },
            "properties": {
                "name": "Placentia Cay",
                "article": null
            }
        },
        {
            "type": "Feature",
            "geometry": {
                "type": "Point",
                "coordinates": [
                    -88.34489,
                    16.63268
                ]
            },
            "properties": {
                "name": "Placentia Lagoon",
                "article": null
            }
        },
        {
            "type": "Feature",
            "geometry": {
                "type": "Point",
                "coordinates": [
                    -88.1,
                    16.38333
                ]
            },
            "properties": {
                "name": "Pompion Cay",
                "article": null
            }
        },
        {
            "type": "Feature",
            "geometry": {
                "type": "Point",
                "coordinates": [
                    -88.558888888,
                    16.689166666
                ]
            },
            "properties": {
                "name": "Q21867286",
                "article": null
            }
        },
        {
            "type": "Feature",
            "geometry": {
                "type": "Point",
                "coordinates": [
                    -88.28658,
                    17.64882
                ]
            },
            "properties": {
                "name": "Potts Creek Lagoon",
                "article": null
            }
        },
        {
            "type": "Feature",
            "geometry": {
                "type": "Point",
                "coordinates": [
                    -88.40572,
                    18.22369
                ]
            },
            "properties": {
                "name": "Progresso Lagoon",
                "article": null
            }
        },
        {
            "type": "Feature",
            "geometry": {
                "type": "Point",
                "coordinates": [
                    -88.61159,
                    16.28265
                ]
            },
            "properties": {
                "name": "Punta Ycacos Lagoon",
                "article": null
            }
        },
        {
            "type": "Feature",
            "geometry": {
                "type": "Point",
                "coordinates": [
                    -89.0033,
                    17.6917
                ]
            },
            "properties": {
                "name": "Quam Hill",
                "article": null
            }
        },
        {
            "type": "Feature",
            "geometry": {
                "type": "Point",
                "coordinates": [
                    -88.21667,
                    16.63333
                ]
            },
            "properties": {
                "name": "Quamina Cay",
                "article": null
            }
        },
        {
            "type": "Feature",
            "geometry": {
                "type": "Point",
                "coordinates": [
                    -88.316,
                    17.20282
                ]
            },
            "properties": {
                "name": "Quashie Trap Lagoon",
                "article": null
            }
        },
        {
            "type": "Feature",
            "geometry": {
                "type": "Point",
                "coordinates": [
                    -88.283333333,
                    16.05
                ]
            },
            "properties": {
                "name": "Ragged Cay",
                "article": null
            }
        },
        {
            "type": "Feature",
            "geometry": {
                "type": "Point",
                "coordinates": [
                    -88.133055555,
                    16.839444444
                ]
            },
            "properties": {
                "name": "Ragged Cay",
                "article": null
            }
        },
        {
            "type": "Feature",
            "geometry": {
                "type": "Point",
                "coordinates": [
                    -88.87043,
                    16.4371
                ]
            },
            "properties": {
                "name": "Raspaculo Hill",
                "article": null
            }
        },
        {
            "type": "Feature",
            "geometry": {
                "type": "Point",
                "coordinates": [
                    -88.11667,
                    16.3
                ]
            },
            "properties": {
                "name": "Ranguana Cay",
                "article": null
            }
        },
        {
            "type": "Feature",
            "geometry": {
                "type": "Point",
                "coordinates": [
                    -88.183333333,
                    16.216666666
                ]
            },
            "properties": {
                "name": "Red Rock",
                "article": null
            }
        },
        {
            "type": "Feature",
            "geometry": {
                "type": "Point",
                "coordinates": [
                    -88.05,
                    17.233333333
                ]
            },
            "properties": {
                "name": "Rendezvous Cay",
                "article": null
            }
        },
        {
            "type": "Feature",
            "geometry": {
                "type": "Point",
                "coordinates": [
                    -88.1,
                    16.533333333
                ]
            },
            "properties": {
                "name": "Rendezvous Cay",
                "article": null
            }
        },
        {
            "type": "Feature",
            "geometry": {
                "type": "Point",
                "coordinates": [
                    -88.778055555,
                    16.595555555
                ]
            },
            "properties": {
                "name": "Q21867330",
                "article": null
            }
        },
        {
            "type": "Feature",
            "geometry": {
                "type": "Point",
                "coordinates": [
                    -88.34934,
                    17.54831
                ]
            },
            "properties": {
                "name": "Ridge Lagoon",
                "article": null
            }
        },
        {
            "type": "Feature",
            "geometry": {
                "type": "Point",
                "coordinates": [
                    -88.93361,
                    16.15938
                ]
            },
            "properties": {
                "name": "Rio Grande Hill",
                "article": null
            }
        },
        {
            "type": "Feature",
            "geometry": {
                "type": "Point",
                "coordinates": [
                    -88.94574,
                    17.80884
                ]
            },
            "properties": {
                "name": "Rio Bravo Escarpment",
                "article": null
            }
        },
        {
            "type": "Feature",
            "geometry": {
                "type": "Point",
                "coordinates": [
                    -88.45456,
                    16.84331
                ]
            },
            "properties": {
                "name": "Rock Cay",
                "article": null
            }
        },
        {
            "type": "Feature",
            "geometry": {
                "type": "Point",
                "coordinates": [
                    -88.006388888,
                    17.901388888
                ]
            },
            "properties": {
                "name": "Cayo Romero",
                "article": null
            }
        },
        {
            "type": "Feature",
            "geometry": {
                "type": "Point",
                "coordinates": [
                    -87.989166666,
                    17.990555555
                ]
            },
            "properties": {
                "name": "Cayo Rosario",
                "article": null
            }
        },
        {
            "type": "Feature",
            "geometry": {
                "type": "Point",
                "coordinates": [
                    -88.27515,
                    17.67051
                ]
            },
            "properties": {
                "name": "Rocky Point Lagoon",
                "article": null
            }
        },
        {
            "type": "Feature",
            "geometry": {
                "type": "Point",
                "coordinates": [
                    -88.116666666,
                    16.583333333
                ]
            },
            "properties": {
                "name": "Q21867362",
                "article": null
            }
        },
        {
            "type": "Feature",
            "geometry": {
                "type": "Point",
                "coordinates": [
                    -88.066666666,
                    16.4
                ]
            },
            "properties": {
                "name": "Round Cay",
                "article": null
            }
        },
        {
            "type": "Feature",
            "geometry": {
                "type": "Point",
                "coordinates": [
                    -88.25,
                    16.5
                ]
            },
            "properties": {
                "name": "Round Cay",
                "article": null
            }
        },
        {
            "type": "Feature",
            "geometry": {
                "type": "Point",
                "coordinates": [
                    -88.166666666,
                    16.666666666
                ]
            },
            "properties": {
                "name": "Saddle Cay",
                "article": null
            }
        },
        {
            "type": "Feature",
            "geometry": {
                "type": "Point",
                "coordinates": [
                    -88.383333333,
                    17.35
                ]
            },
            "properties": {
                "name": "Q21867370",
                "article": null
            }
        },
        {
            "type": "Feature",
            "geometry": {
                "type": "Point",
                "coordinates": [
                    -87.516666666,
                    17.233333333
                ]
            },
            "properties": {
                "name": "Saddle Cay",
                "article": null
            }
        },
        {
            "type": "Feature",
            "geometry": {
                "type": "Point",
                "coordinates": [
                    -88.826388888,
                    16.120555555
                ]
            },
            "properties": {
                "name": "Q21867369",
                "article": null
            }
        },
        {
            "type": "Feature",
            "geometry": {
                "type": "Point",
                "coordinates": [
                    -88.38549,
                    18.32878
                ]
            },
            "properties": {
                "name": "Saltillo Lagoon",
                "article": null
            }
        },
        {
            "type": "Feature",
            "geometry": {
                "type": "Point",
                "coordinates": [
                    -88.05,
                    16.45
                ]
            },
            "properties": {
                "name": "Samphire Cay",
                "article": null
            }
        },
        {
            "type": "Feature",
            "geometry": {
                "type": "Point",
                "coordinates": [
                    -87.96796,
                    17.91745
                ]
            },
            "properties": {
                "name": "Q21867395",
                "article": null
            }
        },
        {
            "type": "Feature",
            "geometry": {
                "type": "Point",
                "coordinates": [
                    -87.91709,
                    18.08293
                ]
            },
            "properties": {
                "name": "Santa Cruz Lagoon",
                "article": null
            }
        },
        {
            "type": "Feature",
            "geometry": {
                "type": "Point",
                "coordinates": [
                    -89.05,
                    17.683333333
                ]
            },
            "properties": {
                "name": "Q21867403",
                "article": null
            }
        },
        {
            "type": "Feature",
            "geometry": {
                "type": "Point",
                "coordinates": [
                    -88.316666666,
                    16.766666666
                ]
            },
            "properties": {
                "name": "Q21867407",
                "article": null
            }
        },
        {
            "type": "Feature",
            "geometry": {
                "type": "Point",
                "coordinates": [
                    -88.54977,
                    18.31946
                ]
            },
            "properties": {
                "name": "Sapote Lagoon",
                "article": null
            }
        },
        {
            "type": "Feature",
            "geometry": {
                "type": "Point",
                "coordinates": [
                    -88.2977,
                    16.46991
                ]
            },
            "properties": {
                "name": "Scipio Cay",
                "article": null
            }
        },
        {
            "type": "Feature",
            "geometry": {
                "type": "Point",
                "coordinates": [
                    -88.12106,
                    17.94661
                ]
            },
            "properties": {
                "name": "Savannah Cay",
                "article": null
            }
        },
        {
            "type": "Feature",
            "geometry": {
                "type": "Point",
                "coordinates": [
                    -88.357222222,
                    18.307777777
                ]
            },
            "properties": {
                "name": "Q21867422",
                "article": null
            }
        },
        {
            "type": "Feature",
            "geometry": {
                "type": "Point",
                "coordinates": [
                    -88.5949,
                    16.6482
                ]
            },
            "properties": {
                "name": "Serro Blanco",
                "article": null
            }
        },
        {
            "type": "Feature",
            "geometry": {
                "type": "Point",
                "coordinates": [
                    -89.065833333,
                    17.113611111
                ]
            },
            "properties": {
                "name": "Q21867512",
                "article": null
            }
        },
        {
            "type": "Feature",
            "geometry": {
                "type": "Point",
                "coordinates": [
                    -88.15,
                    16.56667
                ]
            },
            "properties": {
                "name": "Tarpum Cay",
                "article": null
            }
        },
        {
            "type": "Feature",
            "geometry": {
                "type": "Point",
                "coordinates": [
                    -87.76667,
                    17.53333
                ]
            },
            "properties": {
                "name": "Three Corner Cay",
                "article": null
            }
        },
        {
            "type": "Feature",
            "geometry": {
                "type": "Point",
                "coordinates": [
                    -88.35463,
                    17.31737
                ]
            },
            "properties": {
                "name": "Q21867523",
                "article": null
            }
        },
        {
            "type": "Feature",
            "geometry": {
                "type": "Point",
                "coordinates": [
                    -88.00451,
                    18.06301
                ]
            },
            "properties": {
                "name": "Cayo Tostado",
                "article": null
            }
        },
        {
            "type": "Feature",
            "geometry": {
                "type": "Point",
                "coordinates": [
                    -88.216666666,
                    16.2
                ]
            },
            "properties": {
                "name": "Tom Owen's Cay",
                "article": null
            }
        },
        {
            "type": "Feature",
            "geometry": {
                "type": "Point",
                "coordinates": [
                    -88.32424,
                    17.17059
                ]
            },
            "properties": {
                "name": "Tooths Lagoon",
                "article": null
            }
        },
        {
            "type": "Feature",
            "geometry": {
                "type": "Point",
                "coordinates": [
                    -88.21667,
                    16.51667
                ]
            },
            "properties": {
                "name": "Viper Rocks",
                "article": null
            }
        },
        {
            "type": "Feature",
            "geometry": {
                "type": "Point",
                "coordinates": [
                    -88.35,
                    17.279722222
                ]
            },
            "properties": {
                "name": "Q21867551",
                "article": null
            }
        },
        {
            "type": "Feature",
            "geometry": {
                "type": "Point",
                "coordinates": [
                    -88.34695,
                    17.30295
                ]
            },
            "properties": {
                "name": "Wagner Lagoon",
                "article": null
            }
        },
        {
            "type": "Feature",
            "geometry": {
                "type": "Point",
                "coordinates": [
                    -88.081666666,
                    16.808888888
                ]
            },
            "properties": {
                "name": "Water Cay",
                "article": null
            }
        },
        {
            "type": "Feature",
            "geometry": {
                "type": "Point",
                "coordinates": [
                    -88.14088,
                    16.75435
                ]
            },
            "properties": {
                "name": "Wee Wee Cay",
                "article": null
            }
        },
        {
            "type": "Feature",
            "geometry": {
                "type": "Point",
                "coordinates": [
                    -88.571388888,
                    17.719444444
                ]
            },
            "properties": {
                "name": "Q21867575",
                "article": null
            }
        },
        {
            "type": "Feature",
            "geometry": {
                "type": "Point",
                "coordinates": [
                    -88.502777777,
                    17.261111111
                ]
            },
            "properties": {
                "name": "Q21867579",
                "article": null
            }
        },
        {
            "type": "Feature",
            "geometry": {
                "type": "Point",
                "coordinates": [
                    -88.56667,
                    16.18333
                ]
            },
            "properties": {
                "name": "West Snake Cay",
                "article": null
            }
        },
        {
            "type": "Feature",
            "geometry": {
                "type": "Point",
                "coordinates": [
                    -88.633333333,
                    16.183333333
                ]
            },
            "properties": {
                "name": "Wild Cane Cay",
                "article": null
            }
        },
        {
            "type": "Feature",
            "geometry": {
                "type": "Point",
                "coordinates": [
                    -88.116666666,
                    16.4
                ]
            },
            "properties": {
                "name": "White Rock",
                "article": null
            }
        },
        {
            "type": "Feature",
            "geometry": {
                "type": "Point",
                "coordinates": [
                    -88.21667,
                    16.53333
                ]
            },
            "properties": {
                "name": "Wippari Cay",
                "article": null
            }
        },
        {
            "type": "Feature",
            "geometry": {
                "type": "Point",
                "coordinates": [
                    -88.161111111,
                    17.337222222
                ]
            },
            "properties": {
                "name": "Spanish Cay",
                "article": null
            }
        },
        {
            "type": "Feature",
            "geometry": {
                "type": "Point",
                "coordinates": [
                    -88.56667,
                    16.16667
                ]
            },
            "properties": {
                "name": "South Snake Cay",
                "article": null
            }
        },
        {
            "type": "Feature",
            "geometry": {
                "type": "Point",
                "coordinates": [
                    -88.08333,
                    16.53333
                ]
            },
            "properties": {
                "name": "Spider Cay",
                "article": null
            }
        },
        {
            "type": "Feature",
            "geometry": {
                "type": "Point",
                "coordinates": [
                    -88.0675,
                    17.551111111
                ]
            },
            "properties": {
                "name": "The Spit",
                "article": null
            }
        },
        {
            "type": "Feature",
            "geometry": {
                "type": "Point",
                "coordinates": [
                    -88.83778,
                    16.11338
                ]
            },
            "properties": {
                "name": "Sphinx Ridge",
                "article": null
            }
        },
        {
            "type": "Feature",
            "geometry": {
                "type": "Point",
                "coordinates": [
                    -88.16667,
                    16.71667
                ]
            },
            "properties": {
                "name": "Spruce Cay",
                "article": null
            }
        },
        {
            "type": "Feature",
            "geometry": {
                "type": "Point",
                "coordinates": [
                    -88.33322,
                    17.46469
                ]
            },
            "properties": {
                "name": "Straight Lagoon",
                "article": null
            }
        },
        {
            "type": "Feature",
            "geometry": {
                "type": "Point",
                "coordinates": [
                    -88.15762,
                    16.77777
                ]
            },
            "properties": {
                "name": "Stewart Cay",
                "article": null
            }
        },
        {
            "type": "Feature",
            "geometry": {
                "type": "Point",
                "coordinates": [
                    -88.3483,
                    17.1508
                ]
            },
            "properties": {
                "name": "Sugar Valley Hill",
                "article": null
            }
        },
        {
            "type": "Feature",
            "geometry": {
                "type": "Point",
                "coordinates": [
                    -88.72093,
                    16.14467
                ]
            },
            "properties": {
                "name": "Stuart Cay",
                "article": null
            }
        },
        {
            "type": "Feature",
            "geometry": {
                "type": "Point",
                "coordinates": [
                    -88.60054,
                    16.66477
                ]
            },
            "properties": {
                "name": "Swasey Stopper",
                "article": null
            }
        },
        {
            "type": "Feature",
            "geometry": {
                "type": "Point",
                "coordinates": [
                    -89.065833333,
                    17.113611111
                ]
            },
            "properties": {
                "name": "Q21867512",
                "article": null
            }
        },
        {
            "type": "Feature",
            "geometry": {
                "type": "Point",
                "coordinates": [
                    -88.15,
                    16.56667
                ]
            },
            "properties": {
                "name": "Tarpum Cay",
                "article": null
            }
        },
        {
            "type": "Feature",
            "geometry": {
                "type": "Point",
                "coordinates": [
                    -87.76667,
                    17.53333
                ]
            },
            "properties": {
                "name": "Three Corner Cay",
                "article": null
            }
        },
        {
            "type": "Feature",
            "geometry": {
                "type": "Point",
                "coordinates": [
                    -88.35463,
                    17.31737
                ]
            },
            "properties": {
                "name": "Q21867523",
                "article": null
            }
        },
        {
            "type": "Feature",
            "geometry": {
                "type": "Point",
                "coordinates": [
                    -88.00451,
                    18.06301
                ]
            },
            "properties": {
                "name": "Cayo Tostado",
                "article": null
            }
        },
        {
            "type": "Feature",
            "geometry": {
                "type": "Point",
                "coordinates": [
                    -88.216666666,
                    16.2
                ]
            },
            "properties": {
                "name": "Tom Owen's Cay",
                "article": null
            }
        },
        {
            "type": "Feature",
            "geometry": {
                "type": "Point",
                "coordinates": [
                    -88.32424,
                    17.17059
                ]
            },
            "properties": {
                "name": "Tooths Lagoon",
                "article": null
            }
        },
        {
            "type": "Feature",
            "geometry": {
                "type": "Point",
                "coordinates": [
                    -88.08791,
                    17.18963
                ]
            },
            "properties": {
                "name": "Alligator Cay",
                "article": null
            }
        },
        {
            "type": "Feature",
            "geometry": {
                "type": "Point",
                "coordinates": [
                    -89.07278,
                    17.32194
                ]
            },
            "properties": {
                "name": "Aguacate Lagoon",
                "article": "https://en.wikipedia.org/wiki/Aguacate_Lagoon"
            }
        },
        {
            "type": "Feature",
            "geometry": {
                "type": "Point",
                "coordinates": [
                    -88.683333333,
                    18.133333333
                ]
            },
            "properties": {
                "name": "Albion Island",
                "article": null
            }
        },
        {
            "type": "Feature",
            "geometry": {
                "type": "Point",
                "coordinates": [
                    -88.31667,
                    17.41667
                ]
            },
            "properties": {
                "name": "Almond Hill Lagoon",
                "article": null
            }
        },
        {
            "type": "Feature",
            "geometry": {
                "type": "Point",
                "coordinates": [
                    -88.4094,
                    16.9377
                ]
            },
            "properties": {
                "name": "Q21870338",
                "article": null
            }
        },
        {
            "type": "Feature",
            "geometry": {
                "type": "Point",
                "coordinates": [
                    -88.274722222,
                    16.812222222
                ]
            },
            "properties": {
                "name": "Q21870336",
                "article": null
            }
        },
        {
            "type": "Feature",
            "geometry": {
                "type": "Point",
                "coordinates": [
                    -88.5827,
                    17.011
                ]
            },
            "properties": {
                "name": "Arthur's Seat",
                "article": null
            }
        },
        {
            "type": "Feature",
            "geometry": {
                "type": "Point",
                "coordinates": [
                    -88.3935,
                    16.95095
                ]
            },
            "properties": {
                "name": "Baboon Hill",
                "article": null
            }
        },
        {
            "type": "Feature",
            "geometry": {
                "type": "Point",
                "coordinates": [
                    -88.833333333,
                    16.988888888
                ]
            },
            "properties": {
                "name": "Q21870355",
                "article": null
            }
        },
        {
            "type": "Feature",
            "geometry": {
                "type": "Point",
                "coordinates": [
                    -88.2,
                    16.55
                ]
            },
            "properties": {
                "name": "Bakers Rendezvous",
                "article": null
            }
        },
        {
            "type": "Feature",
            "geometry": {
                "type": "Point",
                "coordinates": [
                    -88.31281,
                    17.36236
                ]
            },
            "properties": {
                "name": "Cohune Cay",
                "article": null
            }
        },
        {
            "type": "Feature",
            "geometry": {
                "type": "Point",
                "coordinates": [
                    -87.86667,
                    17.18333
                ]
            },
            "properties": {
                "name": "Coco Tree Cay",
                "article": null
            }
        },
        {
            "type": "Feature",
            "geometry": {
                "type": "Point",
                "coordinates": [
                    -88.15,
                    17.56667
                ]
            },
            "properties": {
                "name": "Coffee Cay",
                "article": null
            }
        },
        {
            "type": "Feature",
            "geometry": {
                "type": "Point",
                "coordinates": [
                    -88.31476,
                    16.46492
                ]
            },
            "properties": {
                "name": "Colson Cay",
                "article": null
            }
        },
        {
            "type": "Feature",
            "geometry": {
                "type": "Point",
                "coordinates": [
                    -88.21667,
                    16.51667
                ]
            },
            "properties": {
                "name": "Viper Rocks",
                "article": null
            }
        },
        {
            "type": "Feature",
            "geometry": {
                "type": "Point",
                "coordinates": [
                    -88.35,
                    17.279722222
                ]
            },
            "properties": {
                "name": "Q21867551",
                "article": null
            }
        },
        {
            "type": "Feature",
            "geometry": {
                "type": "Point",
                "coordinates": [
                    -88.34695,
                    17.30295
                ]
            },
            "properties": {
                "name": "Wagner Lagoon",
                "article": null
            }
        },
        {
            "type": "Feature",
            "geometry": {
                "type": "Point",
                "coordinates": [
                    -88.081666666,
                    16.808888888
                ]
            },
            "properties": {
                "name": "Water Cay",
                "article": null
            }
        },
        {
            "type": "Feature",
            "geometry": {
                "type": "Point",
                "coordinates": [
                    -88.14088,
                    16.75435
                ]
            },
            "properties": {
                "name": "Wee Wee Cay",
                "article": null
            }
        },
        {
            "type": "Feature",
            "geometry": {
                "type": "Point",
                "coordinates": [
                    -88.571388888,
                    17.719444444
                ]
            },
            "properties": {
                "name": "Q21867575",
                "article": null
            }
        },
        {
            "type": "Feature",
            "geometry": {
                "type": "Point",
                "coordinates": [
                    -88.502777777,
                    17.261111111
                ]
            },
            "properties": {
                "name": "Q21867579",
                "article": null
            }
        },
        {
            "type": "Feature",
            "geometry": {
                "type": "Point",
                "coordinates": [
                    -88.56667,
                    16.18333
                ]
            },
            "properties": {
                "name": "West Snake Cay",
                "article": null
            }
        },
        {
            "type": "Feature",
            "geometry": {
                "type": "Point",
                "coordinates": [
                    -88.633333333,
                    16.183333333
                ]
            },
            "properties": {
                "name": "Wild Cane Cay",
                "article": null
            }
        },
        {
            "type": "Feature",
            "geometry": {
                "type": "Point",
                "coordinates": [
                    -88.116666666,
                    16.4
                ]
            },
            "properties": {
                "name": "White Rock",
                "article": null
            }
        },
        {
            "type": "Feature",
            "geometry": {
                "type": "Point",
                "coordinates": [
                    -88.21667,
                    16.53333
                ]
            },
            "properties": {
                "name": "Wippari Cay",
                "article": null
            }
        },
        {
            "type": "Feature",
            "geometry": {
                "type": "Point",
                "coordinates": [
                    -88.18416,
                    17.94266
                ]
            },
            "properties": {
                "name": "Will Edwards Lagoon",
                "article": null
            }
        },
        {
            "type": "Feature",
            "geometry": {
                "type": "Point",
                "coordinates": [
                    -88.58895,
                    16.22196
                ]
            },
            "properties": {
                "name": "Wilson Cay",
                "article": null
            }
        },
        {
            "type": "Feature",
            "geometry": {
                "type": "Point",
                "coordinates": [
                    -88.19201,
                    17.4845
                ]
            },
            "properties": {
                "name": "Yarborough Lagoon",
                "article": null
            }
        },
        {
            "type": "Feature",
            "geometry": {
                "type": "Point",
                "coordinates": [
                    -88.866666666,
                    17.883333333
                ]
            },
            "properties": {
                "name": "Q21867603",
                "article": null
            }
        },
        {
            "type": "Feature",
            "geometry": {
                "type": "Point",
                "coordinates": [
                    -88.21685,
                    18.21632
                ]
            },
            "properties": {
                "name": "Youngs Cay",
                "article": null
            }
        },
        {
            "type": "Feature",
            "geometry": {
                "type": "Point",
                "coordinates": [
                    -88.18588,
                    17.35588
                ]
            },
            "properties": {
                "name": "Silk Cayes",
                "article": null
            }
        },
        {
            "type": "Feature",
            "geometry": {
                "type": "Point",
                "coordinates": [
                    -88.03167,
                    17.34167
                ]
            },
            "properties": {
                "name": "The Sandbore",
                "article": null
            }
        },
        {
            "type": "Feature",
            "geometry": {
                "type": "Point",
                "coordinates": [
                    -88.27874,
                    18.31926
                ]
            },
            "properties": {
                "name": "Barracouta Pond",
                "article": null
            }
        },
        {
            "type": "Feature",
            "geometry": {
                "type": "Point",
                "coordinates": [
                    -88.166666666,
                    17.966666666
                ]
            },
            "properties": {
                "name": "Q21870374",
                "article": null
            }
        },
        {
            "type": "Feature",
            "geometry": {
                "type": "Point",
                "coordinates": [
                    -88.35,
                    17.283333333
                ]
            },
            "properties": {
                "name": "Q21870373",
                "article": null
            }
        },
        {
            "type": "Feature",
            "geometry": {
                "type": "Point",
                "coordinates": [
                    -88.484166666,
                    17.270833333
                ]
            },
            "properties": {
                "name": "Big Hill",
                "article": null
            }
        },
        {
            "type": "Feature",
            "geometry": {
                "type": "Point",
                "coordinates": [
                    -88.818611111,
                    16.153333333
                ]
            },
            "properties": {
                "name": "Q21870389",
                "article": null
            }
        },
        {
            "type": "Feature",
            "geometry": {
                "type": "Point",
                "coordinates": [
                    -88.577222222,
                    17.940555555
                ]
            },
            "properties": {
                "name": "Q21870393",
                "article": null
            }
        },
        {
            "type": "Feature",
            "geometry": {
                "type": "Point",
                "coordinates": [
                    -88.3125,
                    17.351388888
                ]
            },
            "properties": {
                "name": "Bird Cay",
                "article": null
            }
        },
        {
            "type": "Feature",
            "geometry": {
                "type": "Point",
                "coordinates": [
                    -88.18794,
                    17.48648
                ]
            },
            "properties": {
                "name": "Birds Island",
                "article": null
            }
        },
        {
            "type": "Feature",
            "geometry": {
                "type": "Point",
                "coordinates": [
                    -87.81667,
                    17.33333
                ]
            },
            "properties": {
                "name": "Blackbird Cay",
                "article": null
            }
        },
        {
            "type": "Feature",
            "geometry": {
                "type": "Point",
                "coordinates": [
                    -88.35383,
                    17.20009
                ]
            },
            "properties": {
                "name": "Black Creek Lagoon",
                "article": null
            }
        },
        {
            "type": "Feature",
            "geometry": {
                "type": "Point",
                "coordinates": [
                    -88.183333333,
                    16.2
                ]
            },
            "properties": {
                "name": "Black Rock",
                "article": null
            }
        },
        {
            "type": "Feature",
            "geometry": {
                "type": "Point",
                "coordinates": [
                    -88.404166666,
                    16.954444444
                ]
            },
            "properties": {
                "name": "Q21870422",
                "article": null
            }
        },
        {
            "type": "Feature",
            "geometry": {
                "type": "Point",
                "coordinates": [
                    -88.00099,
                    17.88776
                ]
            },
            "properties": {
                "name": "Laguna de Boca Ciega",
                "article": null
            }
        },
        {
            "type": "Feature",
            "geometry": {
                "type": "Point",
                "coordinates": [
                    -88.3941,
                    16.9192
                ]
            },
            "properties": {
                "name": "Bocawina Hill",
                "article": null
            }
        },
        {
            "type": "Feature",
            "geometry": {
                "type": "Point",
                "coordinates": [
                    -88.933333333,
                    17.666666666
                ]
            },
            "properties": {
                "name": "Q21870437",
                "article": null
            }
        },
        {
            "type": "Feature",
            "geometry": {
                "type": "Point",
                "coordinates": [
                    -88.16227,
                    16.75861
                ]
            },
            "properties": {
                "name": "Bread and Butter Cay",
                "article": null
            }
        },
        {
            "type": "Feature",
            "geometry": {
                "type": "Point",
                "coordinates": [
                    -88.14763,
                    18.02044
                ]
            },
            "properties": {
                "name": "Bulkhead Lagoon",
                "article": null
            }
        },
        {
            "type": "Feature",
            "geometry": {
                "type": "Point",
                "coordinates": [
                    -88.664166666,
                    17.753888888
                ]
            },
            "properties": {
                "name": "Q21870451",
                "article": null
            }
        },
        {
            "type": "Feature",
            "geometry": {
                "type": "Point",
                "coordinates": [
                    -88.05,
                    16.53333
                ]
            },
            "properties": {
                "name": "Buttonwood Cay",
                "article": null
            }
        },
        {
            "type": "Feature",
            "geometry": {
                "type": "Point",
                "coordinates": [
                    -88.31502,
                    17.18928
                ]
            },
            "properties": {
                "name": "Buttonwood Lagoon",
                "article": null
            }
        },
        {
            "type": "Feature",
            "geometry": {
                "type": "Point",
                "coordinates": [
                    -88.44758,
                    18.08911
                ]
            },
            "properties": {
                "name": "Button Lagoon",
                "article": null
            }
        },
        {
            "type": "Feature",
            "geometry": {
                "type": "Point",
                "coordinates": [
                    -87.816666666,
                    17.266666666
                ]
            },
            "properties": {
                "name": "Calabash Cay",
                "article": null
            }
        },
        {
            "type": "Feature",
            "geometry": {
                "type": "Point",
                "coordinates": [
                    -87.84666,
                    18.14444
                ]
            },
            "properties": {
                "name": "Laguna de Cantena",
                "article": null
            }
        },
        {
            "type": "Feature",
            "geometry": {
                "type": "Point",
                "coordinates": [
                    -88.3183,
                    16.9853
                ]
            },
            "properties": {
                "name": "Q21870468",
                "article": null
            }
        },
        {
            "type": "Feature",
            "geometry": {
                "type": "Point",
                "coordinates": [
                    -88.05683,
                    17.84844
                ]
            },
            "properties": {
                "name": "Cangrejo Cay",
                "article": null
            }
        },
        {
            "type": "Feature",
            "geometry": {
                "type": "Point",
                "coordinates": [
                    -88.06667,
                    16.78333
                ]
            },
            "properties": {
                "name": "Carrie Bow Cay",
                "article": null
            }
        },