{
    "type": "FeatureCollection",
    "features": [
        {
            "type": "Feature",
            "geometry": {
                "type": "Point",
                "coordinates": [
                    17.8075,
                    43.343611111
                ]
            },
            "properties": {
                "name": "Mostar",
                "article": "https://en.wikipedia.org/wiki/Mostar"
            }
        },
        {
            "type": "Feature",
            "geometry": {
                "type": "Point",
                "coordinates": [
                    17.1925,
                    44.7725
                ]
            },
            "properties": {
                "name": "Banja Luka",
                "article": "https://en.wikipedia.org/wiki/Banja_Luka"
            }
        },
        {
            "type": "Feature",
            "geometry": {
                "type": "Point",
                "coordinates": [
                    17.25,
                    44.03333333
                ]
            },
            "properties": {
                "name": "Plazenica",
                "article": "https://en.wikipedia.org/wiki/Plazenica"
            }
        },
        {
            "type": "Feature",
            "geometry": {
                "type": "Point",
                "coordinates": [
                    18.133333333,
                    44.733333333
                ]
            },
            "properties": {
                "name": "Doboj",
                "article": "https://en.wikipedia.org/wiki/Doboj"
            }
        },
        {
            "type": "Feature",
            "geometry": {
                "type": "Point",
                "coordinates": [
                    18.66709,
                    44.53842
                ]
            },
            "properties": {
                "name": "Tuzla",
                "article": "https://en.wikipedia.org/wiki/Tuzla"
            }
        },
        {
            "type": "Feature",
            "geometry": {
                "type": "Point",
                "coordinates": [
                    18.676111111,
                    44.538055555
                ]
            },
            "properties": {
                "name": "Tuzla",
                "article": "https://en.wikipedia.org/wiki/Tuzla"
            }
        },
        {
            "type": "Feature",
            "geometry": {
                "type": "Point",
                "coordinates": [
                    18.783333333,
                    43.5
                ]
            },
            "properties": {
                "name": "Foča",
                "article": "https://en.wikipedia.org/wiki/Fo%C4%8Da"
            }
        },
        {
            "type": "Feature",
            "geometry": {
                "type": "Point",
                "coordinates": [
                    17.903888888,
                    44.201666666
                ]
            },
            "properties": {
                "name": "Zenica",
                "article": "https://en.wikipedia.org/wiki/Zenica"
            }
        },
        {
            "type": "Feature",
            "geometry": {
                "type": "Point",
                "coordinates": [
                    18.180555555,
                    43.989444444
                ]
            },
            "properties": {
                "name": "Visoko",
                "article": "https://en.wikipedia.org/wiki/Visoko"
            }
        },
        {
            "type": "Feature",
            "geometry": {
                "type": "Point",
                "coordinates": [
                    17.983333333,
                    45.133333333
                ]
            },
            "properties": {
                "name": "Brod",
                "article": "https://en.wikipedia.org/wiki/Brod,_Bosnia_and_Herzegovina"
            }
        },
        {
            "type": "Feature",
            "geometry": {
                "type": "Point",
                "coordinates": [
                    15.866666666,
                    44.816666666
                ]
            },
            "properties": {
                "name": "Bihać",
                "article": "https://en.wikipedia.org/wiki/Biha%C4%87"
            }
        },
        {
            "type": "Feature",
            "geometry": {
                "type": "Point",
                "coordinates": [
                    19.215555555,
                    44.756666666
                ]
            },
            "properties": {
                "name": "Bijeljina",
                "article": "https://en.wikipedia.org/wiki/Bijeljina"
            }
        },
        {
            "type": "Feature",
            "geometry": {
                "type": "Point",
                "coordinates": [
                    19.2925,
                    43.7825
                ]
            },
            "properties": {
                "name": "Višegrad",
                "article": "https://en.wikipedia.org/wiki/Vi%C5%A1egrad"
            }
        },
        {
            "type": "Feature",
            "geometry": {
                "type": "Point",
                "coordinates": [
                    17.448156,
                    45.115693
                ]
            },
            "properties": {
                "name": "Bardača Lake",
                "article": null
            }
        },
        {
            "type": "Feature",
            "geometry": {
                "type": "Point",
                "coordinates": [
                    18.809166666,
                    44.878333333
                ]
            },
            "properties": {
                "name": "Brčko",
                "article": "https://en.wikipedia.org/wiki/Br%C4%8Dko"
            }
        },
        {
            "type": "Feature",
            "geometry": {
                "type": "Point",
                "coordinates": [
                    16.7,
                    44.966666666
                ]
            },
            "properties": {
                "name": "Prijedor",
                "article": "https://en.wikipedia.org/wiki/Prijedor"
            }
        },
        {
            "type": "Feature",
            "geometry": {
                "type": "Point",
                "coordinates": [
                    18.73463,
                    43.88929
                ]
            },
            "properties": {
                "name": "Međe",
                "article": "https://en.wikipedia.org/wiki/Me%C4%91e_(Srebrenica)"
            }
        },
        {
            "type": "Feature",
            "geometry": {
                "type": "Point",
                "coordinates": [
                    19.3672,
                    44.01
                ]
            },
            "properties": {
                "name": "Međe",
                "article": "https://en.wikipedia.org/wiki/Me%C4%91e_(Srebrenica)"
            }
        },
        {
            "type": "Feature",
            "geometry": {
                "type": "Point",
                "coordinates": [
                    17.7,
                    43.11
                ]
            },
            "properties": {
                "name": "Čapljina",
                "article": "https://en.wikipedia.org/wiki/%C4%8Capljina"
            }
        },
        {
            "type": "Feature",
            "geometry": {
                "type": "Point",
                "coordinates": [
                    17.70083,
                    43.22861
                ]
            },
            "properties": {
                "name": "Čitluk",
                "article": "https://en.wikipedia.org/wiki/%C4%8Citluk,_Herzegovina-Neretva_Canton"
            }
        },
        {
            "type": "Feature",
            "geometry": {
                "type": "Point",
                "coordinates": [
                    17.7,
                    43.23
                ]
            },
            "properties": {
                "name": "Čitluk",
                "article": "https://en.wikipedia.org/wiki/%C4%8Citluk,_Herzegovina-Neretva_Canton"
            }
        },
        {
            "type": "Feature",
            "geometry": {
                "type": "Point",
                "coordinates": [
                    17.79694,
                    42.92222
                ]
            },
            "properties": {
                "name": "Glušac",
                "article": null
            }
        },
        {
            "type": "Feature",
            "geometry": {
                "type": "Point",
                "coordinates": [
                    19.11,
                    44.1922
                ]
            },
            "properties": {
                "name": "Glušac",
                "article": null
            }
        },
        {
            "type": "Feature",
            "geometry": {
                "type": "Point",
                "coordinates": [
                    18.466666666,
                    45.066666666
                ]
            },
            "properties": {
                "name": "Šamac",
                "article": "https://en.wikipedia.org/wiki/%C5%A0amac,_Bosnia_and_Herzegovina"
            }
        },
        {
            "type": "Feature",
            "geometry": {
                "type": "Point",
                "coordinates": [
                    17.62236111,
                    43.92277778
                ]
            },
            "properties": {
                "name": "Q393437",
                "article": null
            }
        },
        {
            "type": "Feature",
            "geometry": {
                "type": "Point",
                "coordinates": [
                    18.65,
                    44.45
                ]
            },
            "properties": {
                "name": "Živinice",
                "article": "https://en.wikipedia.org/wiki/%C5%BDivinice,_%C5%BDivinice"
            }
        },
        {
            "type": "Feature",
            "geometry": {
                "type": "Point",
                "coordinates": [
                    17.6362,
                    44.2925
                ]
            },
            "properties": {
                "name": "Vlašić",
                "article": "https://en.wikipedia.org/wiki/Vla%C5%A1i%C4%87_(Bosnia_and_Herzegovina)"
            }
        },
        {
            "type": "Feature",
            "geometry": {
                "type": "Point",
                "coordinates": [
                    18.5439,
                    42.59788889
                ]
            },
            "properties": {
                "name": "Velika Jastrebica",
                "article": "https://en.wikipedia.org/wiki/Velika_Jastrebica"
            }
        },
        {
            "type": "Feature",
            "geometry": {
                "type": "Point",
                "coordinates": [
                    18.17,
                    44.0086
                ]
            },
            "properties": {
                "name": "Mile, archaeological site",
                "article": "https://en.wikipedia.org/wiki/Mile,_Visoko"
            }
        },
        {
            "type": "Feature",
            "geometry": {
                "type": "Point",
                "coordinates": [
                    17.213523,
                    44.521993
                ]
            },
            "properties": {
                "name": "Čemernica",
                "article": "https://en.wikipedia.org/wiki/%C4%8Cemernica_(Bosnia_and_Herzegovina)"
            }
        },
        {
            "type": "Feature",
            "geometry": {
                "type": "Point",
                "coordinates": [
                    18.977777777,
                    43.666666666
                ]
            },
            "properties": {
                "name": "Goražde",
                "article": "https://en.wikipedia.org/wiki/Gora%C5%BEde"
            }
        },
        {
            "type": "Feature",
            "geometry": {
                "type": "Point",
                "coordinates": [
                    16.5087,
                    44.4302
                ]
            },
            "properties": {
                "name": "Klekovača",
                "article": "https://en.wikipedia.org/wiki/Klekova%C4%8Da"
            }
        },
        {
            "type": "Feature",
            "geometry": {
                "type": "Point",
                "coordinates": [
                    18.87305556,
                    44.4425
                ]
            },
            "properties": {
                "name": "Operation Bøllebank",
                "article": "https://en.wikipedia.org/wiki/Operation_B%C3%B8llebank"
            }
        },
        {
            "type": "Feature",
            "geometry": {
                "type": "Point",
                "coordinates": [
                    17.279444444,
                    43.990555555
                ]
            },
            "properties": {
                "name": "Kupres",
                "article": "https://en.wikipedia.org/wiki/Kupres"
            }
        },
        {
            "type": "Feature",
            "geometry": {
                "type": "Point",
                "coordinates": [
                    18.448888888,
                    43.823333333
                ]
            },
            "properties": {
                "name": "Trebević",
                "article": "https://en.wikipedia.org/wiki/Trebevi%C4%87"
            }
        },
        {
            "type": "Feature",
            "geometry": {
                "type": "Point",
                "coordinates": [
                    17.878333333,
                    44.097777777
                ]
            },
            "properties": {
                "name": "Busovača",
                "article": "https://en.wikipedia.org/wiki/Busova%C4%8Da"
            }
        },
        {
            "type": "Feature",
            "geometry": {
                "type": "Point",
                "coordinates": [
                    18.4304901,
                    43.8564732
                ]
            },
            "properties": {
                "name": "Konak (Sarajevo)",
                "article": null
            }
        },
        {
            "type": "Feature",
            "geometry": {
                "type": "Point",
                "coordinates": [
                    18.487777777,
                    43.4225
                ]
            },
            "properties": {
                "name": "Zelengora",
                "article": "https://en.wikipedia.org/wiki/Zelengora"
            }
        },
        {
            "type": "Feature",
            "geometry": {
                "type": "Point",
                "coordinates": [
                    18.321666666,
                    42.708888888
                ]
            },
            "properties": {
                "name": "Trebinje",
                "article": "https://en.wikipedia.org/wiki/Trebinje"
            }
        },
        {
            "type": "Feature",
            "geometry": {
                "type": "Point",
                "coordinates": [
                    17.65,
                    44.866666666
                ]
            },
            "properties": {
                "name": "Prnjavor",
                "article": "https://en.wikipedia.org/wiki/Prnjavor,_Bosnia_and_Herzegovina"
            }
        },
        {
            "type": "Feature",
            "geometry": {
                "type": "Point",
                "coordinates": [
                    17.6625,
                    44.870277777
                ]
            },
            "properties": {
                "name": "Prnjavor",
                "article": "https://en.wikipedia.org/wiki/Prnjavor,_Bosnia_and_Herzegovina"
            }
        },
        {
            "type": "Feature",
            "geometry": {
                "type": "Point",
                "coordinates": [
                    16.384444444,
                    44.374166666
                ]
            },
            "properties": {
                "name": "Drvar",
                "article": "https://en.wikipedia.org/wiki/Drvar"
            }
        },
        {
            "type": "Feature",
            "geometry": {
                "type": "Point",
                "coordinates": [
                    17.91,
                    44.98
                ]
            },
            "properties": {
                "name": "Derventa",
                "article": "https://en.wikipedia.org/wiki/Derventa"
            }
        },
        {
            "type": "Feature",
            "geometry": {
                "type": "Point",
                "coordinates": [
                    16.2,
                    44.04
                ]
            },
            "properties": {
                "name": "Operation Storm",
                "article": "https://en.wikipedia.org/wiki/Operation_Storm"
            }
        },
        {
            "type": "Feature",
            "geometry": {
                "type": "Point",
                "coordinates": [
                    18.177777777,
                    43.978333333
                ]
            },
            "properties": {
                "name": "Visočica",
                "article": "https://en.wikipedia.org/wiki/Viso%C4%8Dica_(hill)"
            }
        },
        {
            "type": "Feature",
            "geometry": {
                "type": "Point",
                "coordinates": [
                    18.73306,
                    43.28111
                ]
            },
            "properties": {
                "name": "Maglić",
                "article": "https://en.wikipedia.org/wiki/Magli%C4%87_(mountain)"
            }
        },
        {
            "type": "Feature",
            "geometry": {
                "type": "Point",
                "coordinates": [
                    17.49361111,
                    43.60805556
                ]
            },
            "properties": {
                "name": "Blidinje Lake",
                "article": "https://en.wikipedia.org/wiki/Blidinje_Lake"
            }
        },
        {
            "type": "Feature",
            "geometry": {
                "type": "Point",
                "coordinates": [
                    16.366666666,
                    44.55
                ]
            },
            "properties": {
                "name": "Bosanski Petrovac",
                "article": "https://en.wikipedia.org/wiki/Bosanski_Petrovac"
            }
        },
        {
            "type": "Feature",
            "geometry": {
                "type": "Point",
                "coordinates": [
                    16.376666666,
                    44.196666666
                ]
            },
            "properties": {
                "name": "Bosansko Grahovo",
                "article": "https://en.wikipedia.org/wiki/Bosansko_Grahovo"
            }
        },
        {
            "type": "Feature",
            "geometry": {
                "type": "Point",
                "coordinates": [
                    18.3745,
                    43.8466
                ]
            },
            "properties": {
                "name": "Bosmal City Center",
                "article": "https://en.wikipedia.org/wiki/Bosmal_City_Center"
            }
        },
        {
            "type": "Feature",
            "geometry": {
                "type": "Point",
                "coordinates": [
                    17.583333333,
                    43.933333333
                ]
            },
            "properties": {
                "name": "Gornji Vakuf-Uskoplje",
                "article": "https://en.wikipedia.org/wiki/Gornji_Vakuf-Uskoplje"
            }
        },
        {
            "type": "Feature",
            "geometry": {
                "type": "Point",
                "coordinates": [
                    19.288631,
                    43.782851
                ]
            },
            "properties": {
                "name": "Perućac lake",
                "article": "https://en.wikipedia.org/wiki/Peru%C4%87ac_lake"
            }
        },
        {
            "type": "Feature",
            "geometry": {
                "type": "Point",
                "coordinates": [
                    19.410753,
                    43.965024
                ]
            },
            "properties": {
                "name": "Perućac lake",
                "article": "https://en.wikipedia.org/wiki/Peru%C4%87ac_lake"
            }
        },
        {
            "type": "Feature",
            "geometry": {
                "type": "Point",
                "coordinates": [
                    18.413055555,
                    43.856388888
                ]
            },
            "properties": {
                "name": "Sarajevo",
                "article": "https://en.wikipedia.org/wiki/Sarajevo"
            }
        },
        {
            "type": "Feature",
            "geometry": {
                "type": "Point",
                "coordinates": [
                    18.650153,
                    43.207273
                ]
            },
            "properties": {
                "name": "Lebršnik",
                "article": "https://en.wikipedia.org/wiki/Lebr%C5%A1nik"
            }
        },
        {
            "type": "Feature",
            "geometry": {
                "type": "Point",
                "coordinates": [
                    17.366666666,
                    44.916666666
                ]
            },
            "properties": {
                "name": "Milosavci",
                "article": null
            }
        },
        {
            "type": "Feature",
            "geometry": {
                "type": "Point",
                "coordinates": [
                    17.306388888,
                    44.965833333
                ]
            },
            "properties": {
                "name": "Krnete",
                "article": null
            }
        },
        {
            "type": "Feature",
            "geometry": {
                "type": "Point",
                "coordinates": [
                    17.041971,
                    44.39739
                ]
            },
            "properties": {
                "name": "Lisina",
                "article": "https://en.wikipedia.org/wiki/Lisina_(Bosnia_and_Herzegovina_mountain)"
            }
        },
        {
            "type": "Feature",
            "geometry": {
                "type": "Point",
                "coordinates": [
                    18.488055555,
                    43.423055555
                ]
            },
            "properties": {
                "name": "Lelija",
                "article": "https://en.wikipedia.org/wiki/Lelija"
            }
        },
        {
            "type": "Feature",
            "geometry": {
                "type": "Point",
                "coordinates": [
                    18.097222222,
                    44.131111111
                ]
            },
            "properties": {
                "name": "Kakanj",
                "article": "https://en.wikipedia.org/wiki/Kakanj"
            }
        },
        {
            "type": "Feature",
            "geometry": {
                "type": "Point",
                "coordinates": [
                    18.326388888,
                    45.010555555
                ]
            },
            "properties": {
                "name": "Odžak",
                "article": "https://en.wikipedia.org/wiki/Od%C5%BEak"
            }
        },
        {
            "type": "Feature",
            "geometry": {
                "type": "Point",
                "coordinates": [
                    15.943055555,
                    44.966944444
                ]
            },
            "properties": {
                "name": "Cazin",
                "article": "https://en.wikipedia.org/wiki/Cazin"
            }
        },
        {
            "type": "Feature",
            "geometry": {
                "type": "Point",
                "coordinates": [
                    18.15,
                    44.45
                ]
            },
            "properties": {
                "name": "Zavidovići",
                "article": "https://en.wikipedia.org/wiki/Zavidovi%C4%87i"
            }
        },
        {
            "type": "Feature",
            "geometry": {
                "type": "Point",
                "coordinates": [
                    18.693333333,
                    45.033611111
                ]
            },
            "properties": {
                "name": "Orašje",
                "article": "https://en.wikipedia.org/wiki/Ora%C5%A1je"
            }
        },
        {
            "type": "Feature",
            "geometry": {
                "type": "Point",
                "coordinates": [
                    18.693055555,
                    45.034722222
                ]
            },
            "properties": {
                "name": "Orašje",
                "article": "https://en.wikipedia.org/wiki/Ora%C5%A1je"
            }
        },
        {
            "type": "Feature",
            "geometry": {
                "type": "Point",
                "coordinates": [
                    18.45,
                    43.5
                ]
            },
            "properties": {
                "name": "Kalinovik",
                "article": "https://en.wikipedia.org/wiki/Kalinovik"
            }
        },
        {
            "type": "Feature",
            "geometry": {
                "type": "Point",
                "coordinates": [
                    18.875,
                    44.441666666
                ]
            },
            "properties": {
                "name": "Kalesija",
                "article": "https://en.wikipedia.org/wiki/Kalesija"
            }
        },
        {
            "type": "Feature",
            "geometry": {
                "type": "Point",
                "coordinates": [
                    17.414166666,
                    43.3725
                ]
            },
            "properties": {
                "name": "Grude",
                "article": "https://en.wikipedia.org/wiki/Grude"
            }
        },
        {
            "type": "Feature",
            "geometry": {
                "type": "Point",
                "coordinates": [
                    17.4,
                    44.15
                ]
            },
            "properties": {
                "name": "Donji Vakuf",
                "article": "https://en.wikipedia.org/wiki/Donji_Vakuf"
            }
        },
        {
            "type": "Feature",
            "geometry": {
                "type": "Point",
                "coordinates": [
                    17.9,
                    43.966666666
                ]
            },
            "properties": {
                "name": "Fojnica",
                "article": "https://en.wikipedia.org/wiki/Fojnica"
            }
        },
        {
            "type": "Feature",
            "geometry": {
                "type": "Point",
                "coordinates": [
                    18.933333333,
                    44.183333333
                ]
            },
            "properties": {
                "name": "Vlasenica",
                "article": "https://en.wikipedia.org/wiki/Vlasenica"
            }
        },
        {
            "type": "Feature",
            "geometry": {
                "type": "Point",
                "coordinates": [
                    18.081388888,
                    43.943055555
                ]
            },
            "properties": {
                "name": "Kiseljak",
                "article": "https://en.wikipedia.org/wiki/Kiseljak"
            }
        },
        {
            "type": "Feature",
            "geometry": {
                "type": "Point",
                "coordinates": [
                    18.083333333,
                    43.95
                ]
            },
            "properties": {
                "name": "Kiseljak",
                "article": "https://en.wikipedia.org/wiki/Kiseljak"
            }
        },
        {
            "type": "Feature",
            "geometry": {
                "type": "Point",
                "coordinates": [
                    17.546666666,
                    43.198055555
                ]
            },
            "properties": {
                "name": "Ljubuški",
                "article": "https://en.wikipedia.org/wiki/Ljubu%C5%A1ki"
            }
        },
        {
            "type": "Feature",
            "geometry": {
                "type": "Point",
                "coordinates": [
                    17.06277778,
                    43.90222222
                ]
            },
            "properties": {
                "name": "Cincar",
                "article": "https://en.wikipedia.org/wiki/Cincar"
            }
        },
        {
            "type": "Feature",
            "geometry": {
                "type": "Point",
                "coordinates": [
                    18.4138778,
                    43.8584454
                ]
            },
            "properties": {
                "name": "Building of the Presidency of Bosnia and Herzegovina",
                "article": "https://en.wikipedia.org/wiki/Building_of_the_Presidency_of_Bosnia_and_Herzegovina"
            }
        },
        {
            "type": "Feature",
            "geometry": {
                "type": "Point",
                "coordinates": [
                    17.616666666,
                    43.616666666
                ]
            },
            "properties": {
                "name": "Čvrsnica",
                "article": "https://en.wikipedia.org/wiki/%C4%8Cvrsnica"
            }
        },
        {
            "type": "Feature",
            "geometry": {
                "type": "Point",
                "coordinates": [
                    18.03055556,
                    43.55194444
                ]
            },
            "properties": {
                "name": "Boračko Lake",
                "article": "https://en.wikipedia.org/wiki/Bora%C4%8Dko_jezero"
            }
        },
        {
            "type": "Feature",
            "geometry": {
                "type": "Point",
                "coordinates": [
                    18.031388888,
                    43.551944444
                ]
            },
            "properties": {
                "name": "Boračko Lake",
                "article": "https://en.wikipedia.org/wiki/Bora%C4%8Dko_jezero"
            }
        },
        {
            "type": "Feature",
            "geometry": {
                "type": "Point",
                "coordinates": [
                    18.246918779,
                    43.404394172
                ]
            },
            "properties": {
                "name": "Uloško Lake",
                "article": "https://en.wikipedia.org/wiki/Ulo%C5%A1ko_Lake"
            }
        },
        {
            "type": "Feature",
            "geometry": {
                "type": "Point",
                "coordinates": [
                    18.10805556,
                    43.62361111
                ]
            },
            "properties": {
                "name": "Blatačko Lake",
                "article": "https://en.wikipedia.org/wiki/Blata%C4%8Dko_Lake"
            }
        },
        {
            "type": "Feature",
            "geometry": {
                "type": "Point",
                "coordinates": [
                    17.62611111,
                    44.81138889
                ]
            },
            "properties": {
                "name": "Drenova Lake",
                "article": "https://en.wikipedia.org/wiki/Drenova_Lake"
            }
        },
        {
            "type": "Feature",
            "geometry": {
                "type": "Point",
                "coordinates": [
                    17.15326389,
                    44.53273889
                ]
            },
            "properties": {
                "name": "Bočac Lake",
                "article": "https://en.wikipedia.org/wiki/Bo%C4%8Dac_Lake"
            }
        },
        {
            "type": "Feature",
            "geometry": {
                "type": "Point",
                "coordinates": [
                    18.51472222,
                    44.38444444
                ]
            },
            "properties": {
                "name": "Breštica Lake",
                "article": "https://en.wikipedia.org/wiki/Bre%C5%A1tica_Lake"
            }
        },
        {
            "type": "Feature",
            "geometry": {
                "type": "Point",
                "coordinates": [
                    18.2825,
                    44.5904
                ]
            },
            "properties": {
                "name": "Ozren",
                "article": "https://en.wikipedia.org/wiki/Ozren_(Bosnia_and_Herzegovina)"
            }
        },
        {
            "type": "Feature",
            "geometry": {
                "type": "Point",
                "coordinates": [
                    17.904303464,
                    43.534806212
                ]
            },
            "properties": {
                "name": "Prenj",
                "article": "https://en.wikipedia.org/wiki/Prenj"
            }
        },
        {
            "type": "Feature",
            "geometry": {
                "type": "Point",
                "coordinates": [
                    16.855,
                    43.958333
                ]
            },
            "properties": {
                "name": "Veliki Vrh",
                "article": "https://en.wikipedia.org/wiki/Velika_Golija"
            }
        },
        {
            "type": "Feature",
            "geometry": {
                "type": "Point",
                "coordinates": [
                    16.601538888,
                    44.16515
                ]
            },
            "properties": {
                "name": "Šatorsko Lake",
                "article": "https://en.wikipedia.org/wiki/%C5%A0atorsko_Lake"
            }
        },
        {
            "type": "Feature",
            "geometry": {
                "type": "Point",
                "coordinates": [
                    18.52138889,
                    44.49611111
                ]
            },
            "properties": {
                "name": "Modrac Lake",
                "article": "https://en.wikipedia.org/wiki/Modrac_Lake"
            }
        },
        {
            "type": "Feature",
            "geometry": {
                "type": "Point",
                "coordinates": [
                    18.55166667,
                    44.53361111
                ]
            },
            "properties": {
                "name": "Bistarac Lake",
                "article": "https://en.wikipedia.org/wiki/Bistarac_Lake"
            }
        },
        {
            "type": "Feature",
            "geometry": {
                "type": "Point",
                "coordinates": [
                    18.10638889,
                    43.29222222
                ]
            },
            "properties": {
                "name": "Aligovac Lake",
                "article": "https://en.wikipedia.org/wiki/Alagovac_Lake"
            }
        },
        {
            "type": "Feature",
            "geometry": {
                "type": "Point",
                "coordinates": [
                    18.68916667,
                    44.4175
                ]
            },
            "properties": {
                "name": "Bašigovaćko Lake",
                "article": "https://en.wikipedia.org/wiki/Ba%C5%A1igova%C4%8Dko_Lake"
            }
        },
        {
            "type": "Feature",
            "geometry": {
                "type": "Point",
                "coordinates": [
                    17.081111111,
                    43.716111111
                ]
            },
            "properties": {
                "name": "Tušnica",
                "article": "https://en.wikipedia.org/wiki/Tu%C5%A1nica"
            }
        },
        {
            "type": "Feature",
            "geometry": {
                "type": "Point",
                "coordinates": [
                    17.1167,
                    43.7167
                ]
            },
            "properties": {
                "name": "Tušnica",
                "article": "https://en.wikipedia.org/wiki/Tu%C5%A1nica"
            }
        },
        {
            "type": "Feature",
            "geometry": {
                "type": "Point",
                "coordinates": [
                    16.5897,
                    44.157330555
                ]
            },
            "properties": {
                "name": "Šator",
                "article": "https://en.wikipedia.org/wiki/%C5%A0ator"
            }
        },
        {
            "type": "Feature",
            "geometry": {
                "type": "Point",
                "coordinates": [
                    19.2,
                    44.216666666
                ]
            },
            "properties": {
                "name": "Kravica attack",
                "article": "https://en.wikipedia.org/wiki/Kravica_attack_(1993)"
            }
        },
        {
            "type": "Feature",
            "geometry": {
                "type": "Point",
                "coordinates": [
                    18.687777777,
                    43.346111111
                ]
            },
            "properties": {
                "name": "Battle of the Sutjeska",
                "article": null
            }
        },
        {
            "type": "Feature",
            "geometry": {
                "type": "Point",
                "coordinates": [
                    18.355555555,
                    43.589722222
                ]
            },
            "properties": {
                "name": "Treskavica",
                "article": "https://en.wikipedia.org/wiki/Treskavica"
            }
        },
        {
            "type": "Feature",
            "geometry": {
                "type": "Point",
                "coordinates": [
                    17.8275,
                    43.692222222
                ]
            },
            "properties": {
                "name": "Jablaničko Lake",
                "article": "https://en.wikipedia.org/wiki/Jablani%C4%8Dko_lake"
            }
        },
        {
            "type": "Feature",
            "geometry": {
                "type": "Point",
                "coordinates": [
                    17.801111111,
                    43.043611111
                ]
            },
            "properties": {
                "name": "Deransko Blato",
                "article": "https://en.wikipedia.org/wiki/Deransko_Blato"
            }
        },
        {
            "type": "Feature",
            "geometry": {
                "type": "Point",
                "coordinates": [
                    16.59246,
                    43.94811
                ]
            },
            "properties": {
                "name": "Troglav",
                "article": "https://en.wikipedia.org/wiki/Troglav_(Bosnia_and_Herzegovina)"
            }
        },
        {
            "type": "Feature",
            "geometry": {
                "type": "Point",
                "coordinates": [
                    16.6,
                    43.95
                ]
            },
            "properties": {
                "name": "Troglav",
                "article": "https://en.wikipedia.org/wiki/Troglav_(Bosnia_and_Herzegovina)"
            }
        },
        {
            "type": "Feature",
            "geometry": {
                "type": "Point",
                "coordinates": [
                    17.75472222,
                    43.95722222
                ]
            },
            "properties": {
                "name": "Prokoško Lake",
                "article": "https://en.wikipedia.org/wiki/Proko%C5%A1ko_Lake"
            }
        },
        {
            "type": "Feature",
            "geometry": {
                "type": "Point",
                "coordinates": [
                    17.52888889,
                    43.18222222
                ]
            },
            "properties": {
                "name": "Castra of Gračine",
                "article": null
            }
        },
        {
            "type": "Feature",
            "geometry": {
                "type": "Point",
                "coordinates": [
                    17.2683,
                    44.3428
                ]
            },
            "properties": {
                "name": "Operation Mistral 2",
                "article": "https://en.wikipedia.org/wiki/Operation_Mistral_2"
            }
        },
        {
            "type": "Feature",
            "geometry": {
                "type": "Point",
                "coordinates": [
                    17.1913,
                    44.7718
                ]
            },
            "properties": {
                "name": "City palace",
                "article": null
            }
        },
        {
            "type": "Feature",
            "geometry": {
                "type": "Point",
                "coordinates": [
                    17.044166666,
                    44.119444444
                ]
            },
            "properties": {
                "name": "Vitorog",
                "article": "https://en.wikipedia.org/wiki/Vitorog"
            }
        },
        {
            "type": "Feature",
            "geometry": {
                "type": "Point",
                "coordinates": [
                    16.25583333,
                    44.5175
                ]
            },
            "properties": {
                "name": "Q2512378",
                "article": null
            }
        },
        {
            "type": "Feature",
            "geometry": {
                "type": "Point",
                "coordinates": [
                    16.25556,
                    44.51917
                ]
            },
            "properties": {
                "name": "Q2512378",
                "article": null
            }
        },
        {
            "type": "Feature",
            "geometry": {
                "type": "Point",
                "coordinates": [
                    17.0575,
                    44.568055555
                ]
            },
            "properties": {
                "name": "Manjača",
                "article": "https://en.wikipedia.org/wiki/Manja%C4%8Da"
            }
        },
        {
            "type": "Feature",
            "geometry": {
                "type": "Point",
                "coordinates": [
                    16.49222222,
                    44.04888889
                ]
            },
            "properties": {
                "name": "Q2887748",
                "article": null
            }
        },
        {
            "type": "Feature",
            "geometry": {
                "type": "Point",
                "coordinates": [
                    19.01972222,
                    43.89777778
                ]
            },
            "properties": {
                "name": "Berkovići",
                "article": "https://en.wikipedia.org/wiki/Berkovi%C4%87i_(Rogatica)"
            }
        },
        {
            "type": "Feature",
            "geometry": {
                "type": "Point",
                "coordinates": [
                    17.935,
                    43.802
                ]
            },
            "properties": {
                "name": "Bitovnja",
                "article": "https://en.wikipedia.org/wiki/Bitovnja"
            }
        },
        {
            "type": "Feature",
            "geometry": {
                "type": "Point",
                "coordinates": [
                    16.4572,
                    45.0306
                ]
            },
            "properties": {
                "name": "Blagaj Japra",
                "article": "https://en.wikipedia.org/wiki/Blagaj_Japra"
            }
        },
        {
            "type": "Feature",
            "geometry": {
                "type": "Point",
                "coordinates": [
                    19.091,
                    43.932
                ]
            },
            "properties": {
                "name": "Q2909264",
                "article": null
            }
        },
        {
            "type": "Feature",
            "geometry": {
                "type": "Point",
                "coordinates": [
                    19.11015,
                    43.92649
                ]
            },
            "properties": {
                "name": "Q2909264",
                "article": null
            }
        },
        {
            "type": "Feature",
            "geometry": {
                "type": "Point",
                "coordinates": [
                    19.270556,
                    43.951667
                ]
            },
            "properties": {
                "name": "Q2927061",
                "article": null
            }
        },
        {
            "type": "Feature",
            "geometry": {
                "type": "Point",
                "coordinates": [
                    17.198341666,
                    44.777977777
                ]
            },
            "properties": {
                "name": "Administrative Center of the Government of Republika Srpska",
                "article": null
            }
        },
        {
            "type": "Feature",
            "geometry": {
                "type": "Point",
                "coordinates": [
                    17.67,
                    45.08
                ]
            },
            "properties": {
                "name": "Motajica",
                "article": "https://en.wikipedia.org/wiki/Motajica"
            }
        },
        {
            "type": "Feature",
            "geometry": {
                "type": "Point",
                "coordinates": [
                    18.200277777,
                    43.391388888
                ]
            },
            "properties": {
                "name": "Crvanj",
                "article": "https://en.wikipedia.org/wiki/Crvanj"
            }
        },
        {
            "type": "Feature",
            "geometry": {
                "type": "Point",
                "coordinates": [
                    18.983888888,
                    43.984444444
                ]
            },
            "properties": {
                "name": "Devetak",
                "article": null
            }
        },
        {
            "type": "Feature",
            "geometry": {
                "type": "Point",
                "coordinates": [
                    18.7008,
                    43.5689
                ]
            },
            "properties": {
                "name": "Marevo",
                "article": "https://en.wikipedia.org/wiki/Marevo"
            }
        },
        {
            "type": "Feature",
            "geometry": {
                "type": "Point",
                "coordinates": [
                    18.413,
                    43.856
                ]
            },
            "properties": {
                "name": "Sniper Alley",
                "article": "https://en.wikipedia.org/wiki/Sniper_Alley"
            }
        },
        {
            "type": "Feature",
            "geometry": {
                "type": "Point",
                "coordinates": [
                    19.2705,
                    44.2425
                ]
            },
            "properties": {
                "name": "Q3109073",
                "article": null
            }
        },
        {
            "type": "Feature",
            "geometry": {
                "type": "Point",
                "coordinates": [
                    16.22694444,
                    44.28555556
                ]
            },
            "properties": {
                "name": "Q3148661",
                "article": null
            }
        },
        {
            "type": "Feature",
            "geometry": {
                "type": "Point",
                "coordinates": [
                    18.769,
                    44.285
                ]
            },
            "properties": {
                "name": "Q3163185",
                "article": null
            }
        },
        {
            "type": "Feature",
            "geometry": {
                "type": "Point",
                "coordinates": [
                    18.38027778,
                    43.82083333
                ]
            },
            "properties": {
                "name": "Lukavica",
                "article": "https://en.wikipedia.org/wiki/Lukavica_(Isto%C4%8Dno_Novo_Sarajevo)"
            }
        },
        {
            "type": "Feature",
            "geometry": {
                "type": "Point",
                "coordinates": [
                    18.53333333,
                    44.3
                ]
            },
            "properties": {
                "name": "Konjuh",
                "article": "https://en.wikipedia.org/wiki/Konjuh_(mountain)"
            }
        },
        {
            "type": "Feature",
            "geometry": {
                "type": "Point",
                "coordinates": [
                    18.7306,
                    43.4072
                ]
            },
            "properties": {
                "name": "Q3284656",
                "article": null
            }
        },
        {
            "type": "Feature",
            "geometry": {
                "type": "Point",
                "coordinates": [
                    18.47949,
                    43.92251
                ]
            },
            "properties": {
                "name": "Q3329348",
                "article": null
            }
        },
        {
            "type": "Feature",
            "geometry": {
                "type": "Point",
                "coordinates": [
                    17.98,
                    44.56
                ]
            },
            "properties": {
                "name": "Q3329356",
                "article": null
            }
        },
        {
            "type": "Feature",
            "geometry": {
                "type": "Point",
                "coordinates": [
                    17.98306,
                    44.56444
                ]
            },
            "properties": {
                "name": "Q3329356",
                "article": null
            }
        },
        {
            "type": "Feature",
            "geometry": {
                "type": "Point",
                "coordinates": [
                    16.4719,
                    44.7219
                ]
            },
            "properties": {
                "name": "Otiš",
                "article": null
            }
        },
        {
            "type": "Feature",
            "geometry": {
                "type": "Point",
                "coordinates": [
                    16.48122,
                    44.73822
                ]
            },
            "properties": {
                "name": "Otiš",
                "article": null
            }
        },
        {
            "type": "Feature",
            "geometry": {
                "type": "Point",
                "coordinates": [
                    17.518,
                    43.8031
                ]
            },
            "properties": {
                "name": "Rama Lake",
                "article": "https://en.wikipedia.org/wiki/Ramsko_lake_(Bosnia_and_Herzegovina)"
            }
        },
        {
            "type": "Feature",
            "geometry": {
                "type": "Point",
                "coordinates": [
                    18.098055555,
                    43.958055555
                ]
            },
            "properties": {
                "name": "Podastinjsko Brdo",
                "article": "https://en.wikipedia.org/wiki/Podastinjsko_Brdo"
            }
        },
        {
            "type": "Feature",
            "geometry": {
                "type": "Point",
                "coordinates": [
                    18.0981,
                    43.9581
                ]
            },
            "properties": {
                "name": "Podastinjsko Brdo",
                "article": "https://en.wikipedia.org/wiki/Podastinjsko_Brdo"
            }
        },
        {
            "type": "Feature",
            "geometry": {
                "type": "Point",
                "coordinates": [
                    17.44924,
                    43.86739
                ]
            },
            "properties": {
                "name": "Idovačko Lake",
                "article": "https://en.wikipedia.org/wiki/Idova%C4%8Dko_Lake"
            }
        },
        {
            "type": "Feature",
            "geometry": {
                "type": "Point",
                "coordinates": [
                    18.36166667,
                    43.5975
                ]
            },
            "properties": {
                "name": "Bijelo Lake",
                "article": "https://en.wikipedia.org/wiki/Bijelo_Lake_(Treskavica)"
            }
        },
        {
            "type": "Feature",
            "geometry": {
                "type": "Point",
                "coordinates": [
                    17.76194444,
                    43.62277778
                ]
            },
            "properties": {
                "name": "Grabovičko Lake",
                "article": "https://en.wikipedia.org/wiki/Grabovica_Lake"
            }
        },
        {
            "type": "Feature",
            "geometry": {
                "type": "Point",
                "coordinates": [
                    18.1044,
                    44.1364
                ]
            },
            "properties": {
                "name": "Vrtliško Lake",
                "article": "https://en.wikipedia.org/wiki/Vrtli%C5%A1ko_Lake"
            }
        },
        {
            "type": "Feature",
            "geometry": {
                "type": "Point",
                "coordinates": [
                    17.524567,
                    43.935484
                ]
            },
            "properties": {
                "name": "Raduša",
                "article": "https://en.wikipedia.org/wiki/Radu%C5%A1a_(mountain)"
            }
        },
        {
            "type": "Feature",
            "geometry": {
                "type": "Point",
                "coordinates": [
                    18.58805556,
                    43.17277778
                ]
            },
            "properties": {
                "name": "Klinje Lake",
                "article": "https://en.wikipedia.org/wiki/Klinje_Lake"
            }
        },
        {
            "type": "Feature",
            "geometry": {
                "type": "Point",
                "coordinates": [
                    18.58806,
                    43.17278
                ]
            },
            "properties": {
                "name": "Klinje Lake",
                "article": "https://en.wikipedia.org/wiki/Klinje_Lake"
            }
        },
        {
            "type": "Feature",
            "geometry": {
                "type": "Point",
                "coordinates": [
                    18.33222222,
                    44.61166667
                ]
            },
            "properties": {
                "name": "Orlovo Lake",
                "article": "https://en.wikipedia.org/wiki/Orlovo_Lake"
            }
        },
        {
            "type": "Feature",
            "geometry": {
                "type": "Point",
                "coordinates": [
                    18.53416667,
                    43.37277778
                ]
            },
            "properties": {
                "name": "Jugovo Lake",
                "article": "https://en.wikipedia.org/wiki/Jugovo_Lake"
            }
        },
        {
            "type": "Feature",
            "geometry": {
                "type": "Point",
                "coordinates": [
                    18.40833333,
                    43.48861111
                ]
            },
            "properties": {
                "name": "Grajseljići Lake",
                "article": "https://en.wikipedia.org/wiki/Grajselji%C4%87i_Lake"
            }
        },
        {
            "type": "Feature",
            "geometry": {
                "type": "Point",
                "coordinates": [
                    17.62194444,
                    42.90138889
                ]
            },
            "properties": {
                "name": "Veliki Školj",
                "article": "https://en.wikipedia.org/wiki/Veliki_%C5%A0kolj"
            }
        },
        {
            "type": "Feature",
            "geometry": {
                "type": "Point",
                "coordinates": [
                    17.59877,
                    42.91149
                ]
            },
            "properties": {
                "name": "Mali Školj",
                "article": "https://en.wikipedia.org/wiki/Mali_%C5%A0kolj"
            }
        },
        {
            "type": "Feature",
            "geometry": {
                "type": "Point",
                "coordinates": [
                    18.049444444,
                    43.101388888
                ]
            },
            "properties": {
                "name": "Hrgud",
                "article": null
            }
        },
        {
            "type": "Feature",
            "geometry": {
                "type": "Point",
                "coordinates": [
                    18.055277777,
                    43.084722222
                ]
            },
            "properties": {
                "name": "Hrgud",
                "article": null
            }
        },
        {
            "type": "Feature",
            "geometry": {
                "type": "Point",
                "coordinates": [
                    18.6,
                    43.31666667
                ]
            },
            "properties": {
                "name": "Gornje Bare",
                "article": "https://en.wikipedia.org/wiki/Gornje_Bare"
            }
        },
        {
            "type": "Feature",
            "geometry": {
                "type": "Point",
                "coordinates": [
                    18.54916667,
                    43.3775
                ]
            },
            "properties": {
                "name": "Orlovačko Lake",
                "article": "https://en.wikipedia.org/wiki/Orlova%C4%8Dko_Lake"
            }
        },
        {
            "type": "Feature",
            "geometry": {
                "type": "Point",
                "coordinates": [
                    17.4875,
                    43.65055556
                ]
            },
            "properties": {
                "name": "Vran",
                "article": "https://en.wikipedia.org/wiki/Vran"
            }
        },
        {
            "type": "Feature",
            "geometry": {
                "type": "Point",
                "coordinates": [
                    17.5058,
                    43.6683
                ]
            },
            "properties": {
                "name": "Vran",
                "article": "https://en.wikipedia.org/wiki/Vran"
            }
        },
        {
            "type": "Feature",
            "geometry": {
                "type": "Point",
                "coordinates": [
                    17.50583,
                    43.66833
                ]
            },
            "properties": {
                "name": "Vran",
                "article": "https://en.wikipedia.org/wiki/Vran"
            }
        },
        {
            "type": "Feature",
            "geometry": {
                "type": "Point",
                "coordinates": [
                    18.344166666,
                    42.745
                ]
            },
            "properties": {
                "name": "Leotar",
                "article": null
            }
        },
        {
            "type": "Feature",
            "geometry": {
                "type": "Point",
                "coordinates": [
                    17.65,
                    43.4833
                ]
            },
            "properties": {
                "name": "Čabulja",
                "article": "https://en.wikipedia.org/wiki/%C4%8Cabulja"
            }
        },
        {
            "type": "Feature",
            "geometry": {
                "type": "Point",
                "coordinates": [
                    19.2853,
                    43.9139
                ]
            },
            "properties": {
                "name": "Q3499639",
                "article": null
            }
        },
        {
            "type": "Feature",
            "geometry": {
                "type": "Point",
                "coordinates": [
                    18.11,
                    42.83
                ]
            },
            "properties": {
                "name": "Bjelasnica",
                "article": "https://en.wikipedia.org/wiki/Bjelasnica"
            }
        },
        {
            "type": "Feature",
            "geometry": {
                "type": "Point",
                "coordinates": [
                    18.588189,
                    44.929222
                ]
            },
            "properties": {
                "name": "Pelagićevo Lake",
                "article": "https://en.wikipedia.org/wiki/Pelagi%C4%87evo_Lake"
            }
        },
        {
            "type": "Feature",
            "geometry": {
                "type": "Point",
                "coordinates": [
                    16.87361,
                    44.03306
                ]
            },
            "properties": {
                "name": "Hrast Lake",
                "article": "https://en.wikipedia.org/wiki/Hrast_Lake"
            }
        },
        {
            "type": "Feature",
            "geometry": {
                "type": "Point",
                "coordinates": [
                    19.338,
                    43.743
                ]
            },
            "properties": {
                "name": "Q3505825",
                "article": null
            }
        },
        {
            "type": "Feature",
            "geometry": {
                "type": "Point",
                "coordinates": [
                    19.2305,
                    44.026
                ]
            },
            "properties": {
                "name": "Q3506198",
                "article": null
            }
        },
        {
            "type": "Feature",
            "geometry": {
                "type": "Point",
                "coordinates": [
                    18.63083333,
                    43.31805556
                ]
            },
            "properties": {
                "name": "Donje Bare",
                "article": "https://en.wikipedia.org/wiki/Donje_Bare"
            }
        },
        {
            "type": "Feature",
            "geometry": {
                "type": "Point",
                "coordinates": [
                    18.4878,
                    43.3795
                ]
            },
            "properties": {
                "name": "Štirinsko Lake",
                "article": "https://en.wikipedia.org/wiki/%C5%A0tirinsko_Lake"
            }
        },
        {
            "type": "Feature",
            "geometry": {
                "type": "Point",
                "coordinates": [
                    18.48806,
                    43.37944
                ]
            },
            "properties": {
                "name": "Štirinsko Lake",
                "article": "https://en.wikipedia.org/wiki/%C5%A0tirinsko_Lake"
            }
        },
        {
            "type": "Feature",
            "geometry": {
                "type": "Point",
                "coordinates": [
                    18.488055555,
                    43.379444444
                ]
            },
            "properties": {
                "name": "Štirinsko Lake",
                "article": "https://en.wikipedia.org/wiki/%C5%A0tirinsko_Lake"
            }
        },
        {
            "type": "Feature",
            "geometry": {
                "type": "Point",
                "coordinates": [
                    17.04,
                    44.59
                ]
            },
            "properties": {
                "name": "Uzlomac",
                "article": "https://en.wikipedia.org/wiki/Uzlomac"
            }
        },
        {
            "type": "Feature",
            "geometry": {
                "type": "Point",
                "coordinates": [
                    18.688,
                    43.255
                ]
            },
            "properties": {
                "name": "Q3563001",
                "article": null
            }
        },
        {
            "type": "Feature",
            "geometry": {
                "type": "Point",
                "coordinates": [
                    19.15917,
                    43.63
                ]
            },
            "properties": {
                "name": "Q3563868",
                "article": null
            }
        },
        {
            "type": "Feature",
            "geometry": {
                "type": "Point",
                "coordinates": [
                    17.26748,
                    43.60269
                ]
            },
            "properties": {
                "name": "Zubač",
                "article": null
            }
        },
        {
            "type": "Feature",
            "geometry": {
                "type": "Point",
                "coordinates": [
                    19.4603,
                    43.6533
                ]
            },
            "properties": {
                "name": "Zubač",
                "article": null
            }
        },
        {
            "type": "Feature",
            "geometry": {
                "type": "Point",
                "coordinates": [
                    18.437088888,
                    43.859958333
                ]
            },
            "properties": {
                "name": "Bentbaša",
                "article": null
            }
        },
        {
            "type": "Feature",
            "geometry": {
                "type": "Point",
                "coordinates": [
                    18.35,
                    43.01
                ]
            },
            "properties": {
                "name": "Q4074107",
                "article": null
            }
        },
        {
            "type": "Feature",
            "geometry": {
                "type": "Point",
                "coordinates": [
                    17.243611,
                    44.710833
                ]
            },
            "properties": {
                "name": "Q4101346",
                "article": null
            }
        },
        {
            "type": "Feature",
            "geometry": {
                "type": "Point",
                "coordinates": [
                    18.35,
                    43.01
                ]
            },
            "properties": {
                "name": "Q4101345",
                "article": null
            }
        },
        {
            "type": "Feature",
            "geometry": {
                "type": "Point",
                "coordinates": [
                    19.41,
                    43.65
                ]
            },
            "properties": {
                "name": "Q4103687",
                "article": null
            }
        },
        {
            "type": "Feature",
            "geometry": {
                "type": "Point",
                "coordinates": [
                    18.161666666,
                    44.994166666
                ]
            },
            "properties": {
                "name": "Q4128460",
                "article": null
            }
        },
        {
            "type": "Feature",
            "geometry": {
                "type": "Point",
                "coordinates": [
                    18.425833333,
                    43.566111111
                ]
            },
            "properties": {
                "name": "Gvozno Lake",
                "article": "https://en.wikipedia.org/wiki/Gvozno_Lake"
            }
        },
        {
            "type": "Feature",
            "geometry": {
                "type": "Point",
                "coordinates": [
                    17.28,
                    43.99
                ]
            },
            "properties": {
                "name": "Battle of Kupres",
                "article": "https://en.wikipedia.org/wiki/Battle_of_Kupres_(1994)"
            }
        },
        {
            "type": "Feature",
            "geometry": {
                "type": "Point",
                "coordinates": [
                    19.029444444,
                    44.063333333
                ]
            },
            "properties": {
                "name": "Javor",
                "article": "https://en.wikipedia.org/wiki/Javor_(Nevesinje)"
            }
        },
        {
            "type": "Feature",
            "geometry": {
                "type": "Point",
                "coordinates": [
                    18.40358056,
                    43.85564167
                ]
            },
            "properties": {
                "name": "1996 Sarajevo tram attack",
                "article": "https://en.wikipedia.org/wiki/1996_Sarajevo_tram_attack"
            }
        },
        {
            "type": "Feature",
            "geometry": {
                "type": "Point",
                "coordinates": [
                    17.04972222,
                    44.41527778
                ]
            },
            "properties": {
                "name": "Balkana Lake",
                "article": "https://en.wikipedia.org/wiki/Balkana_Lake"
            }
        },
        {
            "type": "Feature",
            "geometry": {
                "type": "Point",
                "coordinates": [
                    17.04972,
                    44.41528
                ]
            },
            "properties": {
                "name": "Balkana Lake",
                "article": "https://en.wikipedia.org/wiki/Balkana_Lake"
            }
        },
        {
            "type": "Feature",
            "geometry": {
                "type": "Point",
                "coordinates": [
                    18.4065,
                    43.853305555
                ]
            },
            "properties": {
                "name": "Battle of Vrbanja Bridge",
                "article": "https://en.wikipedia.org/wiki/Battle_of_Vrbanja_Bridge"
            }
        },
        {
            "type": "Feature",
            "geometry": {
                "type": "Point",
                "coordinates": [
                    17.631111111,
                    43.717777777
                ]
            },
            "properties": {
                "name": "Bačina planina",
                "article": "https://en.wikipedia.org/wiki/Ba%C4%8Dina_planina"
            }
        },
        {
            "type": "Feature",
            "geometry": {
                "type": "Point",
                "coordinates": [
                    17.8141,
                    43.3513
                ]
            },
            "properties": {
                "name": "Bishop’s Ordinariate",
                "article": "https://en.wikipedia.org/wiki/Bishop%27s_Ordinariate"
            }
        },
        {
            "type": "Feature",
            "geometry": {
                "type": "Point",
                "coordinates": [
                    17.76666667,
                    43.71666667
                ]
            },
            "properties": {
                "name": "Bokševica",
                "article": "https://en.wikipedia.org/wiki/Bok%C5%A1evica"
            }
        },
        {
            "type": "Feature",
            "geometry": {
                "type": "Point",
                "coordinates": [
                    16.97,
                    43.901
                ]
            },
            "properties": {
                "name": "Bukvensko Lake",
                "article": "https://en.wikipedia.org/wiki/Bukvensko_Lake"
            }
        },
        {
            "type": "Feature",
            "geometry": {
                "type": "Point",
                "coordinates": [
                    18.489527777,
                    44.978472222
                ]
            },
            "properties": {
                "name": "Busača Lake",
                "article": "https://en.wikipedia.org/wiki/Busa%C4%8Da_Lake"
            }
        },
        {
            "type": "Feature",
            "geometry": {
                "type": "Point",
                "coordinates": [
                    16.8494,
                    44.0286
                ]
            },
            "properties": {
                "name": "Busija Lake",
                "article": "https://en.wikipedia.org/wiki/Busija_Lake"
            }
        },
        {
            "type": "Feature",
            "geometry": {
                "type": "Point",
                "coordinates": [
                    17.650556,
                    43.631836
                ]
            },
            "properties": {
                "name": "Crvenjak Lake",
                "article": "https://en.wikipedia.org/wiki/Crvenjak_Lake"
            }
        },
        {
            "type": "Feature",
            "geometry": {
                "type": "Point",
                "coordinates": [
                    17.75588,
                    43.022444
                ]
            },
            "properties": {
                "name": "Desilo",
                "article": "https://en.wikipedia.org/wiki/Desilo"
            }
        },
        {
            "type": "Feature",
            "geometry": {
                "type": "Point",
                "coordinates": [
                    17.81666667,
                    43.05
                ]
            },
            "properties": {
                "name": "Drijen Vrelo",
                "article": "https://en.wikipedia.org/wiki/Drijen_Vrelo"
            }
        },
        {
            "type": "Feature",
            "geometry": {
                "type": "Point",
                "coordinates": [
                    17.774554,
                    43.3538
                ]
            },
            "properties": {
                "name": "Late antique basilica in Cim, the archaeological site",
                "article": "https://en.wikipedia.org/wiki/Cim_(archaeological_site)"
            }
        },
        {
            "type": "Feature",
            "geometry": {
                "type": "Point",
                "coordinates": [
                    17.774554,
                    43.3538
                ]
            },
            "properties": {
                "name": "Late antique basilica in Cim, the archaeological site",
                "article": "https://en.wikipedia.org/wiki/Cim_(archaeological_site)"
            }
        },
        {
            "type": "Feature",
            "geometry": {
                "type": "Point",
                "coordinates": [
                    16.677222222,
                    43.962222222
                ]
            },
            "properties": {
                "name": "Gubinsko Lake",
                "article": "https://en.wikipedia.org/wiki/Gubinsko_Lake"
            }
        },
        {
            "type": "Feature",
            "geometry": {
                "type": "Point",
                "coordinates": [
                    18.41522222,
                    44.87947222
                ]
            },
            "properties": {
                "name": "Hazna Lake",
                "article": "https://en.wikipedia.org/wiki/Hazna_Lake"
            }
        },
        {
            "type": "Feature",
            "geometry": {
                "type": "Point",
                "coordinates": [
                    18.41556,
                    44.87972
                ]
            },
            "properties": {
                "name": "Hazna Lake",
                "article": "https://en.wikipedia.org/wiki/Hazna_Lake"
            }
        },
        {
            "type": "Feature",
            "geometry": {
                "type": "Point",
                "coordinates": [
                    16.677222222,
                    43.962222222
                ]
            },
            "properties": {
                "name": "Gubinsko Lake",
                "article": "https://en.wikipedia.org/wiki/Gubinsko_Lake"
            }
        },
        {
            "type": "Feature",
            "geometry": {
                "type": "Point",
                "coordinates": [
                    18.41522222,
                    44.87947222
                ]
            },
            "properties": {
                "name": "Hazna Lake",
                "article": "https://en.wikipedia.org/wiki/Hazna_Lake"
            }
        },
        {
            "type": "Feature",
            "geometry": {
                "type": "Point",
                "coordinates": [
                    18.41556,
                    44.87972
                ]
            },
            "properties": {
                "name": "Hazna Lake",
                "article": "https://en.wikipedia.org/wiki/Hazna_Lake"
            }
        },
        {
            "type": "Feature",
            "geometry": {
                "type": "Point",
                "coordinates": [
                    17.0225,
                    44.046666666
                ]
            },
            "properties": {
                "name": "Hrbljina",
                "article": "https://en.wikipedia.org/wiki/Hrbljina"
            }
        },
        {
            "type": "Feature",
            "geometry": {
                "type": "Point",
                "coordinates": [
                    18.0092,
                    43.79198
                ]
            },
            "properties": {
                "name": "Ivan planina",
                "article": "https://en.wikipedia.org/wiki/Ivan_planina"
            }
        },
        {
            "type": "Feature",
            "geometry": {
                "type": "Point",
                "coordinates": [
                    17.8019,
                    43.0647
                ]
            },
            "properties": {
                "name": "Jelim Lake",
                "article": "https://en.wikipedia.org/wiki/Jelim_Lake"
            }
        },
        {
            "type": "Feature",
            "geometry": {
                "type": "Point",
                "coordinates": [
                    18.190555555,
                    44.421666666
                ]
            },
            "properties": {
                "name": "Klek",
                "article": "https://en.wikipedia.org/wiki/Klek_(mountain)"
            }
        },
        {
            "type": "Feature",
            "geometry": {
                "type": "Point",
                "coordinates": [
                    18.71666667,
                    43.46666667
                ]
            },
            "properties": {
                "name": "Kmur",
                "article": "https://en.wikipedia.org/wiki/Kmur"
            }
        },
        {
            "type": "Feature",
            "geometry": {
                "type": "Point",
                "coordinates": [
                    18.4838,
                    43.3615
                ]
            },
            "properties": {
                "name": "Kotlaničko Lake",
                "article": "https://en.wikipedia.org/wiki/Kotlani%C4%8Dko_Lake"
            }
        },
        {
            "type": "Feature",
            "geometry": {
                "type": "Point",
                "coordinates": [
                    18.13333333,
                    43.78333333
                ]
            },
            "properties": {
                "name": "Kovač",
                "article": "https://en.wikipedia.org/wiki/Kova%C4%8D_planina"
            }
        },
        {
            "type": "Feature",
            "geometry": {
                "type": "Point",
                "coordinates": [
                    17.332777777,
                    43.375
                ]
            },
            "properties": {
                "name": "Krenica Lake",
                "article": "https://en.wikipedia.org/wiki/Krenica_Lake"
            }
        },
        {
            "type": "Feature",
            "geometry": {
                "type": "Point",
                "coordinates": [
                    17.75,
                    44.05
                ]
            },
            "properties": {
                "name": "Kruščica",
                "article": "https://en.wikipedia.org/wiki/Kru%C5%A1%C4%8Dica_(mountain)"
            }
        },
        {
            "type": "Feature",
            "geometry": {
                "type": "Point",
                "coordinates": [
                    17.33167,
                    43.95
                ]
            },
            "properties": {
                "name": "Kukavičko Lake",
                "article": "https://en.wikipedia.org/wiki/Kukavi%C4%8Dko_Lake"
            }
        },
        {
            "type": "Feature",
            "geometry": {
                "type": "Point",
                "coordinates": [
                    15.85333,
                    45.17167
                ]
            },
            "properties": {
                "name": "Kvrkulja Lake",
                "article": "https://en.wikipedia.org/wiki/Kvrkulja_Lake"
            }
        },
        {
            "type": "Feature",
            "geometry": {
                "type": "Point",
                "coordinates": [
                    18.3,
                    44.8333
                ]
            },
            "properties": {
                "name": "Trebava",
                "article": "https://en.wikipedia.org/wiki/Trebava"
            }
        },
        {
            "type": "Feature",
            "geometry": {
                "type": "Point",
                "coordinates": [
                    17.3725,
                    45.09694
                ]
            },
            "properties": {
                "name": "Laminci Lake",
                "article": "https://en.wikipedia.org/wiki/Laminci_Lake"
            }
        },
        {
            "type": "Feature",
            "geometry": {
                "type": "Point",
                "coordinates": [
                    16.917354,
                    43.7528
                ]
            },
            "properties": {
                "name": "Lipsko Lake",
                "article": "https://en.wikipedia.org/wiki/Lipsko_Lake"
            }
        },
        {
            "type": "Feature",
            "geometry": {
                "type": "Point",
                "coordinates": [
                    17.176388888,
                    43.915827777
                ]
            },
            "properties": {
                "name": "Malovan",
                "article": "https://en.wikipedia.org/wiki/Malovan"
            }
        },
        {
            "type": "Feature",
            "geometry": {
                "type": "Point",
                "coordinates": [
                    17.02467,
                    43.73386
                ]
            },
            "properties": {
                "name": "Mandek Lake",
                "article": "https://en.wikipedia.org/wiki/Mandek_Lake"
            }
        },
        {
            "type": "Feature",
            "geometry": {
                "type": "Point",
                "coordinates": [
                    18.438333333,
                    43.292777777
                ]
            },
            "properties": {
                "name": "Mjedena Glava",
                "article": "https://en.wikipedia.org/wiki/Mjedena_Glava"
            }
        },
        {
            "type": "Feature",
            "geometry": {
                "type": "Point",
                "coordinates": [
                    17.81072778,
                    43.34496667
                ]
            },
            "properties": {
                "name": "Muslibegović House",
                "article": "https://en.wikipedia.org/wiki/Muslibegovi%C4%87_House"
            }
        },
        {
            "type": "Feature",
            "geometry": {
                "type": "Point",
                "coordinates": [
                    17.8107,
                    43.345
                ]
            },
            "properties": {
                "name": "Muslibegović House",
                "article": "https://en.wikipedia.org/wiki/Muslibegovi%C4%87_House"
            }
        },
        {
            "type": "Feature",
            "geometry": {
                "type": "Point",
                "coordinates": [
                    17.312408,
                    43.357056
                ]
            },
            "properties": {
                "name": "Nuga Lake",
                "article": "https://en.wikipedia.org/wiki/Nuga_Lake"
            }
        },
        {
            "type": "Feature",
            "geometry": {
                "type": "Point",
                "coordinates": [
                    16.858888888,
                    44.1075
                ]
            },
            "properties": {
                "name": "Opačićko Lake",
                "article": "https://en.wikipedia.org/wiki/Opa%C4%8Di%C4%87ko_Lake"
            }
        },
        {
            "type": "Feature",
            "geometry": {
                "type": "Point",
                "coordinates": [
                    18.376388888,
                    43.603055555
                ]
            },
            "properties": {
                "name": "Platno Lake",
                "article": "https://en.wikipedia.org/wiki/Platno_Lake"
            }
        },
        {
            "type": "Feature",
            "geometry": {
                "type": "Point",
                "coordinates": [
                    17.194722222,
                    44.048333333
                ]
            },
            "properties": {
                "name": "Rastičevsko Lake",
                "article": "https://en.wikipedia.org/wiki/Rasti%C4%8Devsko_Lake"
            }
        },
        {
            "type": "Feature",
            "geometry": {
                "type": "Point",
                "coordinates": [
                    17.36644,
                    43.85273
                ]
            },
            "properties": {
                "name": "Ravašnica",
                "article": "https://en.wikipedia.org/wiki/Rava%C5%A1nica"
            }
        },
        {
            "type": "Feature",
            "geometry": {
                "type": "Point",
                "coordinates": [
                    17.972777777,
                    43.435277777
                ]
            },
            "properties": {
                "name": "Rujište",
                "article": "https://en.wikipedia.org/wiki/Ruji%C5%A1te"
            }
        },
        {
            "type": "Feature",
            "geometry": {
                "type": "Point",
                "coordinates": [
                    17.83005091,
                    43.453091673
                ]
            },
            "properties": {
                "name": "Salakovac Lake",
                "article": "https://en.wikipedia.org/wiki/Salakovac_Lake"
            }
        },
        {
            "type": "Feature",
            "geometry": {
                "type": "Point",
                "coordinates": [
                    17.744722222,
                    43.081111111
                ]
            },
            "properties": {
                "name": "Škrka Lake",
                "article": "https://en.wikipedia.org/wiki/%C5%A0krka_Lake"
            }
        },
        {
            "type": "Feature",
            "geometry": {
                "type": "Point",
                "coordinates": [
                    17.7894,
                    44.02051
                ]
            },
            "properties": {
                "name": "Šćit",
                "article": "https://en.wikipedia.org/wiki/%C5%A0%C4%87it"
            }
        },
        {
            "type": "Feature",
            "geometry": {
                "type": "Point",
                "coordinates": [
                    17.6225,
                    43.922777777
                ]
            },
            "properties": {
                "name": "Ždrimačko Lake",
                "article": "https://en.wikipedia.org/wiki/%C5%BDdrima%C4%8Dko_Lake"
            }
        },
        {
            "type": "Feature",
            "geometry": {
                "type": "Point",
                "coordinates": [
                    19.0333,
                    44.0667
                ]
            },
            "properties": {
                "name": "Žep",
                "article": "https://en.wikipedia.org/wiki/%C5%BDep"
            }
        },
        {
            "type": "Feature",
            "geometry": {
                "type": "Point",
                "coordinates": [
                    18.55,
                    43.25
                ]
            },
            "properties": {
                "name": "Živanj",
                "article": "https://en.wikipedia.org/wiki/%C5%BDivanj"
            }
        },
        {
            "type": "Feature",
            "geometry": {
                "type": "Point",
                "coordinates": [
                    18.09086595,
                    44.73249982
                ]
            },
            "properties": {
                "name": "Battle of Doboj",
                "article": null
            }
        },
        {
            "type": "Feature",
            "geometry": {
                "type": "Point",
                "coordinates": [
                    17.2124,
                    44.7887
                ]
            },
            "properties": {
                "name": "Banja Luka railway station",
                "article": null
            }
        },
        {
            "type": "Feature",
            "geometry": {
                "type": "Point",
                "coordinates": [
                    18.4431,
                    43.5419
                ]
            },
            "properties": {
                "name": "Q9207888",
                "article": null
            }
        },
        {
            "type": "Feature",
            "geometry": {
                "type": "Point",
                "coordinates": [
                    18.425525,
                    43.859011111
                ]
            },
            "properties": {
                "name": "Ferhadija",
                "article": "https://en.wikipedia.org/wiki/Ferhadija_street"
            }
        },
        {
            "type": "Feature",
            "geometry": {
                "type": "Point",
                "coordinates": [
                    18.3991,
                    43.8604
                ]
            },
            "properties": {
                "name": "Sarajevo railway station",
                "article": "https://en.wikipedia.org/wiki/Sarajevo_main_railway_station"
            }
        },
        {
            "type": "Feature",
            "geometry": {
                "type": "Point",
                "coordinates": [
                    18.429558333,
                    43.859469444
                ]
            },
            "properties": {
                "name": "Sarači",
                "article": "https://en.wikipedia.org/wiki/Sara%C4%8Di_street"
            }
        },
        {
            "type": "Feature",
            "geometry": {
                "type": "Point",
                "coordinates": [
                    17.90395,
                    43.54953
                ]
            },
            "properties": {
                "name": "Zelena glava",
                "article": "https://en.wikipedia.org/wiki/Zelena_glava"
            }
        },
        {
            "type": "Feature",
            "geometry": {
                "type": "Point",
                "coordinates": [
                    16.216944444,
                    44.530833333
                ]
            },
            "properties": {
                "name": "Osječenica",
                "article": "https://en.wikipedia.org/wiki/Osje%C4%8Denica"
            }
        },
        {
            "type": "Feature",
            "geometry": {
                "type": "Point",
                "coordinates": [
                    16.28333333,
                    44.48333333
                ]
            },
            "properties": {
                "name": "Osječenica",
                "article": "https://en.wikipedia.org/wiki/Osje%C4%8Denica"
            }
        },
        {
            "type": "Feature",
            "geometry": {
                "type": "Point",
                "coordinates": [
                    16.2555,
                    44.5191
                ]
            },
            "properties": {
                "name": "Osječenica",
                "article": "https://en.wikipedia.org/wiki/Osje%C4%8Denica"
            }
        },
        {
            "type": "Feature",
            "geometry": {
                "type": "Point",
                "coordinates": [
                    18.421230555,
                    43.858680555
                ]
            },
            "properties": {
                "name": "Napredak building",
                "article": null
            }
        },
        {
            "type": "Feature",
            "geometry": {
                "type": "Point",
                "coordinates": [
                    17.457222222,
                    44.223611111
                ]
            },
            "properties": {
                "name": "Q11182766",
                "article": null
            }
        },
        {
            "type": "Feature",
            "geometry": {
                "type": "Point",
                "coordinates": [
                    16.971977777,
                    44.021913888
                ]
            },
            "properties": {
                "name": "Slovinj",
                "article": "https://en.wikipedia.org/wiki/Slovinj"
            }
        },
        {
            "type": "Feature",
            "geometry": {
                "type": "Point",
                "coordinates": [
                    16.6833,
                    44.0833
                ]
            },
            "properties": {
                "name": "Staretina",
                "article": "https://en.wikipedia.org/wiki/Staretina"
            }
        },
        {
            "type": "Feature",
            "geometry": {
                "type": "Point",
                "coordinates": [
                    17.3333,
                    43.9667
                ]
            },
            "properties": {
                "name": "Stožer",
                "article": "https://en.wikipedia.org/wiki/Sto%C5%BEer"
            }
        },
        {
            "type": "Feature",
            "geometry": {
                "type": "Point",
                "coordinates": [
                    18.618055555,
                    43.385555555
                ]
            },
            "properties": {
                "name": "Trebova",
                "article": "https://en.wikipedia.org/wiki/Trebova_Planina"
            }
        },
        {
            "type": "Feature",
            "geometry": {
                "type": "Point",
                "coordinates": [
                    17.34621048,
                    43.52527734
                ]
            },
            "properties": {
                "name": "Tribistovo Lake",
                "article": "https://en.wikipedia.org/wiki/Tribistovo_Lake"
            }
        },
        {
            "type": "Feature",
            "geometry": {
                "type": "Point",
                "coordinates": [
                    16.2667,
                    44.2667
                ]
            },
            "properties": {
                "name": "Ujilica",
                "article": "https://en.wikipedia.org/wiki/Ujilica"
            }
        },
        {
            "type": "Feature",
            "geometry": {
                "type": "Point",
                "coordinates": [
                    17.20889,
                    44.34417
                ]
            },
            "properties": {
                "name": "Veliko Plivsko Lake",
                "article": "https://en.wikipedia.org/wiki/Veliko_Plivsko_Lake"
            }
        },
        {
            "type": "Feature",
            "geometry": {
                "type": "Point",
                "coordinates": [
                    17.21977778,
                    44.34347222
                ]
            },
            "properties": {
                "name": "Veliko Plivsko Lake",
                "article": "https://en.wikipedia.org/wiki/Veliko_Plivsko_Lake"
            }
        },
        {
            "type": "Feature",
            "geometry": {
                "type": "Point",
                "coordinates": [
                    19.2911,
                    43.7828
                ]
            },
            "properties": {
                "name": "Vilina Vlas",
                "article": "https://en.wikipedia.org/wiki/Vilina_Vlas"
            }
        },
        {
            "type": "Feature",
            "geometry": {
                "type": "Point",
                "coordinates": [
                    18.69917,
                    43.22417
                ]
            },
            "properties": {
                "name": "Vlasulja",
                "article": "https://en.wikipedia.org/wiki/Vlasulja"
            }
        },
        {
            "type": "Feature",
            "geometry": {
                "type": "Point",
                "coordinates": [
                    18.71531105,
                    43.23277664
                ]
            },
            "properties": {
                "name": "Vlasulja",
                "article": "https://en.wikipedia.org/wiki/Vlasulja"
            }
        },
        {
            "type": "Feature",
            "geometry": {
                "type": "Point",
                "coordinates": [
                    17.5075,
                    44.01111111
                ]
            },
            "properties": {
                "name": "Zanasovići Lake",
                "article": "https://en.wikipedia.org/wiki/Zanasovi%C4%87i_Lake"
            }
        },
        {
            "type": "Feature",
            "geometry": {
                "type": "Point",
                "coordinates": [
                    17.8333,
                    43.9
                ]
            },