{
    "type": "FeatureCollection",
    "features": [
        {
            "type": "Feature",
            "geometry": {
                "type": "Point",
                "coordinates": [
                    -71.95,
                    -37.283333333
                ]
            },
            "properties": {
                "name": "Tucapel",
                "article": "https://en.wikipedia.org/wiki/Tucapel"
            }
        },
        {
            "type": "Feature",
            "geometry": {
                "type": "Point",
                "coordinates": [
                    -72.333333333,
                    -38.216666666
                ]
            },
            "properties": {
                "name": "Victoria",
                "article": "https://en.wikipedia.org/wiki/Victoria,_Chile"
            }
        },
        {
            "type": "Feature",
            "geometry": {
                "type": "Point",
                "coordinates": [
                    -71.583333333,
                    -35.75
                ]
            },
            "properties": {
                "name": "Yerbas Buenas",
                "article": "https://en.wikipedia.org/wiki/Yerbas_Buenas"
            }
        },
        {
            "type": "Feature",
            "geometry": {
                "type": "Point",
                "coordinates": [
                    -72.016666666,
                    -37.116666666
                ]
            },
            "properties": {
                "name": "Yungay",
                "article": "https://en.wikipedia.org/wiki/Yungay,_Chile"
            }
        },
        {
            "type": "Feature",
            "geometry": {
                "type": "Point",
                "coordinates": [
                    -71.59272222,
                    -38.37894444
                ]
            },
            "properties": {
                "name": "Lonquimay",
                "article": "https://en.wikipedia.org/wiki/Lonquimay_(volcano)"
            }
        },
        {
            "type": "Feature",
            "geometry": {
                "type": "Point",
                "coordinates": [
                    -68.536852,
                    -24.719863
                ]
            },
            "properties": {
                "name": "Llullaillaco",
                "article": "https://en.wikipedia.org/wiki/Llullaillaco"
            }
        },
        {
            "type": "Feature",
            "geometry": {
                "type": "Point",
                "coordinates": [
                    -73.043333333,
                    -49.271388888
                ]
            },
            "properties": {
                "name": "Mount Fitz Roy",
                "article": "https://en.wikipedia.org/wiki/Fitz_Roy"
            }
        },
        {
            "type": "Feature",
            "geometry": {
                "type": "Point",
                "coordinates": [
                    -71.083333333,
                    -30.216666666
                ]
            },
            "properties": {
                "name": "Andacollo",
                "article": "https://en.wikipedia.org/wiki/Andacollo"
            }
        },
        {
            "type": "Feature",
            "geometry": {
                "type": "Point",
                "coordinates": [
                    -71.683333333,
                    -37.333333333
                ]
            },
            "properties": {
                "name": "Antuco",
                "article": "https://en.wikipedia.org/wiki/Antuco,_Chile"
            }
        },
        {
            "type": "Feature",
            "geometry": {
                "type": "Point",
                "coordinates": [
                    -70.75,
                    -33.733333333
                ]
            },
            "properties": {
                "name": "Buin",
                "article": "https://en.wikipedia.org/wiki/Buin,_Chile"
            }
        },
        {
            "type": "Feature",
            "geometry": {
                "type": "Point",
                "coordinates": [
                    -71.804786111,
                    -34.976533333
                ]
            },
            "properties": {
                "name": "Hualañé",
                "article": "https://en.wikipedia.org/wiki/Huala%C3%B1%C3%A9"
            }
        },
        {
            "type": "Feature",
            "geometry": {
                "type": "Point",
                "coordinates": [
                    -73.083333333,
                    -36.783333333
                ]
            },
            "properties": {
                "name": "Hualpén",
                "article": "https://en.wikipedia.org/wiki/Hualp%C3%A9n"
            }
        },
        {
            "type": "Feature",
            "geometry": {
                "type": "Point",
                "coordinates": [
                    -69.766666666,
                    -19.966666666
                ]
            },
            "properties": {
                "name": "Huara",
                "article": "https://en.wikipedia.org/wiki/Huara"
            }
        },
        {
            "type": "Feature",
            "geometry": {
                "type": "Point",
                "coordinates": [
                    -70.666666666,
                    -33.35
                ]
            },
            "properties": {
                "name": "Huechuraba",
                "article": "https://en.wikipedia.org/wiki/Huechuraba"
            }
        },
        {
            "type": "Feature",
            "geometry": {
                "type": "Point",
                "coordinates": [
                    -70.9,
                    -33.75
                ]
            },
            "properties": {
                "name": "Isla de Maipo",
                "article": "https://en.wikipedia.org/wiki/Isla_de_Maipo"
            }
        },
        {
            "type": "Feature",
            "geometry": {
                "type": "Point",
                "coordinates": [
                    -109.354722222,
                    -27.119444444
                ]
            },
            "properties": {
                "name": "Easter Island",
                "article": "https://en.wikipedia.org/wiki/Easter_Island"
            }
        },
        {
            "type": "Feature",
            "geometry": {
                "type": "Point",
                "coordinates": [
                    -71.666666666,
                    -34.2
                ]
            },
            "properties": {
                "name": "La Estrella",
                "article": "https://en.wikipedia.org/wiki/La_Estrella,_Chile"
            }
        },
        {
            "type": "Feature",
            "geometry": {
                "type": "Point",
                "coordinates": [
                    -71.266666666,
                    -29.5
                ]
            },
            "properties": {
                "name": "La Higuera",
                "article": "https://en.wikipedia.org/wiki/La_Higuera,_Chile"
            }
        },
        {
            "type": "Feature",
            "geometry": {
                "type": "Point",
                "coordinates": [
                    -72.5,
                    -40.316666666
                ]
            },
            "properties": {
                "name": "Angol",
                "article": "https://en.wikipedia.org/wiki/Lago_Ranco,_Chile"
            }
        },
        {
            "type": "Feature",
            "geometry": {
                "type": "Point",
                "coordinates": [
                    -72.0,
                    -34.983333333
                ]
            },
            "properties": {
                "name": "Licantén",
                "article": "https://en.wikipedia.org/wiki/Licant%C3%A9n"
            }
        },
        {
            "type": "Feature",
            "geometry": {
                "type": "Point",
                "coordinates": [
                    -71.283333333,
                    -32.983333333
                ]
            },
            "properties": {
                "name": "Limache",
                "article": "https://en.wikipedia.org/wiki/Limache"
            }
        },
        {
            "type": "Feature",
            "geometry": {
                "type": "Point",
                "coordinates": [
                    -70.966666666,
                    -32.85
                ]
            },
            "properties": {
                "name": "Llaillay",
                "article": "https://en.wikipedia.org/wiki/Llay-Llay"
            }
        },
        {
            "type": "Feature",
            "geometry": {
                "type": "Point",
                "coordinates": [
                    -71.733333333,
                    -34.116666666
                ]
            },
            "properties": {
                "name": "Litueche",
                "article": "https://en.wikipedia.org/wiki/Litueche"
            }
        },
        {
            "type": "Feature",
            "geometry": {
                "type": "Point",
                "coordinates": [
                    -72.383333333,
                    -38.416666666
                ]
            },
            "properties": {
                "name": "Perquenco",
                "article": "https://en.wikipedia.org/wiki/Perquenco"
            }
        },
        {
            "type": "Feature",
            "geometry": {
                "type": "Point",
                "coordinates": [
                    -71.644722222,
                    -34.728611111
                ]
            },
            "properties": {
                "name": "Lolol",
                "article": "https://en.wikipedia.org/wiki/Lolol"
            }
        },
        {
            "type": "Feature",
            "geometry": {
                "type": "Point",
                "coordinates": [
                    -71.233333333,
                    -38.433333333
                ]
            },
            "properties": {
                "name": "Lonquimay",
                "article": "https://en.wikipedia.org/wiki/Lonquimay"
            }
        },
        {
            "type": "Feature",
            "geometry": {
                "type": "Point",
                "coordinates": [
                    -72.833333333,
                    -37.966666666
                ]
            },
            "properties": {
                "name": "Los Sauces",
                "article": "https://en.wikipedia.org/wiki/Los_Sauces"
            }
        },
        {
            "type": "Feature",
            "geometry": {
                "type": "Point",
                "coordinates": [
                    -72.916666666,
                    -38.15
                ]
            },
            "properties": {
                "name": "Lumaco",
                "article": "https://en.wikipedia.org/wiki/Lumaco"
            }
        },
        {
            "type": "Feature",
            "geometry": {
                "type": "Point",
                "coordinates": [
                    -70.95,
                    -34.45
                ]
            },
            "properties": {
                "name": "Malloa",
                "article": "https://en.wikipedia.org/wiki/Malloa"
            }
        },
        {
            "type": "Feature",
            "geometry": {
                "type": "Point",
                "coordinates": [
                    -69.666666666,
                    -22.35
                ]
            },
            "properties": {
                "name": "María Elena",
                "article": "https://en.wikipedia.org/wiki/Mar%C3%ADa_Elena,_Chile"
            }
        },
        {
            "type": "Feature",
            "geometry": {
                "type": "Point",
                "coordinates": [
                    -71.7,
                    -35.533333333
                ]
            },
            "properties": {
                "name": "Maule",
                "article": "https://en.wikipedia.org/wiki/Maule,_Chile"
            }
        },
        {
            "type": "Feature",
            "geometry": {
                "type": "Point",
                "coordinates": [
                    -73.6,
                    -41.616666666
                ]
            },
            "properties": {
                "name": "Maullín",
                "article": "https://en.wikipedia.org/wiki/Maull%C3%ADn"
            }
        },
        {
            "type": "Feature",
            "geometry": {
                "type": "Point",
                "coordinates": [
                    -71.133333333,
                    -33.533333333
                ]
            },
            "properties": {
                "name": "María Pinto",
                "article": "https://en.wikipedia.org/wiki/Mar%C3%ADa_Pinto"
            }
        },
        {
            "type": "Feature",
            "geometry": {
                "type": "Point",
                "coordinates": [
                    -73.10311,
                    -36.84082
                ]
            },
            "properties": {
                "name": "San Pedro de la Paz",
                "article": "https://en.wikipedia.org/wiki/San_Pedro_de_la_Paz"
            }
        },
        {
            "type": "Feature",
            "geometry": {
                "type": "Point",
                "coordinates": [
                    -109.363994,
                    -27.114231
                ]
            },
            "properties": {
                "name": "moai",
                "article": "https://en.wikipedia.org/wiki/Moai"
            }
        },
        {
            "type": "Feature",
            "geometry": {
                "type": "Point",
                "coordinates": [
                    -71.7,
                    -38.85
                ]
            },
            "properties": {
                "name": "Melipeuco",
                "article": "https://en.wikipedia.org/wiki/Melipeuco"
            }
        },
        {
            "type": "Feature",
            "geometry": {
                "type": "Point",
                "coordinates": [
                    -72.95,
                    -39.65
                ]
            },
            "properties": {
                "name": "Máfil",
                "article": "https://en.wikipedia.org/wiki/M%C3%A1fil"
            }
        },
        {
            "type": "Feature",
            "geometry": {
                "type": "Point",
                "coordinates": [
                    -72.516666666,
                    -37.583333333
                ]
            },
            "properties": {
                "name": "Negrete",
                "article": "https://en.wikipedia.org/wiki/Negrete"
            }
        },
        {
            "type": "Feature",
            "geometry": {
                "type": "Point",
                "coordinates": [
                    -72.4,
                    -36.4
                ]
            },
            "properties": {
                "name": "Ninhue",
                "article": "https://en.wikipedia.org/wiki/Ninhue"
            }
        },
        {
            "type": "Feature",
            "geometry": {
                "type": "Point",
                "coordinates": [
                    -71.233333333,
                    -32.716666666
                ]
            },
            "properties": {
                "name": "Nogales",
                "article": "https://en.wikipedia.org/wiki/Nogales,_Chile"
            }
        },
        {
            "type": "Feature",
            "geometry": {
                "type": "Point",
                "coordinates": [
                    -71.2,
                    -33.0
                ]
            },
            "properties": {
                "name": "Olmué",
                "article": "https://en.wikipedia.org/wiki/Olmu%C3%A9"
            }
        },
        {
            "type": "Feature",
            "geometry": {
                "type": "Point",
                "coordinates": [
                    -70.51708,
                    -30.02884
                ]
            },
            "properties": {
                "name": "Paiguano",
                "article": "https://en.wikipedia.org/wiki/Paiguano"
            }
        },
        {
            "type": "Feature",
            "geometry": {
                "type": "Point",
                "coordinates": [
                    -70.833333333,
                    -32.8
                ]
            },
            "properties": {
                "name": "Panquehue",
                "article": "https://en.wikipedia.org/wiki/Panquehue"
            }
        },
        {
            "type": "Feature",
            "geometry": {
                "type": "Point",
                "coordinates": [
                    -71.89922,
                    -34.64808
                ]
            },
            "properties": {
                "name": "Paredones",
                "article": "https://en.wikipedia.org/wiki/Paredones"
            }
        },
        {
            "type": "Feature",
            "geometry": {
                "type": "Point",
                "coordinates": [
                    -72.633333333,
                    -35.833333333
                ]
            },
            "properties": {
                "name": "Pelluhue",
                "article": "https://en.wikipedia.org/wiki/Pelluhue"
            }
        },
        {
            "type": "Feature",
            "geometry": {
                "type": "Point",
                "coordinates": [
                    -71.45,
                    -35.383333333
                ]
            },
            "properties": {
                "name": "Pelarco",
                "article": "https://en.wikipedia.org/wiki/Pelarco"
            }
        },
        {
            "type": "Feature",
            "geometry": {
                "type": "Point",
                "coordinates": [
                    -71.816666666,
                    -35.4
                ]
            },
            "properties": {
                "name": "Pencahue",
                "article": "https://en.wikipedia.org/wiki/Pencahue"
            }
        },
        {
            "type": "Feature",
            "geometry": {
                "type": "Point",
                "coordinates": [
                    -71.483333333,
                    -34.483333333
                ]
            },
            "properties": {
                "name": "Peralillo",
                "article": "https://en.wikipedia.org/wiki/Peralillo"
            }
        },
        {
            "type": "Feature",
            "geometry": {
                "type": "Point",
                "coordinates": [
                    -72.983333333,
                    -36.733333333
                ]
            },
            "properties": {
                "name": "Penco",
                "article": "https://en.wikipedia.org/wiki/Penco"
            }
        },
        {
            "type": "Feature",
            "geometry": {
                "type": "Point",
                "coordinates": [
                    -70.933333333,
                    -32.25
                ]
            },
            "properties": {
                "name": "Petorca",
                "article": "https://en.wikipedia.org/wiki/Petorca"
            }
        },
        {
            "type": "Feature",
            "geometry": {
                "type": "Point",
                "coordinates": [
                    -75.0,
                    -51.833333
                ]
            },
            "properties": {
                "name": "Ramírez Island",
                "article": "https://en.wikipedia.org/wiki/Ram%C3%ADrez_Island"
            }
        },
        {
            "type": "Feature",
            "geometry": {
                "type": "Point",
                "coordinates": [
                    -68.98333333,
                    -18.73333333
                ]
            },
            "properties": {
                "name": "Pukintika",
                "article": "https://en.wikipedia.org/wiki/Pukintika"
            }
        },
        {
            "type": "Feature",
            "geometry": {
                "type": "Point",
                "coordinates": [
                    -69.046944444,
                    -18.383333333
                ]
            },
            "properties": {
                "name": "Acotango",
                "article": "https://en.wikipedia.org/wiki/Acotango"
            }
        },
        {
            "type": "Feature",
            "geometry": {
                "type": "Point",
                "coordinates": [
                    -105.36257,
                    -26.4721
                ]
            },
            "properties": {
                "name": "Isla Salas y Gómez",
                "article": "https://en.wikipedia.org/wiki/Isla_Salas_y_G%C3%B3mez"
            }
        },
        {
            "type": "Feature",
            "geometry": {
                "type": "Point",
                "coordinates": [
                    -69.074722222,
                    -18.041666666
                ]
            },
            "properties": {
                "name": "Kunturiri",
                "article": "https://en.wikipedia.org/wiki/Kunturiri_(Bolivia_and_Chile)"
            }
        },
        {
            "type": "Feature",
            "geometry": {
                "type": "Point",
                "coordinates": [
                    -67.1807,
                    -22.813805555
                ]
            },
            "properties": {
                "name": "Zapaleri",
                "article": "https://en.wikipedia.org/wiki/Zapaleri"
            }
        },
        {
            "type": "Feature",
            "geometry": {
                "type": "Point",
                "coordinates": [
                    -72.645833333,
                    -42.832777777
                ]
            },
            "properties": {
                "name": "Chaitén",
                "article": "https://en.wikipedia.org/wiki/Chait%C3%A9n_(volcano)"
            }
        },
        {
            "type": "Feature",
            "geometry": {
                "type": "Point",
                "coordinates": [
                    -71.730445,
                    -38.697407
                ]
            },
            "properties": {
                "name": "Llaima",
                "article": "https://en.wikipedia.org/wiki/Llaima"
            }
        },
        {
            "type": "Feature",
            "geometry": {
                "type": "Point",
                "coordinates": [
                    -70.63333333,
                    -33.42527778
                ]
            },
            "properties": {
                "name": "Cerro San Cristóbal",
                "article": "https://en.wikipedia.org/wiki/San_Crist%C3%B3bal_Hill"
            }
        },
        {
            "type": "Feature",
            "geometry": {
                "type": "Point",
                "coordinates": [
                    -72.033333333,
                    -36.8
                ]
            },
            "properties": {
                "name": "San Ignacio",
                "article": "https://en.wikipedia.org/wiki/San_Ignacio,_Chile"
            }
        },
        {
            "type": "Feature",
            "geometry": {
                "type": "Point",
                "coordinates": [
                    -72.216666666,
                    -36.5
                ]
            },
            "properties": {
                "name": "San Nicolás",
                "article": "https://en.wikipedia.org/wiki/San_Nicol%C3%A1s,_Chile"
            }
        },
        {
            "type": "Feature",
            "geometry": {
                "type": "Point",
                "coordinates": [
                    -73.016666666,
                    -40.4
                ]
            },
            "properties": {
                "name": "San Pablo",
                "article": "https://en.wikipedia.org/wiki/San_Pablo,_Chile"
            }
        },
        {
            "type": "Feature",
            "geometry": {
                "type": "Point",
                "coordinates": [
                    -71.533333333,
                    -35.316666666
                ]
            },
            "properties": {
                "name": "San Rafael",
                "article": "https://en.wikipedia.org/wiki/San_Rafael,_Chile"
            }
        },
        {
            "type": "Feature",
            "geometry": {
                "type": "Point",
                "coordinates": [
                    -72.016666666,
                    -37.666666666
                ]
            },
            "properties": {
                "name": "Santa Bárbara",
                "article": "https://en.wikipedia.org/wiki/Santa_B%C3%A1rbara,_Chile"
            }
        },
        {
            "type": "Feature",
            "geometry": {
                "type": "Point",
                "coordinates": [
                    -73.11473,
                    -38.98482
                ]
            },
            "properties": {
                "name": "Teodoro Schmidt",
                "article": "https://en.wikipedia.org/wiki/Teodoro_Schmidt,_Chile"
            }
        },
        {
            "type": "Feature",
            "geometry": {
                "type": "Point",
                "coordinates": [
                    -73.05,
                    -38.966666666
                ]
            },
            "properties": {
                "name": "Teodoro Schmidt",
                "article": "https://en.wikipedia.org/wiki/Teodoro_Schmidt,_Chile"
            }
        },
        {
            "type": "Feature",
            "geometry": {
                "type": "Point",
                "coordinates": [
                    -73.5,
                    -38.333333333
                ]
            },
            "properties": {
                "name": "Tirúa",
                "article": "https://en.wikipedia.org/wiki/Tir%C3%BAa"
            }
        },
        {
            "type": "Feature",
            "geometry": {
                "type": "Point",
                "coordinates": [
                    -68.542222222,
                    -27.109444444
                ]
            },
            "properties": {
                "name": "Ojos del Salado",
                "article": "https://en.wikipedia.org/wiki/Ojos_del_Salado"
            }
        },
        {
            "type": "Feature",
            "geometry": {
                "type": "Point",
                "coordinates": [
                    -72.792777777,
                    -43.193055555
                ]
            },
            "properties": {
                "name": "Corcovado Volcano",
                "article": "https://en.wikipedia.org/wiki/Corcovado_Volcano"
            }
        },
        {
            "type": "Feature",
            "geometry": {
                "type": "Point",
                "coordinates": [
                    -69.089722222,
                    -18.423611111
                ]
            },
            "properties": {
                "name": "Guallatiri, Chile",
                "article": "https://en.wikipedia.org/wiki/Guallatiri"
            }
        },
        {
            "type": "Feature",
            "geometry": {
                "type": "Point",
                "coordinates": [
                    -69.141611111,
                    -18.165752777
                ]
            },
            "properties": {
                "name": "Parinacota",
                "article": "https://en.wikipedia.org/wiki/Parinacota_(volcano)"
            }
        },
        {
            "type": "Feature",
            "geometry": {
                "type": "Point",
                "coordinates": [
                    -69.1525,
                    -18.2425
                ]
            },
            "properties": {
                "name": "Chungará Lake",
                "article": "https://en.wikipedia.org/wiki/Chungar%C3%A1_Lake"
            }
        },
        {
            "type": "Feature",
            "geometry": {
                "type": "Point",
                "coordinates": [
                    -78.941841698,
                    -33.706680919
                ]
            },
            "properties": {
                "name": "Santa Clara Island",
                "article": "https://en.wikipedia.org/wiki/Santa_Clara_Island"
            }
        },
        {
            "type": "Feature",
            "geometry": {
                "type": "Point",
                "coordinates": [
                    -73.283333333,
                    -49.358333333
                ]
            },
            "properties": {
                "name": "Viedma",
                "article": "https://en.wikipedia.org/wiki/Viedma_(volcano)"
            }
        },
        {
            "type": "Feature",
            "geometry": {
                "type": "Point",
                "coordinates": [
                    -68.37,
                    -25.08
                ]
            },
            "properties": {
                "name": "Cerro Escorial",
                "article": "https://en.wikipedia.org/wiki/Cerro_Escorial"
            }
        },
        {
            "type": "Feature",
            "geometry": {
                "type": "Point",
                "coordinates": [
                    -68.516666666,
                    -25.333333333
                ]
            },
            "properties": {
                "name": "Cordón del Azufre",
                "article": "https://en.wikipedia.org/wiki/Cord%C3%B3n_del_Azufre"
            }
        },
        {
            "type": "Feature",
            "geometry": {
                "type": "Point",
                "coordinates": [
                    -78.841111111,
                    -33.641388888
                ]
            },
            "properties": {
                "name": "Robinson Crusoe Island",
                "article": "https://en.wikipedia.org/wiki/Robinson_Crusoe_Island"
            }
        },
        {
            "type": "Feature",
            "geometry": {
                "type": "Point",
                "coordinates": [
                    -67.617222222,
                    -23.295833333
                ]
            },
            "properties": {
                "name": "Acamarachi",
                "article": "https://en.wikipedia.org/wiki/Acamarachi"
            }
        },
        {
            "type": "Feature",
            "geometry": {
                "type": "Point",
                "coordinates": [
                    -69.05,
                    -18.75
                ]
            },
            "properties": {
                "name": "Arintica",
                "article": "https://en.wikipedia.org/wiki/Arintica"
            }
        },
        {
            "type": "Feature",
            "geometry": {
                "type": "Point",
                "coordinates": [
                    -68.566666666,
                    -20.733333333
                ]
            },
            "properties": {
                "name": "Irruputuncu",
                "article": "https://en.wikipedia.org/wiki/Irruputuncu"
            }
        },
        {
            "type": "Feature",
            "geometry": {
                "type": "Point",
                "coordinates": [
                    -71.499722222,
                    -39.632777777
                ]
            },
            "properties": {
                "name": "Lanín",
                "article": "https://en.wikipedia.org/wiki/Lan%C3%ADn"
            }
        },
        {
            "type": "Feature",
            "geometry": {
                "type": "Point",
                "coordinates": [
                    -73.788055555,
                    -50.402222222
                ]
            },
            "properties": {
                "name": "Aguilera",
                "article": "https://en.wikipedia.org/wiki/Aguilera_(volcano)"
            }
        },
        {
            "type": "Feature",
            "geometry": {
                "type": "Point",
                "coordinates": [
                    -73.04016,
                    -49.27959
                ]
            },
            "properties": {
                "name": "Aguja Poincenot",
                "article": null
            }
        },
        {
            "type": "Feature",
            "geometry": {
                "type": "Point",
                "coordinates": [
                    -69.126719444,
                    -18.126275
                ]
            },
            "properties": {
                "name": "Pomerape",
                "article": "https://en.wikipedia.org/wiki/Pomerape"
            }
        },
        {
            "type": "Feature",
            "geometry": {
                "type": "Point",
                "coordinates": [
                    -68.256111111,
                    -24.393333333
                ]
            },
            "properties": {
                "name": "Socompa",
                "article": "https://en.wikipedia.org/wiki/Socompa"
            }
        },
        {
            "type": "Feature",
            "geometry": {
                "type": "Point",
                "coordinates": [
                    -71.8875,
                    -41.160833333
                ]
            },
            "properties": {
                "name": "Tronador",
                "article": "https://en.wikipedia.org/wiki/Tronador"
            }
        },
        {
            "type": "Feature",
            "geometry": {
                "type": "Point",
                "coordinates": [
                    -73.393333333,
                    -39.890555555
                ]
            },
            "properties": {
                "name": "Mancera Island",
                "article": "https://en.wikipedia.org/wiki/Mancera_Island"
            }
        },
        {
            "type": "Feature",
            "geometry": {
                "type": "Point",
                "coordinates": [
                    -70.58,
                    -53.97
                ]
            },
            "properties": {
                "name": "Dawson Island",
                "article": "https://en.wikipedia.org/wiki/Dawson_Island"
            }
        },
        {
            "type": "Feature",
            "geometry": {
                "type": "Point",
                "coordinates": [
                    -109.322777777,
                    -27.073888888
                ]
            },
            "properties": {
                "name": "Anakena",
                "article": "https://en.wikipedia.org/wiki/Anakena"
            }
        },
        {
            "type": "Feature",
            "geometry": {
                "type": "Point",
                "coordinates": [
                    -71.715,
                    -46.4375
                ]
            },
            "properties": {
                "name": "Lake General Carrera/Buenos Aires",
                "article": "https://en.wikipedia.org/wiki/General_Carrera_Lake"
            }
        },
        {
            "type": "Feature",
            "geometry": {
                "type": "Point",
                "coordinates": [
                    -73.993333333,
                    -42.676666666
                ]
            },
            "properties": {
                "name": "Chiloé Island",
                "article": "https://en.wikipedia.org/wiki/Chilo%C3%A9_Island"
            }
        },
        {
            "type": "Feature",
            "geometry": {
                "type": "Point",
                "coordinates": [
                    -68.010277777,
                    -22.331388888
                ]
            },
            "properties": {
                "name": "El Tatio",
                "article": "https://en.wikipedia.org/wiki/El_Tatio"
            }
        },
        {
            "type": "Feature",
            "geometry": {
                "type": "Point",
                "coordinates": [
                    -71.58333333,
                    -38.58333333
                ]
            },
            "properties": {
                "name": "Sierra Nevada",
                "article": "https://en.wikipedia.org/wiki/Sierra_Nevada_(stratovolcano)"
            }
        },
        {
            "type": "Feature",
            "geometry": {
                "type": "Point",
                "coordinates": [
                    -109.379444444,
                    -27.084444444
                ]
            },
            "properties": {
                "name": "Terevaka",
                "article": "https://en.wikipedia.org/wiki/Terevaka"
            }
        },
        {
            "type": "Feature",
            "geometry": {
                "type": "Point",
                "coordinates": [
                    -73.5847,
                    -50.9639
                ]
            },
            "properties": {
                "name": "Reclus",
                "article": "https://en.wikipedia.org/wiki/Reclus_(volcano)"
            }
        },
        {
            "type": "Feature",
            "geometry": {
                "type": "Point",
                "coordinates": [
                    -71.773333333,
                    -39.127777777
                ]
            },
            "properties": {
                "name": "Caburgua Lake",
                "article": "https://en.wikipedia.org/wiki/Caburgua_Lake"
            }
        },
        {
            "type": "Feature",
            "geometry": {
                "type": "Point",
                "coordinates": [
                    -72.833333333,
                    -46.916666666
                ]
            },
            "properties": {
                "name": "Bertrand Lake",
                "article": "https://en.wikipedia.org/wiki/Bertrand_Lake"
            }
        },
        {
            "type": "Feature",
            "geometry": {
                "type": "Point",
                "coordinates": [
                    -68.716666666,
                    -27.108333333
                ]
            },
            "properties": {
                "name": "Cerro Solo",
                "article": "https://en.wikipedia.org/wiki/Cerro_Solo"
            }
        },
        {
            "type": "Feature",
            "geometry": {
                "type": "Point",
                "coordinates": [
                    -72.117222222,
                    -40.590277777
                ]
            },
            "properties": {
                "name": "Puyehue-Cordón Caulle",
                "article": "https://en.wikipedia.org/wiki/Puyehue-Cord%C3%B3n_Caulle"
            }
        },
        {
            "type": "Feature",
            "geometry": {
                "type": "Point",
                "coordinates": [
                    -67.270833,
                    -55.947222
                ]
            },
            "properties": {
                "name": "Hornos Island",
                "article": "https://en.wikipedia.org/wiki/Hornos_Island"
            }
        },
        {
            "type": "Feature",
            "geometry": {
                "type": "Point",
                "coordinates": [
                    -71.8875,
                    -41.160833333
                ]
            },
            "properties": {
                "name": "Tronador",
                "article": "https://en.wikipedia.org/wiki/Tronador"
            }
        },
        {
            "type": "Feature",
            "geometry": {
                "type": "Point",
                "coordinates": [
                    -73.393333333,
                    -39.890555555
                ]
            },
            "properties": {
                "name": "Mancera Island",
                "article": "https://en.wikipedia.org/wiki/Mancera_Island"
            }
        },
        {
            "type": "Feature",
            "geometry": {
                "type": "Point",
                "coordinates": [
                    -70.58,
                    -53.97
                ]
            },
            "properties": {
                "name": "Dawson Island",
                "article": "https://en.wikipedia.org/wiki/Dawson_Island"
            }
        },
        {
            "type": "Feature",
            "geometry": {
                "type": "Point",
                "coordinates": [
                    -109.322777777,
                    -27.073888888
                ]
            },
            "properties": {
                "name": "Anakena",
                "article": "https://en.wikipedia.org/wiki/Anakena"
            }
        },
        {
            "type": "Feature",
            "geometry": {
                "type": "Point",
                "coordinates": [
                    -71.715,
                    -46.4375
                ]
            },
            "properties": {
                "name": "Lake General Carrera/Buenos Aires",
                "article": "https://en.wikipedia.org/wiki/General_Carrera_Lake"
            }
        },
        {
            "type": "Feature",
            "geometry": {
                "type": "Point",
                "coordinates": [
                    -73.993333333,
                    -42.676666666
                ]
            },
            "properties": {
                "name": "Chiloé Island",
                "article": "https://en.wikipedia.org/wiki/Chilo%C3%A9_Island"
            }
        },
        {
            "type": "Feature",
            "geometry": {
                "type": "Point",
                "coordinates": [
                    -68.010277777,
                    -22.331388888
                ]
            },
            "properties": {
                "name": "El Tatio",
                "article": "https://en.wikipedia.org/wiki/El_Tatio"
            }
        },
        {
            "type": "Feature",
            "geometry": {
                "type": "Point",
                "coordinates": [
                    -71.58333333,
                    -38.58333333
                ]
            },
            "properties": {
                "name": "Sierra Nevada",
                "article": "https://en.wikipedia.org/wiki/Sierra_Nevada_(stratovolcano)"
            }
        },
        {
            "type": "Feature",
            "geometry": {
                "type": "Point",
                "coordinates": [
                    -109.379444444,
                    -27.084444444
                ]
            },
            "properties": {
                "name": "Terevaka",
                "article": "https://en.wikipedia.org/wiki/Terevaka"
            }
        },
        {
            "type": "Feature",
            "geometry": {
                "type": "Point",
                "coordinates": [
                    -73.5847,
                    -50.9639
                ]
            },
            "properties": {
                "name": "Reclus",
                "article": "https://en.wikipedia.org/wiki/Reclus_(volcano)"
            }
        },
        {
            "type": "Feature",
            "geometry": {
                "type": "Point",
                "coordinates": [
                    -71.773333333,
                    -39.127777777
                ]
            },
            "properties": {
                "name": "Caburgua Lake",
                "article": "https://en.wikipedia.org/wiki/Caburgua_Lake"
            }
        },
        {
            "type": "Feature",
            "geometry": {
                "type": "Point",
                "coordinates": [
                    -72.833333333,
                    -46.916666666
                ]
            },
            "properties": {
                "name": "Bertrand Lake",
                "article": "https://en.wikipedia.org/wiki/Bertrand_Lake"
            }
        },
        {
            "type": "Feature",
            "geometry": {
                "type": "Point",
                "coordinates": [
                    -68.716666666,
                    -27.108333333
                ]
            },
            "properties": {
                "name": "Cerro Solo",
                "article": "https://en.wikipedia.org/wiki/Cerro_Solo"
            }
        },
        {
            "type": "Feature",
            "geometry": {
                "type": "Point",
                "coordinates": [
                    -72.117222222,
                    -40.590277777
                ]
            },
            "properties": {
                "name": "Puyehue-Cordón Caulle",
                "article": "https://en.wikipedia.org/wiki/Puyehue-Cord%C3%B3n_Caulle"
            }
        },
        {
            "type": "Feature",
            "geometry": {
                "type": "Point",
                "coordinates": [
                    -67.270833,
                    -55.947222
                ]
            },
            "properties": {
                "name": "Hornos Island",
                "article": "https://en.wikipedia.org/wiki/Hornos_Island"
            }
        },
        {
            "type": "Feature",
            "geometry": {
                "type": "Point",
                "coordinates": [
                    -70.8275,
                    -27.06
                ]
            },
            "properties": {
                "name": "Battle of Caldera Bay",
                "article": "https://en.wikipedia.org/wiki/Battle_of_Caldera_Bay"
            }
        },
        {
            "type": "Feature",
            "geometry": {
                "type": "Point",
                "coordinates": [
                    -68.778055555,
                    -27.098055555
                ]
            },
            "properties": {
                "name": "Nevado Tres Cruces",
                "article": "https://en.wikipedia.org/wiki/Nevado_Tres_Cruces"
            }
        },
        {
            "type": "Feature",
            "geometry": {
                "type": "Point",
                "coordinates": [
                    -71.351111111,
                    -37.41
                ]
            },
            "properties": {
                "name": "Antuco",
                "article": "https://en.wikipedia.org/wiki/Antuco_(volcano)"
            }
        },
        {
            "type": "Feature",
            "geometry": {
                "type": "Point",
                "coordinates": [
                    -72.583333333,
                    -41.883333333
                ]
            },
            "properties": {
                "name": "Apagado",
                "article": "https://en.wikipedia.org/wiki/Apagado"
            }
        },
        {
            "type": "Feature",
            "geometry": {
                "type": "Point",
                "coordinates": [
                    -71.944027,
                    -40.713175
                ]
            },
            "properties": {
                "name": "Cardenal Antonio Samoré Pass",
                "article": "https://en.wikipedia.org/wiki/Cardenal_Antonio_Samor%C3%A9_Pass"
            }
        },
        {
            "type": "Feature",
            "geometry": {
                "type": "Point",
                "coordinates": [
                    -68.5,
                    -25.166666666
                ]
            },
            "properties": {
                "name": "Lastarria",
                "article": "https://en.wikipedia.org/wiki/Lastarria"
            }
        },
        {
            "type": "Feature",
            "geometry": {
                "type": "Point",
                "coordinates": [
                    -69.0458,
                    -18.415
                ]
            },
            "properties": {
                "name": "Cerro Capurata",
                "article": "https://en.wikipedia.org/wiki/Cerro_Capurata"
            }
        },
        {
            "type": "Feature",
            "geometry": {
                "type": "Point",
                "coordinates": [
                    -73.4675,
                    -47.197222222
                ]
            },
            "properties": {
                "name": "Cerro Arenales",
                "article": "https://en.wikipedia.org/wiki/Cerro_Arenales"
            }
        },
        {
            "type": "Feature",
            "geometry": {
                "type": "Point",
                "coordinates": [
                    -72.0059,
                    -41.3646
                ]
            },
            "properties": {
                "name": "Cuernos del Diablo",
                "article": null
            }
        },
        {
            "type": "Feature",
            "geometry": {
                "type": "Point",
                "coordinates": [
                    -71.446666666,
                    -32.498888888
                ]
            },
            "properties": {
                "name": "Battle of Papudo",
                "article": "https://en.wikipedia.org/wiki/Battle_of_Papudo"
            }
        },
        {
            "type": "Feature",
            "geometry": {
                "type": "Point",
                "coordinates": [
                    -74.666667,
                    -51.0
                ]
            },
            "properties": {
                "name": "Hanover Island",
                "article": "https://en.wikipedia.org/wiki/Hanover_Island"
            }
        },
        {
            "type": "Feature",
            "geometry": {
                "type": "Point",
                "coordinates": [
                    -69.1333,
                    -18.15
                ]
            },
            "properties": {
                "name": "Nevados de Payachata",
                "article": "https://en.wikipedia.org/wiki/Payachata"
            }
        },
        {
            "type": "Feature",
            "geometry": {
                "type": "Point",
                "coordinates": [
                    -72.05,
                    -47.266666666
                ]
            },
            "properties": {
                "name": "Cochrane/Pueyrredón Lake",
                "article": "https://en.wikipedia.org/wiki/Cochrane/Pueyrred%C3%B3n_Lake"
            }
        },
        {
            "type": "Feature",
            "geometry": {
                "type": "Point",
                "coordinates": [
                    -69.770416666,
                    -33.358555555
                ]
            },
            "properties": {
                "name": "Tupungato Volcano",
                "article": "https://en.wikipedia.org/wiki/Tupungato"
            }
        },
        {
            "type": "Feature",
            "geometry": {
                "type": "Point",
                "coordinates": [
                    -68.466666666,
                    -21.216666666
                ]
            },
            "properties": {
                "name": "Aucanquilcha",
                "article": "https://en.wikipedia.org/wiki/Aucanquilcha"
            }
        },
        {
            "type": "Feature",
            "geometry": {
                "type": "Point",
                "coordinates": [
                    -71.682493,
                    -43.944412
                ]
            },
            "properties": {
                "name": "Palena/General Vintter Lake",
                "article": "https://en.wikipedia.org/wiki/Vintter_Lake"
            }
        },
        {
            "type": "Feature",
            "geometry": {
                "type": "Point",
                "coordinates": [
                    -70.93425,
                    -53.607416666
                ]
            },
            "properties": {
                "name": "Puerto del Hambre",
                "article": "https://en.wikipedia.org/wiki/Puerto_del_Hambre"
            }
        },
        {
            "type": "Feature",
            "geometry": {
                "type": "Point",
                "coordinates": [
                    -69.90730556,
                    -29.93894444
                ]
            },
            "properties": {
                "name": "Cerro Las Tórtolas",
                "article": "https://en.wikipedia.org/wiki/Cerro_Las_T%C3%B3rtolas"
            }
        },
        {
            "type": "Feature",
            "geometry": {
                "type": "Point",
                "coordinates": [
                    -69.9,
                    -29.933333333
                ]
            },
            "properties": {
                "name": "Cerro Las Tórtolas",
                "article": "https://en.wikipedia.org/wiki/Cerro_Las_T%C3%B3rtolas"
            }
        },
        {
            "type": "Feature",
            "geometry": {
                "type": "Point",
                "coordinates": [
                    -72.80998,
                    -41.13239
                ]
            },
            "properties": {
                "name": "Llanquihue Lake",
                "article": "https://en.wikipedia.org/wiki/Llanquihue_Lake"
            }
        },
        {
            "type": "Feature",
            "geometry": {
                "type": "Point",
                "coordinates": [
                    -72.783333333,
                    -41.133333333
                ]
            },
            "properties": {
                "name": "Llanquihue Lake",
                "article": "https://en.wikipedia.org/wiki/Llanquihue_Lake"
            }
        },
        {
            "type": "Feature",
            "geometry": {
                "type": "Point",
                "coordinates": [
                    -73.3,
                    -37.916666666
                ]
            },
            "properties": {
                "name": "Lanalhue Lake",
                "article": "https://en.wikipedia.org/wiki/Lanalhue_Lake"
            }
        },
        {
            "type": "Feature",
            "geometry": {
                "type": "Point",
                "coordinates": [
                    -70.833333333,
                    -54.45
                ]
            },
            "properties": {
                "name": "Monte Sarmiento",
                "article": "https://en.wikipedia.org/wiki/Monte_Sarmiento"
            }
        },
        {
            "type": "Feature",
            "geometry": {
                "type": "Point",
                "coordinates": [
                    -72.493055555,
                    -41.1
                ]
            },
            "properties": {
                "name": "Osorno",
                "article": "https://en.wikipedia.org/wiki/Osorno_(volcano)"
            }
        },
        {
            "type": "Feature",
            "geometry": {
                "type": "Point",
                "coordinates": [
                    -70.404722222,
                    -24.627222222
                ]
            },
            "properties": {
                "name": "Cerro Paranal",
                "article": "https://en.wikipedia.org/wiki/Cerro_Paranal"
            }
        },
        {
            "type": "Feature",
            "geometry": {
                "type": "Point",
                "coordinates": [
                    -69.832166666,
                    -34.163916666
                ]
            },
            "properties": {
                "name": "Volcán Maipo",
                "article": "https://en.wikipedia.org/wiki/Maipo_(volcano)"
            }
        },
        {
            "type": "Feature",
            "geometry": {
                "type": "Point",
                "coordinates": [
                    -69.5075,
                    -18.112777777
                ]
            },
            "properties": {
                "name": "Taapaca",
                "article": "https://en.wikipedia.org/wiki/Taapaca"
            }
        },
        {
            "type": "Feature",
            "geometry": {
                "type": "Point",
                "coordinates": [
                    -73.075833333,
                    -44.696666666
                ]
            },
            "properties": {
                "name": "Mentolat",
                "article": "https://en.wikipedia.org/wiki/Mentolat"
            }
        },
        {
            "type": "Feature",
            "geometry": {
                "type": "Point",
                "coordinates": [
                    -70.666666666,
                    -33.35
                ]
            },
            "properties": {
                "name": "Huechuraba",
                "article": "https://en.wikipedia.org/wiki/Huechuraba"
            }
        },
        {
            "type": "Feature",
            "geometry": {
                "type": "Point",
                "coordinates": [
                    -70.9,
                    -33.75
                ]
            },
            "properties": {
                "name": "Isla de Maipo",
                "article": "https://en.wikipedia.org/wiki/Isla_de_Maipo"
            }
        },
        {
            "type": "Feature",
            "geometry": {
                "type": "Point",
                "coordinates": [
                    -109.354722222,
                    -27.119444444
                ]
            },
            "properties": {
                "name": "Easter Island",
                "article": "https://en.wikipedia.org/wiki/Easter_Island"
            }
        },
        {
            "type": "Feature",
            "geometry": {
                "type": "Point",
                "coordinates": [
                    -71.666666666,
                    -34.2
                ]
            },
            "properties": {
                "name": "La Estrella",
                "article": "https://en.wikipedia.org/wiki/La_Estrella,_Chile"
            }
        },
        {
            "type": "Feature",
            "geometry": {
                "type": "Point",
                "coordinates": [
                    -71.266666666,
                    -29.5
                ]
            },
            "properties": {
                "name": "La Higuera",
                "article": "https://en.wikipedia.org/wiki/La_Higuera,_Chile"
            }
        },
        {
            "type": "Feature",
            "geometry": {
                "type": "Point",
                "coordinates": [
                    -72.5,
                    -40.316666666
                ]
            },
            "properties": {
                "name": "Angol",
                "article": "https://en.wikipedia.org/wiki/Lago_Ranco,_Chile"
            }
        },
        {
            "type": "Feature",
            "geometry": {
                "type": "Point",
                "coordinates": [
                    -72.0,
                    -34.983333333
                ]
            },
            "properties": {
                "name": "Licantén",
                "article": "https://en.wikipedia.org/wiki/Licant%C3%A9n"
            }
        },
        {
            "type": "Feature",
            "geometry": {
                "type": "Point",
                "coordinates": [
                    -71.283333333,
                    -32.983333333
                ]
            },
            "properties": {
                "name": "Limache",
                "article": "https://en.wikipedia.org/wiki/Limache"
            }
        },
        {
            "type": "Feature",
            "geometry": {
                "type": "Point",
                "coordinates": [
                    -70.966666666,
                    -32.85
                ]
            },
            "properties": {
                "name": "Llaillay",
                "article": "https://en.wikipedia.org/wiki/Llay-Llay"
            }
        },
        {
            "type": "Feature",
            "geometry": {
                "type": "Point",
                "coordinates": [
                    -71.733333333,
                    -34.116666666
                ]
            },
            "properties": {
                "name": "Litueche",
                "article": "https://en.wikipedia.org/wiki/Litueche"
            }
        },
        {
            "type": "Feature",
            "geometry": {
                "type": "Point",
                "coordinates": [
                    -72.383333333,
                    -38.416666666
                ]
            },
            "properties": {
                "name": "Perquenco",
                "article": "https://en.wikipedia.org/wiki/Perquenco"
            }
        },
        {
            "type": "Feature",
            "geometry": {
                "type": "Point",
                "coordinates": [
                    -71.644722222,
                    -34.728611111
                ]
            },
            "properties": {
                "name": "Lolol",
                "article": "https://en.wikipedia.org/wiki/Lolol"
            }
        },
        {
            "type": "Feature",
            "geometry": {
                "type": "Point",
                "coordinates": [
                    -71.233333333,
                    -38.433333333
                ]
            },
            "properties": {
                "name": "Lonquimay",
                "article": "https://en.wikipedia.org/wiki/Lonquimay"
            }
        },
        {
            "type": "Feature",
            "geometry": {
                "type": "Point",
                "coordinates": [
                    -72.833333333,
                    -37.966666666
                ]
            },
            "properties": {
                "name": "Los Sauces",
                "article": "https://en.wikipedia.org/wiki/Los_Sauces"
            }
        },
        {
            "type": "Feature",
            "geometry": {
                "type": "Point",
                "coordinates": [
                    -72.916666666,
                    -38.15
                ]
            },
            "properties": {
                "name": "Lumaco",
                "article": "https://en.wikipedia.org/wiki/Lumaco"
            }
        },
        {
            "type": "Feature",
            "geometry": {
                "type": "Point",
                "coordinates": [
                    -70.95,
                    -34.45
                ]
            },
            "properties": {
                "name": "Malloa",
                "article": "https://en.wikipedia.org/wiki/Malloa"
            }
        },
        {
            "type": "Feature",
            "geometry": {
                "type": "Point",
                "coordinates": [
                    -69.666666666,
                    -22.35
                ]
            },
            "properties": {
                "name": "María Elena",
                "article": "https://en.wikipedia.org/wiki/Mar%C3%ADa_Elena,_Chile"
            }
        },
        {
            "type": "Feature",
            "geometry": {
                "type": "Point",
                "coordinates": [
                    -71.52,
                    -38.975
                ]
            },
            "properties": {
                "name": "Sollipulli",
                "article": "https://en.wikipedia.org/wiki/Sollipulli"
            }
        },
        {
            "type": "Feature",
            "geometry": {
                "type": "Point",
                "coordinates": [
                    -69.798055555,
                    -33.423888888
                ]
            },
            "properties": {
                "name": "Tupungatito",
                "article": "https://en.wikipedia.org/wiki/Tupungatito"
            }
        },
        {
            "type": "Feature",
            "geometry": {
                "type": "Point",
                "coordinates": [
                    -68.667777777,
                    -26.993611111
                ]
            },
            "properties": {
                "name": "Barrancas Blancas",
                "article": "https://en.wikipedia.org/wiki/Barrancas_Blancas"
            }
        },
        {
            "type": "Feature",
            "geometry": {
                "type": "Point",
                "coordinates": [
                    -72.75,
                    -53.75
                ]
            },
            "properties": {
                "name": "Santa Inés Island",
                "article": "https://en.wikipedia.org/wiki/Santa_In%C3%A9s_Island"
            }
        },
        {
            "type": "Feature",
            "geometry": {
                "type": "Point",
                "coordinates": [
                    -74.5333,
                    -45.2167
                ]
            },
            "properties": {
                "name": "Traiguen Island",
                "article": "https://en.wikipedia.org/wiki/Traigu%C3%A9n_Island"
            }
        },
        {
            "type": "Feature",
            "geometry": {
                "type": "Point",
                "coordinates": [
                    -73.204444444,
                    -41.504722222
                ]
            },
            "properties": {
                "name": "Monte Verde",
                "article": "https://en.wikipedia.org/wiki/Monte_Verde"
            }
        },
        {
            "type": "Feature",
            "geometry": {
                "type": "Point",
                "coordinates": [
                    -67.891666666,
                    -22.716666666
                ]
            },
            "properties": {
                "name": "Sairecabur",
                "article": "https://en.wikipedia.org/wiki/Sairecabur"
            }
        },
        {
            "type": "Feature",
            "geometry": {
                "type": "Point",
                "coordinates": [
                    -68.37,
                    -26.8
                ]
            },
            "properties": {
                "name": "Falso Azufre",
                "article": "https://en.wikipedia.org/wiki/Falso_Azufre"
            }
        },
        {
            "type": "Feature",
            "geometry": {
                "type": "Point",
                "coordinates": [
                    -68.3629,
                    -26.7997
                ]
            },
            "properties": {
                "name": "Falso Azufre",
                "article": "https://en.wikipedia.org/wiki/Falso_Azufre"
            }
        },
        {
            "type": "Feature",
            "geometry": {
                "type": "Point",
                "coordinates": [
                    -72.611111111,
                    -41.332777777
                ]
            },
            "properties": {
                "name": "Calbuco",
                "article": "https://en.wikipedia.org/wiki/Calbuco_(volcano)"
            }
        },
        {
            "type": "Feature",
            "geometry": {
                "type": "Point",
                "coordinates": [
                    -71.939166666,
                    -39.42
                ]
            },
            "properties": {
                "name": "Villarrica Volcano",
                "article": "https://en.wikipedia.org/wiki/Villarrica_(volcano)"
            }
        },
        {
            "type": "Feature",
            "geometry": {
                "type": "Point",
                "coordinates": [
                    -74.916666666,
                    -49.366666666
                ]
            },
            "properties": {
                "name": "Wellington Island",
                "article": "https://en.wikipedia.org/wiki/Wellington_Island"
            }
        },
        {
            "type": "Feature",
            "geometry": {
                "type": "Point",
                "coordinates": [
                    -70.1918,
                    -24.5899
                ]
            },
            "properties": {
                "name": "Cerro Armazones",
                "article": "https://en.wikipedia.org/wiki/Cerro_Armazones"
            }
        },
        {
            "type": "Feature",
            "geometry": {
                "type": "Point",
                "coordinates": [
                    -70.760833333,
                    -35.653333333
                ]
            },
            "properties": {
                "name": "Cerro Azul",
                "article": "https://en.wikipedia.org/wiki/Cerro_Azul_(Chile_volcano)"
            }
        },
        {
            "type": "Feature",
            "geometry": {
                "type": "Point",
                "coordinates": [
                    -78.85083333,
                    -33.65388889
                ]
            },
            "properties": {
                "name": "El Yunque Hill",
                "article": null
            }
        },
        {
            "type": "Feature",
            "geometry": {
                "type": "Point",
                "coordinates": [
                    -71.016666666,
                    -32.984722222
                ]
            },
            "properties": {
                "name": "Cerro El Roble",
                "article": "https://en.wikipedia.org/wiki/Cerro_El_Roble"
            }
        },
        {
            "type": "Feature",
            "geometry": {
                "type": "Point",
                "coordinates": [
                    -71.013333333,
                    -32.975555555
                ]
            },
            "properties": {
                "name": "Cerro El Roble",
                "article": "https://en.wikipedia.org/wiki/Cerro_El_Roble"
            }
        },
        {
            "type": "Feature",
            "geometry": {
                "type": "Point",
                "coordinates": [
                    -72.95,
                    -45.92
                ]
            },
            "properties": {
                "name": "Mount Hudson",
                "article": "https://en.wikipedia.org/wiki/Hudson_Volcano"
            }
        },
        {
            "type": "Feature",
            "geometry": {
                "type": "Point",
                "coordinates": [
                    -67.96444444,
                    -22.05416667
                ]
            },
            "properties": {
                "name": "Cerro Silala",
                "article": null
            }
        },
        {
            "type": "Feature",
            "geometry": {
                "type": "Point",
                "coordinates": [
                    -70.64416667,
                    -33.44027778
                ]
            },
            "properties": {
                "name": "Santa Lucía Hill",
                "article": "https://en.wikipedia.org/wiki/Santa_Luc%C3%ADa_Hill"
            }
        },
        {
            "type": "Feature",
            "geometry": {
                "type": "Point",
                "coordinates": [
                    -73.09901,
                    -49.2906
                ]
            },
            "properties": {
                "name": "Cerro Torre",
                "article": "https://en.wikipedia.org/wiki/Cerro_Torre"
            }
        },
        {
            "type": "Feature",
            "geometry": {
                "type": "Point",
                "coordinates": [
                    -68.239722222,
                    -21.783055555
                ]
            },
            "properties": {
                "name": "Cerro del Azufre",
                "article": "https://en.wikipedia.org/wiki/Cerro_del_Azufre"
            }
        },
        {
            "type": "Feature",
            "geometry": {
                "type": "Point",
                "coordinates": [
                    -67.55,
                    -24.033333333
                ]
            },
            "properties": {
                "name": "Cerros de Incahuasi",
                "article": "https://en.wikipedia.org/wiki/Cerros_de_Incahuasi"
            }
        },
        {
            "type": "Feature",
            "geometry": {
                "type": "Point",
                "coordinates": [
                    -70.77194444,
                    -33.50111111
                ]
            },
            "properties": {
                "name": "Battle of Maipú",
                "article": "https://en.wikipedia.org/wiki/Battle_of_Maip%C3%BA"
            }
        },
        {
            "type": "Feature",
            "geometry": {
                "type": "Point",
                "coordinates": [
                    -68.483333333,
                    -20.933333333
                ]
            },
            "properties": {
                "name": "Paruma",
                "article": "https://en.wikipedia.org/wiki/Paruma"
            }
        },
        {
            "type": "Feature",
            "geometry": {
                "type": "Point",
                "coordinates": [
                    -75.3333,
                    -50.3833
                ]
            },
            "properties": {
                "name": "Guarello Island",
                "article": "https://en.wikipedia.org/wiki/Guarello_Island"
            }
        },
        {
            "type": "Feature",
            "geometry": {
                "type": "Point",
                "coordinates": [
                    -69.4333,
                    -55.0667
                ]
            },
            "properties": {
                "name": "Londonderry Island",
                "article": "https://en.wikipedia.org/wiki/Londonderry_Island"
            }
        },
        {
            "type": "Feature",
            "geometry": {
                "type": "Point",
                "coordinates": [
                    -75.0,
                    -48.25
                ]
            },
            "properties": {
                "name": "Prat Island",
                "article": "https://en.wikipedia.org/wiki/Prat_Island"
            }
        },
        {
            "type": "Feature",
            "geometry": {
                "type": "Point",
                "coordinates": [
                    -72.263888888,
                    -40.969444444
                ]
            },
            "properties": {
                "name": "Puntiagudo-Cordón Cenizos",
                "article": "https://en.wikipedia.org/wiki/Puntiagudo-Cord%C3%B3n_Cenizos"
            }
        },
        {
            "type": "Feature",
            "geometry": {
                "type": "Point",
                "coordinates": [
                    -67.666666666,
                    -55.083333333
                ]
            },
            "properties": {
                "name": "Navarino Island",
                "article": "https://en.wikipedia.org/wiki/Navarino_Island"
            }
        },
        {
            "type": "Feature",
            "geometry": {
                "type": "Point",
                "coordinates": [
                    -68.25,
                    -23.5
                ]
            },
            "properties": {
                "name": "Salar de Atacama",
                "article": "https://en.wikipedia.org/wiki/Salar_de_Atacama"
            }
        },
        {
            "type": "Feature",
            "geometry": {
                "type": "Point",
                "coordinates": [
                    -69.63305556,
                    -19.94888889
                ]
            },
            "properties": {
                "name": "Atacama Giant",
                "article": "https://en.wikipedia.org/wiki/Atacama_Giant"
            }
        },
        {
            "type": "Feature",
            "geometry": {
                "type": "Point",
                "coordinates": [
                    -68.483333333,
                    -20.933333333
                ]
            },
            "properties": {
                "name": "Olca",
                "article": "https://en.wikipedia.org/wiki/Olca"
            }
        },
        {
            "type": "Feature",
            "geometry": {
                "type": "Point",
                "coordinates": [
                    -71.7,
                    -39.5
                ]
            },
            "properties": {
                "name": "Quetrupillán",
                "article": "https://en.wikipedia.org/wiki/Quetrupill%C3%A1n"
            }
        },
        {
            "type": "Feature",
            "geometry": {
                "type": "Point",
                "coordinates": [
                    -70.75,
                    -35.583333333
                ]
            },
            "properties": {
                "name": "Descabezado Grande",
                "article": "https://en.wikipedia.org/wiki/Descabezado_Grande"
            }
        },
        {
            "type": "Feature",
            "geometry": {
                "type": "Point",
                "coordinates": [
                    -68.0,
                    -54.63333
                ]
            },
            "properties": {
                "name": "Lake Fagnano",
                "article": "https://en.wikipedia.org/wiki/Lago_Fagnano"
            }
        },
        {
            "type": "Feature",
            "geometry": {
                "type": "Point",
                "coordinates": [
                    -67.983333333,
                    -54.543333333
                ]
            },
            "properties": {
                "name": "Lake Fagnano",
                "article": "https://en.wikipedia.org/wiki/Lago_Fagnano"
            }
        },
        {
            "type": "Feature",
            "geometry": {
                "type": "Point",
                "coordinates": [
                    -68.483888888,
                    -27.0575
                ]
            },
            "properties": {
                "name": "Cerro El Muerto",
                "article": "https://en.wikipedia.org/wiki/Cerro_El_Muerto"
            }
        },
        {
            "type": "Feature",
            "geometry": {
                "type": "Point",
                "coordinates": [
                    -70.212222222,
                    -33.232777777
                ]
            },
            "properties": {
                "name": "El Plomo",
                "article": "https://en.wikipedia.org/wiki/Cerro_El_Plomo"
            }
        },
        {
            "type": "Feature",
            "geometry": {
                "type": "Point",
                "coordinates": [
                    -69.049722222,
                    -18.355555555
                ]
            },
            "properties": {
                "name": "Umurata",
                "article": "https://en.wikipedia.org/wiki/Umurata"
            }
        },
        {
            "type": "Feature",
            "geometry": {
                "type": "Point",
                "coordinates": [
                    -67.983333333,
                    -54.543333333
                ]
            },
            "properties": {
                "name": "Lake Fagnano",
                "article": "https://en.wikipedia.org/wiki/Lago_Fagnano"
            }
        },
        {
            "type": "Feature",
            "geometry": {
                "type": "Point",
                "coordinates": [
                    -68.483888888,
                    -27.0575
                ]
            },
            "properties": {
                "name": "Cerro El Muerto",
                "article": "https://en.wikipedia.org/wiki/Cerro_El_Muerto"
            }
        },
        {
            "type": "Feature",
            "geometry": {
                "type": "Point",
                "coordinates": [
                    -70.212222222,
                    -33.232777777
                ]
            },
            "properties": {
                "name": "El Plomo",
                "article": "https://en.wikipedia.org/wiki/Cerro_El_Plomo"
            }
        },
        {
            "type": "Feature",
            "geometry": {
                "type": "Point",
                "coordinates": [
                    -69.049722222,
                    -18.355555555
                ]
            },
            "properties": {
                "name": "Umurata",
                "article": "https://en.wikipedia.org/wiki/Umurata"
            }
        },
        {
            "type": "Feature",
            "geometry": {
                "type": "Point",
                "coordinates": [
                    -70.05,
                    -52.03333333
                ]
            },
            "properties": {
                "name": "Cueva Fell",
                "article": "https://en.wikipedia.org/wiki/Cueva_Fell"
            }
        },
        {
            "type": "Feature",
            "geometry": {
                "type": "Point",
                "coordinates": [
                    -69.0,
                    -55.25
                ]
            },
            "properties": {
                "name": "Hoste Island",
                "article": "https://en.wikipedia.org/wiki/Hoste_Island"
            }
        },
        {
            "type": "Feature",
            "geometry": {
                "type": "Point",
                "coordinates": [
                    -68.179166666,
                    -21.3025
                ]
            },
            "properties": {
                "name": "Ollagüe",
                "article": "https://en.wikipedia.org/wiki/Ollag%C3%BCe"
            }
        },
        {
            "type": "Feature",
            "geometry": {
                "type": "Point",
                "coordinates": [
                    -67.824722222,
                    -22.845277777
                ]
            },
            "properties": {
                "name": "Juriques",
                "article": "https://en.wikipedia.org/wiki/Juriques"
            }
        },
        {
            "type": "Feature",
            "geometry": {
                "type": "Point",
                "coordinates": [
                    -71.972777777,
                    -39.085555555
                ]
            },
            "properties": {
                "name": "Colico Lake",
                "article": "https://en.wikipedia.org/wiki/Colico_Lake"
            }
        },
        {
            "type": "Feature",
            "geometry": {
                "type": "Point",
                "coordinates": [
                    -70.68388889,
                    -32.99305556
                ]
            },
            "properties": {
                "name": "Battle of Chacabuco",
                "article": "https://en.wikipedia.org/wiki/Battle_of_Chacabuco"
            }
        },
        {
            "type": "Feature",
            "geometry": {
                "type": "Point",
                "coordinates": [
                    -72.2,
                    -41.133333333
                ]
            },
            "properties": {
                "name": "Todos los Santos Lake",
                "article": "https://en.wikipedia.org/wiki/Todos_los_Santos_Lake"
            }
        },
        {
            "type": "Feature",
            "geometry": {
                "type": "Point",
                "coordinates": [
                    -80.801111111,
                    -33.769166666
                ]
            },
            "properties": {
                "name": "Alejandro Selkirk Island",
                "article": "https://en.wikipedia.org/wiki/Alejandro_Selkirk_Island"
            }
        },
        {
            "type": "Feature",
            "geometry": {
                "type": "Point",
                "coordinates": [
                    -68.722556,
                    -19.250859
                ]
            },
            "properties": {
                "name": "Isluga",
                "article": null
            }
        },
        {
            "type": "Feature",
            "geometry": {
                "type": "Point",
                "coordinates": [
                    -68.3,
                    -27.033333333
                ]
            },
            "properties": {
                "name": "Incahuasi",
                "article": "https://en.wikipedia.org/wiki/Incahuasi"
            }
        },
        {
            "type": "Feature",
            "geometry": {
                "type": "Point",
                "coordinates": [
                    -72.5,
                    -53.0
                ]
            },
            "properties": {
                "name": "Riesco Island",
                "article": "https://en.wikipedia.org/wiki/Riesco_Island"
            }
        },
        {
            "type": "Feature",
            "geometry": {
                "type": "Point",
                "coordinates": [
                    -69.864514,
                    -33.717129
                ]
            },
            "properties": {
                "name": "Marmolejo",
                "article": "https://en.wikipedia.org/wiki/Marmolejo"
            }
        },
        {
            "type": "Feature",
            "geometry": {
                "type": "Point",
                "coordinates": [
                    -72.400277777,
                    -41.758888888
                ]
            },
            "properties": {
                "name": "Yate",
                "article": "https://en.wikipedia.org/wiki/Yate_(volcano)"
            }
        },
        {
            "type": "Feature",
            "geometry": {
                "type": "Point",
                "coordinates": [
                    -72.396388888,
                    -41.754722222
                ]
            },
            "properties": {
                "name": "Yate",
                "article": "https://en.wikipedia.org/wiki/Yate_(volcano)"
            }
        },
        {
            "type": "Feature",
            "geometry": {
                "type": "Point",
                "coordinates": [
                    -73.51666667,
                    -37.05
                ]
            },
            "properties": {
                "name": "Santa María Island",
                "article": "https://en.wikipedia.org/wiki/Santa_Mar%C3%ADa_Island,_Chile"
            }
        },
        {
            "type": "Feature",
            "geometry": {
                "type": "Point",
                "coordinates": [
                    -71.6386,
                    -35.0681
                ]
            },
            "properties": {
                "name": "Battle of Mataquito",
                "article": "https://en.wikipedia.org/wiki/Battle_of_Mataquito"
            }
        },
        {
            "type": "Feature",
            "geometry": {
                "type": "Point",
                "coordinates": [
                    -72.431388888,
                    -41.874444444
                ]
            },
            "properties": {
                "name": "Hornopirén",
                "article": "https://en.wikipedia.org/wiki/Hornopir%C3%A9n_(volcano)"
            }
        },
        {
            "type": "Feature",
            "geometry": {
                "type": "Point",
                "coordinates": [
                    -73.915,
                    -38.365
                ]
            },
            "properties": {
                "name": "Mocha Island",
                "article": "https://en.wikipedia.org/wiki/Mocha_Island"
            }
        },
        {
            "type": "Feature",
            "geometry": {
                "type": "Point",
                "coordinates": [
                    -71.633333333,
                    -38.633333333
                ]
            },
            "properties": {
                "name": "Conguillío Lake",
                "article": "https://en.wikipedia.org/wiki/Conguill%C3%ADo_Lake"
            }
        },
        {
            "type": "Feature",
            "geometry": {
                "type": "Point",
                "coordinates": [
                    -72.379444444,
                    -39.118333333
                ]
            },
            "properties": {
                "name": "Vilcún",
                "article": "https://en.wikipedia.org/wiki/Vilc%C3%BAn"
            }
        },
        {
            "type": "Feature",
            "geometry": {
                "type": "Point",
                "coordinates": [
                    -69.2218,
                    -18.1879
                ]
            },
            "properties": {
                "name": "Cotacotani Lake",
                "article": "https://en.wikipedia.org/wiki/Cotacotani_Lake"
            }
        },
        {
            "type": "Feature",
            "geometry": {
                "type": "Point",
                "coordinates": [
                    -71.63333333,
                    -33.05833333
                ]
            },
            "properties": {
                "name": "Embalse Mena",
                "article": null
            }
        },
        {
            "type": "Feature",
            "geometry": {
                "type": "Point",
                "coordinates": [
                    -68.5,
                    -54.166666666
                ]
            },
            "properties": {
                "name": "Isla Grande de Tierra del Fuego",
                "article": "https://en.wikipedia.org/wiki/Isla_Grande_de_Tierra_del_Fuego"
            }
        },
        {
            "type": "Feature",
            "geometry": {
                "type": "Point",
                "coordinates": [
                    -70.086111111,
                    -33.044444444
                ]
            },
            "properties": {
                "name": "Nevado Juncal",
                "article": "https://en.wikipedia.org/wiki/Nevado_Juncal"
            }
        },
        {
            "type": "Feature",
            "geometry": {
                "type": "Point",
                "coordinates": [
                    -73.27194444,
                    -42.30277778
                ]
            },
            "properties": {
                "name": "Mechuque",
                "article": null
            }
        },
        {
            "type": "Feature",
            "geometry": {
                "type": "Point",
                "coordinates": [
                    -68.263055555,
                    -26.918333333
                ]
            },
            "properties": {
                "name": "Nevado San Francisco",
                "article": "https://en.wikipedia.org/wiki/Nevado_San_Francisco"
            }
        },
        {
            "type": "Feature",
            "geometry": {
                "type": "Point",
                "coordinates": [
                    -73.66666667,
                    -42.6
                ]
            },
            "properties": {
                "name": "Lemuy Island",
                "article": "https://en.wikipedia.org/wiki/Lemuy_Island"
            }
        },
        {
            "type": "Feature",
            "geometry": {
                "type": "Point",
                "coordinates": [
                    -72.45,
                    -40.683333333
                ]
            },
            "properties": {
                "name": "Puyehue Lake",
                "article": "https://en.wikipedia.org/wiki/Puyehue_Lake"
            }
        },
        {
            "type": "Feature",
            "geometry": {
                "type": "Point",
                "coordinates": [
                    -72.385277777,
                    -40.2475
                ]
            },
            "properties": {
                "name": "Ranco Lake",
                "article": "https://en.wikipedia.org/wiki/Lake_Ranco"
            }
        },
        {
            "type": "Feature",
            "geometry": {
                "type": "Point",
                "coordinates": [
                    -72.477777777,
                    -40.822222222
                ]
            },
            "properties": {
                "name": "Rupanco Lake",
                "article": "https://en.wikipedia.org/wiki/Rupanco_Lake"
            }
        },
        {
            "type": "Feature",
            "geometry": {
                "type": "Point",
                "coordinates": [
                    -72.083333333,
                    -39.25
                ]
            },
            "properties": {
                "name": "Villarrica Lake",
                "article": "https://en.wikipedia.org/wiki/Lake_Villarrica"
            }
        },
        {
            "type": "Feature",
            "geometry": {
                "type": "Point",
                "coordinates": [
                    -69.483333333,
                    -54.75
                ]
            },
            "properties": {
                "name": "Mount Darwin",
                "article": "https://en.wikipedia.org/wiki/Mount_Darwin_(Andes)"
            }
        },
        {
            "type": "Feature",
            "geometry": {
                "type": "Point",
                "coordinates": [
                    -109.25505,
                    -27.105322222
                ]
            },
            "properties": {
                "name": "Poike",
                "article": "https://en.wikipedia.org/wiki/Poike"
            }
        },
        {
            "type": "Feature",
            "geometry": {
                "type": "Point",
                "coordinates": [
                    -68.15,
                    -19.433333333
                ]
            },
            "properties": {
                "name": "Salar de Coipasa",
                "article": null
            }
        },
        {
            "type": "Feature",
            "geometry": {
                "type": "Point",
                "coordinates": [
                    -68.16667,
                    -19.38333
                ]
            },
            "properties": {
                "name": "Salar de Coipasa",
                "article": null
            }
        },
        {
            "type": "Feature",
            "geometry": {
                "type": "Point",
                "coordinates": [
                    -80.0833,
                    -26.2986
                ]
            },
            "properties": {
                "name": "San Félix Island",
                "article": "https://en.wikipedia.org/wiki/San_F%C3%A9lix_Island"
            }
        },
        {
            "type": "Feature",
            "geometry": {
                "type": "Point",
                "coordinates": [
                    -73.183333333,
                    -51.416666666
                ]
            },
            "properties": {
                "name": "Monte Balmaceda",
                "article": "https://en.wikipedia.org/wiki/Monte_Balmaceda"
            }
        },
        {
            "type": "Feature",
            "geometry": {
                "type": "Point",
                "coordinates": [
                    -70.066001,
                    -33.103323
                ]
            },
            "properties": {
                "name": "Nevado del Plomo",
                "article": "https://en.wikipedia.org/wiki/Nevado_del_Plomo"
            }
        },
        {
            "type": "Feature",
            "geometry": {
                "type": "Point",
                "coordinates": [
                    -72.6,
                    -48.833333333
                ]
            },
            "properties": {
                "name": "O'Higgins/San Martín Lake",
                "article": "https://en.wikipedia.org/wiki/O%27Higgins/San_Mart%C3%ADn_Lake"
            }
        },
        {
            "type": "Feature",
            "geometry": {
                "type": "Point",
                "coordinates": [
                    -109.395,
                    -27.115
                ]
            },
            "properties": {
                "name": "Ahu Akivi",
                "article": "https://en.wikipedia.org/wiki/Ahu_Akivi"
            }
        },
        {
            "type": "Feature",
            "geometry": {
                "type": "Point",
                "coordinates": [
                    -109.406355555,
                    -27.176383333
                ]
            },
            "properties": {
                "name": "Ahu Vinapu",
                "article": "https://en.wikipedia.org/wiki/Ahu_Vinapu"
            }
        },
        {
            "type": "Feature",
            "geometry": {
                "type": "Point",
                "coordinates": [
                    -72.75,
                    -51.233333333
                ]
            },
            "properties": {
                "name": "Del Toro Lake",
                "article": "https://en.wikipedia.org/wiki/Del_Toro_Lake"
            }
        },
        {
            "type": "Feature",
            "geometry": {
                "type": "Point",
                "coordinates": [
                    -70.736702777,
                    -30.240705555
                ]
            },
            "properties": {
                "name": "Cerro Pachón",
                "article": "https://en.wikipedia.org/wiki/Cerro_Pach%C3%B3n"
            }
        },
        {
            "type": "Feature",
            "geometry": {
                "type": "Point",
                "coordinates": [
                    -73.345833333,
                    -46.595
                ]
            },
            "properties": {
                "name": "Monte San Valentin",
                "article": "https://en.wikipedia.org/wiki/Monte_San_Valent%C3%ADn"
            }
        },
        {
            "type": "Feature",
            "geometry": {
                "type": "Point",
                "coordinates": [
                    -69.92737,
                    -33.53111
                ]
            },
            "properties": {
                "name": "Q2118542",
                "article": null
            }
        },
        {
            "type": "Feature",
            "geometry": {
                "type": "Point",
                "coordinates": [
                    -73.48333333,
                    -42.48333333
                ]
            },
            "properties": {
                "name": "Quinchao Island",
                "article": "https://en.wikipedia.org/wiki/Quinchao_Island"
            }
        },
        {
            "type": "Feature",
            "geometry": {
                "type": "Point",
                "coordinates": [
                    -79.89,
                    -26.343611111
                ]
            },
            "properties": {
                "name": "San Ambrosio Island",
                "article": null
            }
        },
        {
            "type": "Feature",
            "geometry": {
                "type": "Point",
                "coordinates": [
                    -66.88777778,
                    -55.07527778
                ]
            },
            "properties": {
                "name": "Picton Island",
                "article": null
            }
        },
        {
            "type": "Feature",
            "geometry": {
                "type": "Point",
                "coordinates": [
                    -71.009444444,
                    -36.288611111
                ]
            },