{
    "type": "FeatureCollection",
    "features": [
        {
            "type": "Feature",
            "geometry": {
                "type": "Point",
                "coordinates": [
                    -81.7,
                    12.58333333
                ]
            },
            "properties": {
                "name": "Saint Andrew",
                "article": "https://en.wikipedia.org/wiki/San_Andr%C3%A9s_(island)"
            }
        },
        {
            "type": "Feature",
            "geometry": {
                "type": "Point",
                "coordinates": [
                    -75.333333333,
                    4.666666666
                ]
            },
            "properties": {
                "name": "Nevado del Tolima",
                "article": "https://en.wikipedia.org/wiki/Nevado_del_Tolima"
            }
        },
        {
            "type": "Feature",
            "geometry": {
                "type": "Point",
                "coordinates": [
                    -74.0544,
                    4.59194
                ]
            },
            "properties": {
                "name": "Guadalupe Hill",
                "article": "https://en.wikipedia.org/wiki/Guadalupe_Hill"
            }
        },
        {
            "type": "Feature",
            "geometry": {
                "type": "Point",
                "coordinates": [
                    -74.056389,
                    4.605833
                ]
            },
            "properties": {
                "name": "Monserrate",
                "article": "https://en.wikipedia.org/wiki/Monserrate"
            }
        },
        {
            "type": "Feature",
            "geometry": {
                "type": "Point",
                "coordinates": [
                    -72.504722222,
                    7.9075
                ]
            },
            "properties": {
                "name": "Cúcuta",
                "article": "https://en.wikipedia.org/wiki/C%C3%BAcuta"
            }
        },
        {
            "type": "Feature",
            "geometry": {
                "type": "Point",
                "coordinates": [
                    -75.200555555,
                    4.437777777
                ]
            },
            "properties": {
                "name": "Ibagué",
                "article": "https://en.wikipedia.org/wiki/Ibagu%C3%A9"
            }
        },
        {
            "type": "Feature",
            "geometry": {
                "type": "Point",
                "coordinates": [
                    -77.366666666,
                    1.216666666
                ]
            },
            "properties": {
                "name": "Galeras",
                "article": "https://en.wikipedia.org/wiki/Galeras"
            }
        },
        {
            "type": "Feature",
            "geometry": {
                "type": "Point",
                "coordinates": [
                    -72.90416667,
                    10.33833333
                ]
            },
            "properties": {
                "name": "Cerro Pintado",
                "article": "https://en.wikipedia.org/wiki/Cerro_Pintado"
            }
        },
        {
            "type": "Feature",
            "geometry": {
                "type": "Point",
                "coordinates": [
                    -73.691388888,
                    10.834444444
                ]
            },
            "properties": {
                "name": "Pico Simón Bolívar",
                "article": "https://en.wikipedia.org/wiki/Pico_Sim%C3%B3n_Bol%C3%ADvar"
            }
        },
        {
            "type": "Feature",
            "geometry": {
                "type": "Point",
                "coordinates": [
                    -73.259722222,
                    10.460277777
                ]
            },
            "properties": {
                "name": "Valledupar",
                "article": "https://en.wikipedia.org/wiki/Valledupar"
            }
        },
        {
            "type": "Feature",
            "geometry": {
                "type": "Point",
                "coordinates": [
                    -73.686666666,
                    10.838333333
                ]
            },
            "properties": {
                "name": "Pico Cristóbal Colón",
                "article": "https://en.wikipedia.org/wiki/Pico_Crist%C3%B3bal_Col%C3%B3n"
            }
        },
        {
            "type": "Feature",
            "geometry": {
                "type": "Point",
                "coordinates": [
                    -76.033333333,
                    2.933333333
                ]
            },
            "properties": {
                "name": "Nevado del Huila",
                "article": "https://en.wikipedia.org/wiki/Nevado_del_Huila"
            }
        },
        {
            "type": "Feature",
            "geometry": {
                "type": "Point",
                "coordinates": [
                    -81.608888888,
                    4.002777777
                ]
            },
            "properties": {
                "name": "Malpelo Island",
                "article": "https://en.wikipedia.org/wiki/Malpelo_Island"
            }
        },
        {
            "type": "Feature",
            "geometry": {
                "type": "Point",
                "coordinates": [
                    -77.718758333,
                    1.085263888
                ]
            },
            "properties": {
                "name": "Volcán Azufral",
                "article": "https://en.wikipedia.org/wiki/Azufral"
            }
        },
        {
            "type": "Feature",
            "geometry": {
                "type": "Point",
                "coordinates": [
                    -73.75,
                    5.46667
                ]
            },
            "properties": {
                "name": "Laguna de Fúquene",
                "article": "https://en.wikipedia.org/wiki/Lake_F%C3%BAquene"
            }
        },
        {
            "type": "Feature",
            "geometry": {
                "type": "Point",
                "coordinates": [
                    -80.05,
                    13.533333333
                ]
            },
            "properties": {
                "name": "Roncador Cay",
                "article": "https://en.wikipedia.org/wiki/Roncador_Cay"
            }
        },
        {
            "type": "Feature",
            "geometry": {
                "type": "Point",
                "coordinates": [
                    -75.785,
                    7.455
                ]
            },
            "properties": {
                "name": "Serranía de Ayapel",
                "article": null
            }
        },
        {
            "type": "Feature",
            "geometry": {
                "type": "Point",
                "coordinates": [
                    -73.259722222,
                    6.467777777
                ]
            },
            "properties": {
                "name": "Socorro",
                "article": "https://en.wikipedia.org/wiki/Socorro,_Santander"
            }
        },
        {
            "type": "Feature",
            "geometry": {
                "type": "Point",
                "coordinates": [
                    -67.975805555,
                    3.4655
                ]
            },
            "properties": {
                "name": "Cerros de Mavecure",
                "article": "https://en.wikipedia.org/wiki/Cerros_de_Mavecure"
            }
        },
        {
            "type": "Feature",
            "geometry": {
                "type": "Point",
                "coordinates": [
                    -78.18444444,
                    2.97138889
                ]
            },
            "properties": {
                "name": "Isla Gorgona",
                "article": "https://en.wikipedia.org/wiki/Gorgona_Island_(Colombia)"
            }
        },
        {
            "type": "Feature",
            "geometry": {
                "type": "Point",
                "coordinates": [
                    -81.37444444,
                    13.38777778
                ]
            },
            "properties": {
                "name": "Santa Catalina Island",
                "article": "https://en.wikipedia.org/wiki/Santa_Catalina_Island_(Colombia)"
            }
        },
        {
            "type": "Feature",
            "geometry": {
                "type": "Point",
                "coordinates": [
                    -73.925191666,
                    11.037997222
                ]
            },
            "properties": {
                "name": "Ciudad Perdida",
                "article": "https://en.wikipedia.org/wiki/Ciudad_Perdida"
            }
        },
        {
            "type": "Feature",
            "geometry": {
                "type": "Point",
                "coordinates": [
                    -73.4292,
                    5.45
                ]
            },
            "properties": {
                "name": "Battle of Boyacá",
                "article": "https://en.wikipedia.org/wiki/Battle_of_Boyac%C3%A1"
            }
        },
        {
            "type": "Feature",
            "geometry": {
                "type": "Point",
                "coordinates": [
                    -76.394166666,
                    2.314166666
                ]
            },
            "properties": {
                "name": "Puracé",
                "article": "https://en.wikipedia.org/wiki/Purac%C3%A9"
            }
        },
        {
            "type": "Feature",
            "geometry": {
                "type": "Point",
                "coordinates": [
                    -75.121944444,
                    9.831111111
                ]
            },
            "properties": {
                "name": "San Jacinto",
                "article": "https://en.wikipedia.org/wiki/San_Jacinto,_Bol%C3%ADvar"
            }
        },
        {
            "type": "Feature",
            "geometry": {
                "type": "Point",
                "coordinates": [
                    -76.17916667,
                    9.38888889
                ]
            },
            "properties": {
                "name": "Fuerte Island",
                "article": "https://en.wikipedia.org/wiki/Fuerte_Island"
            }
        },
        {
            "type": "Feature",
            "geometry": {
                "type": "Point",
                "coordinates": [
                    -73.775555555,
                    4.977222222
                ]
            },
            "properties": {
                "name": "Lake Guatavita",
                "article": "https://en.wikipedia.org/wiki/Lake_Guatavita"
            }
        },
        {
            "type": "Feature",
            "geometry": {
                "type": "Point",
                "coordinates": [
                    -75.158611111,
                    6.2325
                ]
            },
            "properties": {
                "name": "Guatapé",
                "article": "https://en.wikipedia.org/wiki/Guatap%C3%A9"
            }
        },
        {
            "type": "Feature",
            "geometry": {
                "type": "Point",
                "coordinates": [
                    -75.74166667,
                    10.175
                ]
            },
            "properties": {
                "name": "Q1603532",
                "article": null
            }
        },
        {
            "type": "Feature",
            "geometry": {
                "type": "Point",
                "coordinates": [
                    -72.592777777,
                    6.506666666
                ]
            },
            "properties": {
                "name": "Macaravita",
                "article": "https://en.wikipedia.org/wiki/Macaravita"
            }
        },
        {
            "type": "Feature",
            "geometry": {
                "type": "Point",
                "coordinates": [
                    -72.916666666,
                    5.55
                ]
            },
            "properties": {
                "name": "Lake Tota",
                "article": "https://en.wikipedia.org/wiki/Lake_Tota"
            }
        },
        {
            "type": "Feature",
            "geometry": {
                "type": "Point",
                "coordinates": [
                    -72.89972222,
                    5.56055556
                ]
            },
            "properties": {
                "name": "Lake Tota",
                "article": "https://en.wikipedia.org/wiki/Lake_Tota"
            }
        },
        {
            "type": "Feature",
            "geometry": {
                "type": "Point",
                "coordinates": [
                    -75.85888,
                    9.78609
                ]
            },
            "properties": {
                "name": "Santa Cruz del Islote",
                "article": "https://en.wikipedia.org/wiki/Santa_Cruz_del_Islote"
            }
        },
        {
            "type": "Feature",
            "geometry": {
                "type": "Point",
                "coordinates": [
                    -77.7275,
                    7.701666666
                ]
            },
            "properties": {
                "name": "Alturas de Nique",
                "article": "https://en.wikipedia.org/wiki/Alto_de_Nique"
            }
        },
        {
            "type": "Feature",
            "geometry": {
                "type": "Point",
                "coordinates": [
                    -76.827,
                    1.624
                ]
            },
            "properties": {
                "name": "Petacas",
                "article": "https://en.wikipedia.org/wiki/Petacas"
            }
        },
        {
            "type": "Feature",
            "geometry": {
                "type": "Point",
                "coordinates": [
                    -77.883333333,
                    0.955833333
                ]
            },
            "properties": {
                "name": "Cumbal",
                "article": "https://en.wikipedia.org/wiki/Cumbal_Volcano"
            }
        },
        {
            "type": "Feature",
            "geometry": {
                "type": "Point",
                "coordinates": [
                    -76.100555555,
                    4.533055555
                ]
            },
            "properties": {
                "name": "La Unión",
                "article": "https://en.wikipedia.org/wiki/La_Uni%C3%B3n,_Valle_del_Cauca"
            }
        },
        {
            "type": "Feature",
            "geometry": {
                "type": "Point",
                "coordinates": [
                    -76.591944444,
                    2.108055555
                ]
            },
            "properties": {
                "name": "Sotará",
                "article": "https://en.wikipedia.org/wiki/Sotar%C3%A1_(volcano)"
            }
        },
        {
            "type": "Feature",
            "geometry": {
                "type": "Point",
                "coordinates": [
                    -72.283333333,
                    6.45
                ]
            },
            "properties": {
                "name": "Q2191738",
                "article": null
            }
        },
        {
            "type": "Feature",
            "geometry": {
                "type": "Point",
                "coordinates": [
                    -76.529,
                    3.459
                ]
            },
            "properties": {
                "name": "Cali Tower",
                "article": "https://en.wikipedia.org/wiki/Cali_Tower"
            }
        },
        {
            "type": "Feature",
            "geometry": {
                "type": "Point",
                "coordinates": [
                    -75.352222222,
                    4.843055555
                ]
            },
            "properties": {
                "name": "Nevado El Cisne",
                "article": "https://en.wikipedia.org/wiki/Nevado_El_Cisne"
            }
        },
        {
            "type": "Feature",
            "geometry": {
                "type": "Point",
                "coordinates": [
                    -75.24140278,
                    10.74447222
                ]
            },
            "properties": {
                "name": "El Totumo",
                "article": "https://en.wikipedia.org/wiki/El_Totumo"
            }
        },
        {
            "type": "Feature",
            "geometry": {
                "type": "Point",
                "coordinates": [
                    -75.364,
                    5.206
                ]
            },
            "properties": {
                "name": "Romeral",
                "article": "https://en.wikipedia.org/wiki/Romeral_(volcano)"
            }
        },
        {
            "type": "Feature",
            "geometry": {
                "type": "Point",
                "coordinates": [
                    -77.021361,
                    8.214861
                ]
            },
            "properties": {
                "name": "Santa María la Antigua del Darién",
                "article": "https://en.wikipedia.org/wiki/Santa_Mar%C3%ADa_la_Antigua_del_Dari%C3%A9n"
            }
        },
        {
            "type": "Feature",
            "geometry": {
                "type": "Point",
                "coordinates": [
                    -73.95120278,
                    5.01735833
                ]
            },
            "properties": {
                "name": "El Abra",
                "article": "https://en.wikipedia.org/wiki/El_Abra"
            }
        },
        {
            "type": "Feature",
            "geometry": {
                "type": "Point",
                "coordinates": [
                    -74.0325,
                    4.69277778
                ]
            },
            "properties": {
                "name": "Carrera Séptima",
                "article": "https://en.wikipedia.org/wiki/Carrera_S%C3%A9ptima"
            }
        },
        {
            "type": "Feature",
            "geometry": {
                "type": "Point",
                "coordinates": [
                    -76.1833,
                    5.03333
                ]
            },
            "properties": {
                "name": "Cerro Tamaná",
                "article": null
            }
        },
        {
            "type": "Feature",
            "geometry": {
                "type": "Point",
                "coordinates": [
                    -77.964444444,
                    0.8275
                ]
            },
            "properties": {
                "name": "Cerro Negro de Mayasquer",
                "article": "https://en.wikipedia.org/wiki/Cerro_Negro_de_Mayasquer"
            }
        },
        {
            "type": "Feature",
            "geometry": {
                "type": "Point",
                "coordinates": [
                    -75.36666667,
                    4.81666667
                ]
            },
            "properties": {
                "name": "Santa Isabel",
                "article": "https://en.wikipedia.org/wiki/Nevado_de_Santa_Isabel"
            }
        },
        {
            "type": "Feature",
            "geometry": {
                "type": "Point",
                "coordinates": [
                    -71.374444444,
                    12.152777777
                ]
            },
            "properties": {
                "name": "Cerro Palúa",
                "article": null
            }
        },
        {
            "type": "Feature",
            "geometry": {
                "type": "Point",
                "coordinates": [
                    -76.924902777,
                    1.47075
                ]
            },
            "properties": {
                "name": "Doña Juana",
                "article": "https://en.wikipedia.org/wiki/Do%C3%B1a_Juana"
            }
        },
        {
            "type": "Feature",
            "geometry": {
                "type": "Point",
                "coordinates": [
                    -75.574827777,
                    6.244747222
                ]
            },
            "properties": {
                "name": "Medellín",
                "article": "https://en.wikipedia.org/wiki/Medell%C3%ADn"
            }
        },
        {
            "type": "Feature",
            "geometry": {
                "type": "Point",
                "coordinates": [
                    -76.519722222,
                    3.44
                ]
            },
            "properties": {
                "name": "Cali",
                "article": "https://en.wikipedia.org/wiki/Cali"
            }
        },
        {
            "type": "Feature",
            "geometry": {
                "type": "Point",
                "coordinates": [
                    -75.694558333,
                    4.814277777
                ]
            },
            "properties": {
                "name": "Pereira",
                "article": "https://en.wikipedia.org/wiki/Pereira,_Colombia"
            }
        },
        {
            "type": "Feature",
            "geometry": {
                "type": "Point",
                "coordinates": [
                    -75.388333333,
                    4.715555555
                ]
            },
            "properties": {
                "name": "Nevado del Quindío",
                "article": "https://en.wikipedia.org/wiki/Nevado_del_Quind%C3%ADo"
            }
        },
        {
            "type": "Feature",
            "geometry": {
                "type": "Point",
                "coordinates": [
                    -72.2975,
                    6.494166666
                ]
            },
            "properties": {
                "name": "Ritacuba Blanco",
                "article": "https://en.wikipedia.org/wiki/Ritacuba_Blanco"
            }
        },
        {
            "type": "Feature",
            "geometry": {
                "type": "Point",
                "coordinates": [
                    -77.935,
                    0.82111111
                ]
            },
            "properties": {
                "name": "Chiles volcano",
                "article": "https://en.wikipedia.org/wiki/Chiles_(volcano)"
            }
        },
        {
            "type": "Feature",
            "geometry": {
                "type": "Point",
                "coordinates": [
                    -75.414722222,
                    4.775833333
                ]
            },
            "properties": {
                "name": "Lake Otún",
                "article": "https://en.wikipedia.org/wiki/Lake_Ot%C3%BAn"
            }
        },
        {
            "type": "Feature",
            "geometry": {
                "type": "Point",
                "coordinates": [
                    -81.68972222,
                    12.55111111
                ]
            },
            "properties": {
                "name": "Cayo Córdoba",
                "article": null
            }
        },
        {
            "type": "Feature",
            "geometry": {
                "type": "Point",
                "coordinates": [
                    -73.075,
                    5.7375
                ]
            },
            "properties": {
                "name": "Battle of Vargas Swamp j",
                "article": "https://en.wikipedia.org/wiki/Battle_of_Vargas_Swamp"
            }
        },
        {
            "type": "Feature",
            "geometry": {
                "type": "Point",
                "coordinates": [
                    -76.5,
                    7.75
                ]
            },
            "properties": {
                "name": "Serranía de Abibe",
                "article": null
            }
        },
        {
            "type": "Feature",
            "geometry": {
                "type": "Point",
                "coordinates": [
                    -74.0725,
                    4.6025
                ]
            },
            "properties": {
                "name": "Avianca Building",
                "article": "https://en.wikipedia.org/wiki/Avianca_Building"
            }
        },
        {
            "type": "Feature",
            "geometry": {
                "type": "Point",
                "coordinates": [
                    -74.0722,
                    4.60278
                ]
            },
            "properties": {
                "name": "Avianca Building",
                "article": "https://en.wikipedia.org/wiki/Avianca_Building"
            }
        },
        {
            "type": "Feature",
            "geometry": {
                "type": "Point",
                "coordinates": [
                    -73.564722222,
                    5.642777777
                ]
            },
            "properties": {
                "name": "Lake Iguaque",
                "article": "https://en.wikipedia.org/wiki/Lake_Iguaque"
            }
        },
        {
            "type": "Feature",
            "geometry": {
                "type": "Point",
                "coordinates": [
                    -76.6,
                    2.44444444
                ]
            },
            "properties": {
                "name": "Morro del Tulcán",
                "article": "https://en.wikipedia.org/wiki/Morro_del_Tulc%C3%A1n"
            }
        },
        {
            "type": "Feature",
            "geometry": {
                "type": "Point",
                "coordinates": [
                    -77.152,
                    1.1
                ]
            },
            "properties": {
                "name": "Laguna de la Cocha",
                "article": "https://en.wikipedia.org/wiki/Laguna_de_la_Cocha"
            }
        },
        {
            "type": "Feature",
            "geometry": {
                "type": "Point",
                "coordinates": [
                    -73.83333333,
                    4.93333333
                ]
            },
            "properties": {
                "name": "Tominé Reservoir",
                "article": "https://en.wikipedia.org/wiki/Tomin%C3%A9_Reservoir"
            }
        },
        {
            "type": "Feature",
            "geometry": {
                "type": "Point",
                "coordinates": [
                    -73.84,
                    4.954
                ]
            },
            "properties": {
                "name": "Tominé Reservoir",
                "article": "https://en.wikipedia.org/wiki/Tomin%C3%A9_Reservoir"
            }
        },
        {
            "type": "Feature",
            "geometry": {
                "type": "Point",
                "coordinates": [
                    -73.8275,
                    4.972777777
                ]
            },
            "properties": {
                "name": "Tominé Reservoir",
                "article": "https://en.wikipedia.org/wiki/Tomin%C3%A9_Reservoir"
            }
        },
        {
            "type": "Feature",
            "geometry": {
                "type": "Point",
                "coordinates": [
                    -69.10785,
                    3.61905
                ]
            },
            "properties": {
                "name": "Laguna Arrecifal",
                "article": null
            }
        },
        {
            "type": "Feature",
            "geometry": {
                "type": "Point",
                "coordinates": [
                    -69.0994,
                    3.62
                ]
            },
            "properties": {
                "name": "Laguna Arrecifal",
                "article": null
            }
        },
        {
            "type": "Feature",
            "geometry": {
                "type": "Point",
                "coordinates": [
                    -71.33584,
                    4.58122
                ]
            },
            "properties": {
                "name": "Laguna Carimagua",
                "article": null
            }
        },
        {
            "type": "Feature",
            "geometry": {
                "type": "Point",
                "coordinates": [
                    -71.3355,
                    4.582
                ]
            },
            "properties": {
                "name": "Laguna Carimagua",
                "article": null
            }
        },
        {
            "type": "Feature",
            "geometry": {
                "type": "Point",
                "coordinates": [
                    -68.87026,
                    3.65313
                ]
            },
            "properties": {
                "name": "Laguna Cumaral",
                "article": null
            }
        },
        {
            "type": "Feature",
            "geometry": {
                "type": "Point",
                "coordinates": [
                    -68.8606,
                    3.65667
                ]
            },
            "properties": {
                "name": "Laguna Cumaral",
                "article": null
            }
        },
        {
            "type": "Feature",
            "geometry": {
                "type": "Point",
                "coordinates": [
                    -77.8172,
                    0.951667
                ]
            },
            "properties": {
                "name": "Laguna de Cumbal",
                "article": null
            }
        },
        {
            "type": "Feature",
            "geometry": {
                "type": "Point",
                "coordinates": [
                    -70.437,
                    2.8
                ]
            },
            "properties": {
                "name": "Q3216231",
                "article": null
            }
        },
        {
            "type": "Feature",
            "geometry": {
                "type": "Point",
                "coordinates": [
                    -78.355,
                    1.815277777
                ]
            },
            "properties": {
                "name": "Q3216235",
                "article": null
            }
        },
        {
            "type": "Feature",
            "geometry": {
                "type": "Point",
                "coordinates": [
                    -78.352,
                    1.8181
                ]
            },
            "properties": {
                "name": "Q3216235",
                "article": null
            }
        },
        {
            "type": "Feature",
            "geometry": {
                "type": "Point",
                "coordinates": [
                    -71.601,
                    2.806
                ]
            },
            "properties": {
                "name": "Q3216238",
                "article": null
            }
        },
        {
            "type": "Feature",
            "geometry": {
                "type": "Point",
                "coordinates": [
                    -69.667,
                    4.433
                ]
            },
            "properties": {
                "name": "Q3216239",
                "article": null
            }
        },
        {
            "type": "Feature",
            "geometry": {
                "type": "Point",
                "coordinates": [
                    -69.44559,
                    3.6279
                ]
            },
            "properties": {
                "name": "Laguna Rayado",
                "article": null
            }
        },
        {
            "type": "Feature",
            "geometry": {
                "type": "Point",
                "coordinates": [
                    -69.435,
                    3.63278
                ]
            },
            "properties": {
                "name": "Laguna Rayado",
                "article": null
            }
        },
        {
            "type": "Feature",
            "geometry": {
                "type": "Point",
                "coordinates": [
                    -76.3531,
                    2.37056
                ]
            },
            "properties": {
                "name": "Q3216240",
                "article": null
            }
        },
        {
            "type": "Feature",
            "geometry": {
                "type": "Point",
                "coordinates": [
                    -69.53,
                    -1.123
                ]
            },
            "properties": {
                "name": "Q3216241",
                "article": null
            }
        },
        {
            "type": "Feature",
            "geometry": {
                "type": "Point",
                "coordinates": [
                    -74.2128,
                    -0.149444
                ]
            },
            "properties": {
                "name": "Q3216250",
                "article": null
            }
        },
        {
            "type": "Feature",
            "geometry": {
                "type": "Point",
                "coordinates": [
                    -76.3492,
                    3.862
                ]
            },
            "properties": {
                "name": "Laguna de Sonso",
                "article": null
            }
        },
        {
            "type": "Feature",
            "geometry": {
                "type": "Point",
                "coordinates": [
                    -77.934,
                    1.885
                ]
            },
            "properties": {
                "name": "Laguna del Trueno",
                "article": null
            }
        },
        {
            "type": "Feature",
            "geometry": {
                "type": "Point",
                "coordinates": [
                    -74.92,
                    -0.125
                ]
            },
            "properties": {
                "name": "Q3216252",
                "article": null
            }
        },
        {
            "type": "Feature",
            "geometry": {
                "type": "Point",
                "coordinates": [
                    -81.85,
                    12.16666667
                ]
            },
            "properties": {
                "name": "Cayos de Albuquerque",
                "article": null
            }
        },
        {
            "type": "Feature",
            "geometry": {
                "type": "Point",
                "coordinates": [
                    -74.0236,
                    4.73244
                ]
            },
            "properties": {
                "name": "North Point Building",
                "article": null
            }
        },
        {
            "type": "Feature",
            "geometry": {
                "type": "Point",
                "coordinates": [
                    -74.076538,
                    4.598415
                ]
            },
            "properties": {
                "name": "Palacio Liévano",
                "article": "https://en.wikipedia.org/wiki/Palacio_Li%C3%A9vano"
            }
        },
        {
            "type": "Feature",
            "geometry": {
                "type": "Point",
                "coordinates": [
                    -74.0756,
                    4.59889
                ]
            },
            "properties": {
                "name": "Palace of Justice of Colombia",
                "article": "https://en.wikipedia.org/wiki/Palace_of_Justice_of_Colombia"
            }
        },
        {
            "type": "Feature",
            "geometry": {
                "type": "Point",
                "coordinates": [
                    -72.9525,
                    9.8028
                ]
            },
            "properties": {
                "name": "Serranía de Los Motilones",
                "article": "https://en.wikipedia.org/wiki/Serran%C3%ADa_de_Los_Motilones"
            }
        },
        {
            "type": "Feature",
            "geometry": {
                "type": "Point",
                "coordinates": [
                    -76.2715,
                    4.7765
                ]
            },
            "properties": {
                "name": "Q3479947",
                "article": null
            }
        },
        {
            "type": "Feature",
            "geometry": {
                "type": "Point",
                "coordinates": [
                    -71.3333,
                    12.1667
                ]
            },
            "properties": {
                "name": "Serranía de Macuira",
                "article": "https://en.wikipedia.org/wiki/Serran%C3%ADa_de_Macuira"
            }
        },
        {
            "type": "Feature",
            "geometry": {
                "type": "Point",
                "coordinates": [
                    -74.275686,
                    4.535117
                ]
            },
            "properties": {
                "name": "Tequendama",
                "article": "https://en.wikipedia.org/wiki/Tequendama"
            }
        },
        {
            "type": "Feature",
            "geometry": {
                "type": "Point",
                "coordinates": [
                    -75.84313,
                    9.79441
                ]
            },
            "properties": {
                "name": "Isla Tintipán",
                "article": "https://en.wikipedia.org/wiki/Tintip%C3%A1n_Island"
            }
        },
        {
            "type": "Feature",
            "geometry": {
                "type": "Point",
                "coordinates": [
                    -75.842,
                    9.794
                ]
            },
            "properties": {
                "name": "Isla Tintipán",
                "article": "https://en.wikipedia.org/wiki/Tintip%C3%A1n_Island"
            }
        },
        {
            "type": "Feature",
            "geometry": {
                "type": "Point",
                "coordinates": [
                    -75.57,
                    10.353
                ]
            },
            "properties": {
                "name": "Tierra Bomba Island",
                "article": "https://en.wikipedia.org/wiki/Tierra_Bomba_Island"
            }
        },
        {
            "type": "Feature",
            "geometry": {
                "type": "Point",
                "coordinates": [
                    -74.4197,
                    10.9672
                ]
            },
            "properties": {
                "name": "Isla de Salamanca",
                "article": null
            }
        },
        {
            "type": "Feature",
            "geometry": {
                "type": "Point",
                "coordinates": [
                    -74.133888888,
                    4.693611111
                ]
            },
            "properties": {
                "name": "Terminal Puente Aéreo",
                "article": null
            }
        },
        {
            "type": "Feature",
            "geometry": {
                "type": "Point",
                "coordinates": [
                    -74.34599722,
                    4.81655278
                ]
            },
            "properties": {
                "name": "Piedras del Tunjo Archaeological Park",
                "article": "https://en.wikipedia.org/wiki/Piedras_del_Tunjo_Archaeological_Park"
            }
        },
        {
            "type": "Feature",
            "geometry": {
                "type": "Point",
                "coordinates": [
                    -75.583333333,
                    6.266666666
                ]
            },
            "properties": {
                "name": "Cerro El Volador",
                "article": "https://en.wikipedia.org/wiki/El_Volador_hill"
            }
        },
        {
            "type": "Feature",
            "geometry": {
                "type": "Point",
                "coordinates": [
                    -74.08137639,
                    4.59761
                ]
            },
            "properties": {
                "name": "El Cartucho",
                "article": "https://en.wikipedia.org/wiki/El_Cartucho"
            }
        },
        {
            "type": "Feature",
            "geometry": {
                "type": "Point",
                "coordinates": [
                    -77.42611111,
                    6.10333333
                ]
            },
            "properties": {
                "name": "El Valle",
                "article": "https://en.wikipedia.org/wiki/El_Valle,_Choco"
            }
        },
        {
            "type": "Feature",
            "geometry": {
                "type": "Point",
                "coordinates": [
                    -71.9933,
                    11.6942
                ]
            },
            "properties": {
                "name": "Q5559407",
                "article": null
            }
        },
        {
            "type": "Feature",
            "geometry": {
                "type": "Point",
                "coordinates": [
                    -75.77044,
                    5.9643
                ]
            },
            "properties": {
                "name": "Cerro Tusa",
                "article": "https://en.wikipedia.org/wiki/Cerro_Tusa"
            }
        },
        {
            "type": "Feature",
            "geometry": {
                "type": "Point",
                "coordinates": [
                    -73.683333,
                    5.15
                ]
            },
            "properties": {
                "name": "Battle of Chocontá",
                "article": "https://en.wikipedia.org/wiki/Battle_of_Chocont%C3%A1"
            }
        },
        {
            "type": "Feature",
            "geometry": {
                "type": "Point",
                "coordinates": [
                    -75.53555556,
                    10.39305556
                ]
            },
            "properties": {
                "name": "Casa de Huéspedes Ilustres",
                "article": null
            }
        },
        {
            "type": "Feature",
            "geometry": {
                "type": "Point",
                "coordinates": [
                    -81.46666667,
                    12.4
                ]
            },
            "properties": {
                "name": "Cayo Bolívar",
                "article": null
            }
        },
        {
            "type": "Feature",
            "geometry": {
                "type": "Point",
                "coordinates": [
                    -81.34633,
                    13.3765
                ]
            },
            "properties": {
                "name": "Crab Cay",
                "article": "https://en.wikipedia.org/wiki/Crab_Cay"
            }
        },
        {
            "type": "Feature",
            "geometry": {
                "type": "Point",
                "coordinates": [
                    -81.70194444,
                    12.5425
                ]
            },
            "properties": {
                "name": "Rocky Cay",
                "article": null
            }
        },
        {
            "type": "Feature",
            "geometry": {
                "type": "Point",
                "coordinates": [
                    -81.69472222,
                    12.57527778
                ]
            },
            "properties": {
                "name": "Cayo Santander",
                "article": null
            }
        },
        {
            "type": "Feature",
            "geometry": {
                "type": "Point",
                "coordinates": [
                    -74.5058,
                    4.365
                ]
            },
            "properties": {
                "name": "Cerro de La Popa",
                "article": null
            }
        },
        {
            "type": "Feature",
            "geometry": {
                "type": "Point",
                "coordinates": [
                    -74.076611111,
                    4.603027777
                ]
            },
            "properties": {
                "name": "Banco de Bogotá building",
                "article": null
            }
        },
        {
            "type": "Feature",
            "geometry": {
                "type": "Point",
                "coordinates": [
                    -74.07329722,
                    4.60108056
                ]
            },
            "properties": {
                "name": "El Tiempo Building",
                "article": null
            }
        },
        {
            "type": "Feature",
            "geometry": {
                "type": "Point",
                "coordinates": [
                    -76.0667,
                    5.76667
                ]
            },
            "properties": {
                "name": "Farallones del Citará",
                "article": "https://en.wikipedia.org/wiki/Farallones_del_Citar%C3%A1"
            }
        },
        {
            "type": "Feature",
            "geometry": {
                "type": "Point",
                "coordinates": [
                    -74.02303,
                    4.7426
                ]
            },
            "properties": {
                "name": "Hospital Simón Bolívar",
                "article": null
            }
        },
        {
            "type": "Feature",
            "geometry": {
                "type": "Point",
                "coordinates": [
                    -72.490787,
                    7.903461
                ]
            },
            "properties": {
                "name": "Hospital Universitario Erasmo Meoz",
                "article": null
            }
        },
        {
            "type": "Feature",
            "geometry": {
                "type": "Point",
                "coordinates": [
                    -72.495537,
                    7.887304
                ]
            },
            "properties": {
                "name": "Hotel Casino Internacional",
                "article": null
            }
        },
        {
            "type": "Feature",
            "geometry": {
                "type": "Point",
                "coordinates": [
                    -73.36138889,
                    5.39027778
                ]
            },
            "properties": {
                "name": "Hunza",
                "article": null
            }
        },
        {
            "type": "Feature",
            "geometry": {
                "type": "Point",
                "coordinates": [
                    -68.07388889,
                    6.21805556
                ]
            },
            "properties": {
                "name": "Q5921371",
                "article": null
            }
        },
        {
            "type": "Feature",
            "geometry": {
                "type": "Point",
                "coordinates": [
                    -75.68472222,
                    9.74194444
                ]
            },
            "properties": {
                "name": "Cabruna Island",
                "article": "https://en.wikipedia.org/wiki/Cabruna_Island"
            }
        },
        {
            "type": "Feature",
            "geometry": {
                "type": "Point",
                "coordinates": [
                    -75.85416667,
                    9.69388889
                ]
            },
            "properties": {
                "name": "Ceycén Island",
                "article": "https://en.wikipedia.org/wiki/Ceyc%C3%A9n_Island"
            }
        },
        {
            "type": "Feature",
            "geometry": {
                "type": "Point",
                "coordinates": [
                    -75.735,
                    10.18194444
                ]
            },
            "properties": {
                "name": "Isla Grande",
                "article": null
            }
        },
        {
            "type": "Feature",
            "geometry": {
                "type": "Point",
                "coordinates": [
                    -75.88,
                    9.74916667
                ]
            },
            "properties": {
                "name": "Isla Maravilla",
                "article": null
            }
        },
        {
            "type": "Feature",
            "geometry": {
                "type": "Point",
                "coordinates": [
                    -75.75166667,
                    10.18
                ]
            },
            "properties": {
                "name": "Isla Marina",
                "article": null
            }
        },
        {
            "type": "Feature",
            "geometry": {
                "type": "Point",
                "coordinates": [
                    -74.1833,
                    6.73333
                ]
            },
            "properties": {
                "name": "Isla Pernambuco",
                "article": null
            }
        },
        {
            "type": "Feature",
            "geometry": {
                "type": "Point",
                "coordinates": [
                    -76.341067,
                    9.028244
                ]
            },
            "properties": {
                "name": "Tortuguilla Island",
                "article": "https://en.wikipedia.org/wiki/Tortuguilla_Island"
            }
        },
        {
            "type": "Feature",
            "geometry": {
                "type": "Point",
                "coordinates": [
                    -73.81666667,
                    7.78333333
                ]
            },
            "properties": {
                "name": "Isla Venezuela",
                "article": null
            }
        },
        {
            "type": "Feature",
            "geometry": {
                "type": "Point",
                "coordinates": [
                    -73.816666666,
                    7.783333333
                ]
            },
            "properties": {
                "name": "Isla Venezuela",
                "article": null
            }
        },
        {
            "type": "Feature",
            "geometry": {
                "type": "Point",
                "coordinates": [
                    -75.76666667,
                    10.18333333
                ]
            },
            "properties": {
                "name": "Isla de Roberto",
                "article": null
            }
        },
        {
            "type": "Feature",
            "geometry": {
                "type": "Point",
                "coordinates": [
                    -75.73861111,
                    10.23472222
                ]
            },
            "properties": {
                "name": "Isla del Tesoro",
                "article": null
            }
        },
        {
            "type": "Feature",
            "geometry": {
                "type": "Point",
                "coordinates": [
                    -75.738611111,
                    10.235
                ]
            },
            "properties": {
                "name": "Isla del Tesoro",
                "article": null
            }
        },
        {
            "type": "Feature",
            "geometry": {
                "type": "Point",
                "coordinates": [
                    -81.68972222,
                    12.6
                ]
            },
            "properties": {
                "name": "Cayo Sucre",
                "article": "https://en.wikipedia.org/wiki/Islote_Sucre"
            }
        },
        {
            "type": "Feature",
            "geometry": {
                "type": "Point",
                "coordinates": [
                    -73.85111111,
                    4.76444444
                ]
            },
            "properties": {
                "name": "Siecha Lakes",
                "article": "https://en.wikipedia.org/wiki/Siecha_Lakes"
            }
        },
        {
            "type": "Feature",
            "geometry": {
                "type": "Point",
                "coordinates": [
                    -75.6825,
                    10.143888888
                ]
            },
            "properties": {
                "name": "Isla Barú",
                "article": "https://en.wikipedia.org/wiki/Isla_Bar%C3%BA"
            }
        },
        {
            "type": "Feature",
            "geometry": {
                "type": "Point",
                "coordinates": [
                    -74.0415,
                    4.702204
                ]
            },
            "properties": {
                "name": "Unicentro",
                "article": null
            }
        },
        {
            "type": "Feature",
            "geometry": {
                "type": "Point",
                "coordinates": [
                    -73.520416666,
                    5.59175
                ]
            },
            "properties": {
                "name": "Q6169614",
                "article": null
            }
        },
        {
            "type": "Feature",
            "geometry": {
                "type": "Point",
                "coordinates": [
                    -76.695833333,
                    3.34
                ]
            },
            "properties": {
                "name": "Farallones de Cali",
                "article": "https://en.wikipedia.org/wiki/Farallones_de_Cali"
            }
        },
        {
            "type": "Feature",
            "geometry": {
                "type": "Point",
                "coordinates": [
                    -74.074638888,
                    4.596388888
                ]
            },
            "properties": {
                "name": "Palacio de San Carlos",
                "article": "https://en.wikipedia.org/wiki/Palacio_de_San_Carlos,_Bogot%C3%A1"
            }
        },
        {
            "type": "Feature",
            "geometry": {
                "type": "Point",
                "coordinates": [
                    -75.55135556,
                    10.42290833
                ]
            },
            "properties": {
                "name": "Palace of Inquisition",
                "article": "https://en.wikipedia.org/wiki/Palace_of_the_Inquisition_(Cartagena,_Colombia)"
            }
        },
        {
            "type": "Feature",
            "geometry": {
                "type": "Point",
                "coordinates": [
                    -72.924188,
                    5.709603
                ]
            },
            "properties": {
                "name": "Sun Temple",
                "article": "https://en.wikipedia.org/wiki/Sun_Temple_(Sogamoso)"
            }
        },
        {
            "type": "Feature",
            "geometry": {
                "type": "Point",
                "coordinates": [
                    -75.872222222,
                    9.781111111
                ]
            },
            "properties": {
                "name": "Múcura Island",
                "article": "https://en.wikipedia.org/wiki/M%C3%BAcura_Island"
            }
        },
        {
            "type": "Feature",
            "geometry": {
                "type": "Point",
                "coordinates": [
                    -75.8725,
                    9.7817
                ]
            },
            "properties": {
                "name": "Múcura Island",
                "article": "https://en.wikipedia.org/wiki/M%C3%BAcura_Island"
            }
        },
        {
            "type": "Feature",
            "geometry": {
                "type": "Point",
                "coordinates": [
                    -75.535555555,
                    10.393055555
                ]
            },
            "properties": {
                "name": "Casa del fuerte de San Juan de Manzanillo",
                "article": null
            }
        },
        {
            "type": "Feature",
            "geometry": {
                "type": "Point",
                "coordinates": [
                    -76.53638889,
                    3.44972222
                ]
            },
            "properties": {
                "name": "Centro Cultural de Cali",
                "article": null
            }
        },
        {
            "type": "Feature",
            "geometry": {
                "type": "Point",
                "coordinates": [
                    -72.45,
                    8.0
                ]
            },
            "properties": {
                "name": "Cerro Tasajero",
                "article": null
            }
        },
        {
            "type": "Feature",
            "geometry": {
                "type": "Point",
                "coordinates": [
                    -74.09935,
                    4.645683333
                ]
            },
            "properties": {
                "name": "Q16490959",
                "article": null
            }
        },
        {
            "type": "Feature",
            "geometry": {
                "type": "Point",
                "coordinates": [
                    -77.07195278,
                    0.96125833
                ]
            },
            "properties": {
                "name": "Cerro Patascoy de Santa Lucía",
                "article": null
            }
        },
        {
            "type": "Feature",
            "geometry": {
                "type": "Point",
                "coordinates": [
                    -74.779645,
                    10.989533
                ]
            },
            "properties": {
                "name": "Estación del Ferrocarril Montoya",
                "article": null
            }
        },
        {
            "type": "Feature",
            "geometry": {
                "type": "Point",
                "coordinates": [
                    -73.78516,
                    5.18432
                ]
            },
            "properties": {
                "name": "Laguna de Suesca",
                "article": "https://en.wikipedia.org/wiki/Lake_Suesca"
            }
        },
        {
            "type": "Feature",
            "geometry": {
                "type": "Point",
                "coordinates": [
                    -75.573152777,
                    6.256125
                ]
            },
            "properties": {
                "name": "Q18416799",
                "article": null
            }
        },
        {
            "type": "Feature",
            "geometry": {
                "type": "Point",
                "coordinates": [
                    -75.567666666,
                    6.263583333
                ]
            },
            "properties": {
                "name": "Q18644138",
                "article": null
            }
        },
        {
            "type": "Feature",
            "geometry": {
                "type": "Point",
                "coordinates": [
                    -74.072263,
                    4.615565
                ]
            },
            "properties": {
                "name": "Torres Atrio",
                "article": "https://en.wikipedia.org/wiki/Torres_Atrio"
            }
        },
        {
            "type": "Feature",
            "geometry": {
                "type": "Point",
                "coordinates": [
                    -76.533519444,
                    3.449227777
                ]
            },
            "properties": {
                "name": "Palacio de San Francisco, Cali",
                "article": null
            }
        },
        {
            "type": "Feature",
            "geometry": {
                "type": "Point",
                "coordinates": [
                    -74.067333333,
                    4.627611111
                ]
            },
            "properties": {
                "name": "Edificio UGI",
                "article": null
            }
        },
        {
            "type": "Feature",
            "geometry": {
                "type": "Point",
                "coordinates": [
                    -70.1015,
                    -4.041388888
                ]
            },
            "properties": {
                "name": "Isla de los Micos",
                "article": null
            }
        },
        {
            "type": "Feature",
            "geometry": {
                "type": "Point",
                "coordinates": [
                    -74.300833,
                    4.3075
                ]
            },
            "properties": {
                "name": "Battle of Pasca",
                "article": "https://en.wikipedia.org/wiki/Battle_of_Pasca"
            }
        },
        {
            "type": "Feature",
            "geometry": {
                "type": "Point",
                "coordinates": [
                    -72.9708,
                    9.855
                ]
            },
            "properties": {
                "name": "Cerro Irapa",
                "article": null
            }
        },
        {
            "type": "Feature",
            "geometry": {
                "type": "Point",
                "coordinates": [
                    -75.78820038,
                    9.76379967
                ]
            },
            "properties": {
                "name": "Mangle Island",
                "article": "https://en.wikipedia.org/wiki/Mangle_Island"
            }
        },
        {
            "type": "Feature",
            "geometry": {
                "type": "Point",
                "coordinates": [
                    -75.748,
                    9.736
                ]
            },
            "properties": {
                "name": "Palma Island",
                "article": "https://en.wikipedia.org/wiki/Palma_Island"
            }
        },
        {
            "type": "Feature",
            "geometry": {
                "type": "Point",
                "coordinates": [
                    -74.3,
                    8.85
                ]
            },
            "properties": {
                "name": "Q23680741",
                "article": null
            }
        },
        {
            "type": "Feature",
            "geometry": {
                "type": "Point",
                "coordinates": [
                    -74.266666666,
                    3.966666666
                ]
            },
            "properties": {
                "name": "Laguna Vera",
                "article": null
            }
        },
        {
            "type": "Feature",
            "geometry": {
                "type": "Point",
                "coordinates": [
                    -79.001944444,
                    1.5775
                ]
            },
            "properties": {
                "name": "Isla Verde",
                "article": null
            }
        },
        {
            "type": "Feature",
            "geometry": {
                "type": "Point",
                "coordinates": [
                    -73.999166666,
                    5.215277777
                ]
            },
            "properties": {
                "name": "Laguna Verde",
                "article": null
            }
        },
        {
            "type": "Feature",
            "geometry": {
                "type": "Point",
                "coordinates": [
                    -67.8775,
                    4.894444444
                ]
            },
            "properties": {
                "name": "Cerros Vichada",
                "article": null
            }
        },
        {
            "type": "Feature",
            "geometry": {
                "type": "Point",
                "coordinates": [
                    -77.45,
                    6.366666666
                ]
            },
            "properties": {
                "name": "Morros de Vidal",
                "article": null
            }
        },
        {
            "type": "Feature",
            "geometry": {
                "type": "Point",
                "coordinates": [
                    -75.224166666,
                    8.6
                ]
            },
            "properties": {
                "name": "Ciénaga Vieja",
                "article": null
            }
        },
        {
            "type": "Feature",
            "geometry": {
                "type": "Point",
                "coordinates": [
                    -72.7156,
                    8.1832
                ]
            },
            "properties": {
                "name": "Cerro Viejo",
                "article": null
            }
        },
        {
            "type": "Feature",
            "geometry": {
                "type": "Point",
                "coordinates": [
                    -73.0678,
                    10.9358
                ]
            },
            "properties": {
                "name": "Cerro Viejo",
                "article": null
            }
        },
        {
            "type": "Feature",
            "geometry": {
                "type": "Point",
                "coordinates": [
                    -75.15,
                    9.7
                ]
            },
            "properties": {
                "name": "Loma del Viento",
                "article": null
            }
        },
        {
            "type": "Feature",
            "geometry": {
                "type": "Point",
                "coordinates": [
                    -76.532597222,
                    3.453447222
                ]
            },
            "properties": {
                "name": "Edificio Coltabaco",
                "article": null
            }
        },
        {
            "type": "Feature",
            "geometry": {
                "type": "Point",
                "coordinates": [
                    -74.746944444,
                    9.490833333
                ]
            },
            "properties": {
                "name": "Ciénaga Veladero",
                "article": null
            }
        },
        {
            "type": "Feature",
            "geometry": {
                "type": "Point",
                "coordinates": [
                    -73.0,
                    8.1
                ]
            },
            "properties": {
                "name": "Alto del Venado",
                "article": null
            }
        },
        {
            "type": "Feature",
            "geometry": {
                "type": "Point",
                "coordinates": [
                    -67.866666666,
                    2.783333333
                ]
            },
            "properties": {
                "name": "Isla Venado",
                "article": null
            }
        },
        {
            "type": "Feature",
            "geometry": {
                "type": "Point",
                "coordinates": [
                    -70.779444444,
                    6.969722222
                ]
            },
            "properties": {
                "name": "Laguna Venero",
                "article": null
            }
        },
        {
            "type": "Feature",
            "geometry": {
                "type": "Point",
                "coordinates": [
                    -74.75,
                    9.383333333
                ]
            },
            "properties": {
                "name": "Isla Venecia",
                "article": null
            }
        },
        {
            "type": "Feature",
            "geometry": {
                "type": "Point",
                "coordinates": [
                    -72.867222222,
                    5.354444444
                ]
            },
            "properties": {
                "name": "Cerro Visague",
                "article": null
            }
        },
        {
            "type": "Feature",
            "geometry": {
                "type": "Point",
                "coordinates": [
                    -78.8,
                    1.85
                ]
            },
            "properties": {
                "name": "Isla Viudo",
                "article": null
            }
        },
        {
            "type": "Feature",
            "geometry": {
                "type": "Point",
                "coordinates": [
                    -78.241111111,
                    2.9275
                ]
            },
            "properties": {
                "name": "Roca del Viudo",
                "article": null
            }
        },
        {
            "type": "Feature",
            "geometry": {
                "type": "Point",
                "coordinates": [
                    -73.438055555,
                    4.8775
                ]
            },
            "properties": {
                "name": "Cerro Volcán Amarillo",
                "article": null
            }
        },
        {
            "type": "Feature",
            "geometry": {
                "type": "Point",
                "coordinates": [
                    -73.766388888,
                    10.723333333
                ]
            },
            "properties": {
                "name": "Cuchilla de Yarina",
                "article": null
            }
        },
        {
            "type": "Feature",
            "geometry": {
                "type": "Point",
                "coordinates": [
                    -73.885,
                    7.354722222
                ]
            },
            "properties": {
                "name": "Ciénaga Yarirí",
                "article": null
            }
        },
        {
            "type": "Feature",
            "geometry": {
                "type": "Point",
                "coordinates": [
                    -70.967222222,
                    7.006944444
                ]
            },
            "properties": {
                "name": "Isla Yarumal",
                "article": null
            }
        },
        {
            "type": "Feature",
            "geometry": {
                "type": "Point",
                "coordinates": [
                    -73.758611111,
                    10.735277777
                ]
            },
            "properties": {
                "name": "Laguna Yibuchaguirur",
                "article": null
            }
        },
        {
            "type": "Feature",
            "geometry": {
                "type": "Point",
                "coordinates": [
                    -73.633611111,
                    7.641111111
                ]
            },
            "properties": {
                "name": "Ciénaga Yemchuevo",
                "article": null
            }
        },
        {
            "type": "Feature",
            "geometry": {
                "type": "Point",
                "coordinates": [
                    -73.934166666,
                    7.2
                ]
            },
            "properties": {
                "name": "Isla La Yuca",
                "article": null
            }
        },
        {
            "type": "Feature",
            "geometry": {
                "type": "Point",
                "coordinates": [
                    -69.85,
                    -2.75
                ]
            },
            "properties": {
                "name": "Isla Yuma",
                "article": null
            }
        },
        {
            "type": "Feature",
            "geometry": {
                "type": "Point",
                "coordinates": [
                    -74.824444444,
                    9.770277777
                ]
            },
            "properties": {
                "name": "Ciénaga de Zambrano",
                "article": null
            }
        },
        {
            "type": "Feature",
            "geometry": {
                "type": "Point",
                "coordinates": [
                    -69.966666666,
                    2.633333333
                ]
            },
            "properties": {
                "name": "Lago Zancudo",
                "article": null
            }
        },
        {
            "type": "Feature",
            "geometry": {
                "type": "Point",
                "coordinates": [
                    -73.766666666,
                    7.116666666
                ]
            },
            "properties": {
                "name": "Ciénaga de Zapatero",
                "article": null
            }
        },
        {
            "type": "Feature",
            "geometry": {
                "type": "Point",
                "coordinates": [
                    -74.283333333,
                    6.666666666
                ]
            },
            "properties": {
                "name": "Isla Zapatilla",
                "article": null
            }
        },
        {
            "type": "Feature",
            "geometry": {
                "type": "Point",
                "coordinates": [
                    -74.71,
                    9.726666666
                ]
            },
            "properties": {
                "name": "Ciénaga de Zárate",
                "article": null
            }
        },
        {
            "type": "Feature",
            "geometry": {
                "type": "Point",
                "coordinates": [
                    -73.776111111,
                    7.073888888
                ]
            },
            "properties": {
                "name": "Ciénaga Zarzal",
                "article": null
            }
        },
        {
            "type": "Feature",
            "geometry": {
                "type": "Point",
                "coordinates": [
                    -75.185555555,
                    10.262222222
                ]
            },
            "properties": {
                "name": "Ciénaga Zarzal",
                "article": null
            }
        },
        {
            "type": "Feature",
            "geometry": {
                "type": "Point",
                "coordinates": [
                    -74.780277777,
                    8.932222222
                ]
            },
            "properties": {
                "name": "Ciénaga la Zorra",
                "article": null
            }
        },
        {
            "type": "Feature",
            "geometry": {
                "type": "Point",
                "coordinates": [
                    -74.816666666,
                    9.866666666
                ]
            },
            "properties": {
                "name": "Isla de Zura",
                "article": null
            }
        },
        {
            "type": "Feature",
            "geometry": {
                "type": "Point",
                "coordinates": [
                    -74.816666666,
                    11.05
                ]
            },
            "properties": {
                "name": "Isla 1928",
                "article": null
            }
        },
        {
            "type": "Feature",
            "geometry": {
                "type": "Point",
                "coordinates": [
                    -74.8375,
                    9.861111111
                ]
            },
            "properties": {
                "name": "Ciénaga de Zura",
                "article": null
            }
        },
        {
            "type": "Feature",
            "geometry": {
                "type": "Point",
                "coordinates": [
                    -76.835,
                    2.7858
                ]
            },
            "properties": {
                "name": "Cuchilla Cresteballo",
                "article": null
            }
        },
        {
            "type": "Feature",
            "geometry": {
                "type": "Point",
                "coordinates": [
                    -77.333333333,
                    2.45
                ]
            },
            "properties": {
                "name": "Cerro Timbiquí",
                "article": null
            }
        },
        {
            "type": "Feature",
            "geometry": {
                "type": "Point",
                "coordinates": [
                    -72.406944444,
                    4.890555555
                ]
            },
            "properties": {
                "name": "Laguna Tinije",
                "article": null
            }
        },
        {
            "type": "Feature",
            "geometry": {
                "type": "Point",
                "coordinates": [
                    -73.861111111,
                    9.074444444
                ]
            },
            "properties": {
                "name": "Ciénaga Tíojuancho",
                "article": null
            }
        },
        {
            "type": "Feature",
            "geometry": {
                "type": "Point",
                "coordinates": [
                    -77.068611111,
                    8.335555555
                ]
            },
            "properties": {
                "name": "Islas Titumate",
                "article": null
            }
        },
        {
            "type": "Feature",
            "geometry": {
                "type": "Point",
                "coordinates": [
                    -75.183333333,
                    10.633333333
                ]
            },
            "properties": {
                "name": "Ciénaga de Tocaguá",
                "article": null
            }
        },
        {
            "type": "Feature",
            "geometry": {
                "type": "Point",
                "coordinates": [
                    -74.5475,
                    8.958888888
                ]
            },
            "properties": {
                "name": "Ciénaga Tolú",
                "article": null
            }
        },
        {
            "type": "Feature",
            "geometry": {
                "type": "Point",
                "coordinates": [
                    -74.557222222,
                    7.959722222
                ]
            },
            "properties": {
                "name": "Cerro Torcoral",
                "article": null
            }
        },
        {
            "type": "Feature",
            "geometry": {
                "type": "Point",
                "coordinates": [
                    -76.433333333,
                    4.816666666
                ]
            },
            "properties": {
                "name": "Cerro Torrá",
                "article": null
            }
        },
        {
            "type": "Feature",
            "geometry": {
                "type": "Point",
                "coordinates": [
                    -74.2068,
                    4.0151
                ]
            },
            "properties": {
                "name": "Alto Torquita",
                "article": null
            }
        },
        {
            "type": "Feature",
            "geometry": {
                "type": "Point",
                "coordinates": [
                    -72.383333333,
                    6.766666666
                ]
            },
            "properties": {
                "name": "Pico de la Torre",
                "article": null
            }
        },
        {
            "type": "Feature",
            "geometry": {
                "type": "Point",
                "coordinates": [
                    -74.783333333,
                    9.366666666
                ]
            },
            "properties": {
                "name": "Q23681330",
                "article": null
            }
        },
        {
            "type": "Feature",
            "geometry": {
                "type": "Point",
                "coordinates": [
                    -74.801388888,
                    9.620555555
                ]
            },
            "properties": {
                "name": "Ciénaga Tortola",
                "article": null
            }
        },
        {
            "type": "Feature",
            "geometry": {
                "type": "Point",
                "coordinates": [
                    -75.233333333,
                    10.733333333
                ]
            },
            "properties": {
                "name": "Q23681351",
                "article": null
            }
        },
        {
            "type": "Feature",
            "geometry": {
                "type": "Point",
                "coordinates": [
                    -69.7,
                    -0.9
                ]
            },
            "properties": {
                "name": "Serranía de Traira",
                "article": null
            }
        },
        {
            "type": "Feature",
            "geometry": {
                "type": "Point",
                "coordinates": [
                    -69.36306,
                    6.11917
                ]
            },
            "properties": {
                "name": "Isla Trapichote",
                "article": null
            }
        },
        {
            "type": "Feature",
            "geometry": {
                "type": "Point",
                "coordinates": [
                    -75.546388888,
                    9.606388888
                ]
            },
            "properties": {
                "name": "Ciénaga de Trementino",
                "article": null
            }
        },
        {
            "type": "Feature",
            "geometry": {
                "type": "Point",
                "coordinates": [
                    -71.479722222,
                    -1.149166666
                ]
            },
            "properties": {
                "name": "Tres Islas",
                "article": null
            }
        },
        {
            "type": "Feature",
            "geometry": {
                "type": "Point",
                "coordinates": [
                    -76.1426,
                    7.1361
                ]
            },
            "properties": {
                "name": "Alto de Tres Morros",
                "article": null
            }
        },
        {
            "type": "Feature",
            "geometry": {
                "type": "Point",
                "coordinates": [
                    -77.2701,
                    8.3561
                ]
            },
            "properties": {
                "name": "Cerro Turcandí",
                "article": null
            }
        },
        {
            "type": "Feature",
            "geometry": {
                "type": "Point",
                "coordinates": [
                    -72.8683,
                    6.1633
                ]
            },
            "properties": {
                "name": "Picacho de Ture",
                "article": null
            }
        },
        {
            "type": "Feature",
            "geometry": {
                "type": "Point",
                "coordinates": [
                    -73.293333333,
                    11.064166666
                ]
            },
            "properties": {
                "name": "Cuchilla de Turumutal",
                "article": null
            }
        },
        {
            "type": "Feature",
            "geometry": {
                "type": "Point",
                "coordinates": [
                    -71.866666666,
                    1.166666666
                ]
            },
            "properties": {
                "name": "Uaruá Ipana",
                "article": null
            }
        },
        {
            "type": "Feature",
            "geometry": {
                "type": "Point",
                "coordinates": [
                    -71.631111111,
                    5.430555555
                ]
            },
            "properties": {
                "name": "Trinidad (town)",
                "article": null
            }
        },
        {
            "type": "Feature",
            "geometry": {
                "type": "Point",
                "coordinates": [
                    -77.683333333,
                    0.733333333
                ]
            },
            "properties": {
                "name": "Cerro Troya",
                "article": null
            }
        },
        {
            "type": "Feature",
            "geometry": {
                "type": "Point",
                "coordinates": [
                    -75.254444444,
                    6.750555555
                ]
            },
            "properties": {
                "name": "Embalse Troneras",
                "article": null
            }
        },
        {
            "type": "Feature",
            "geometry": {
                "type": "Point",
                "coordinates": [
                    -76.319444444,
                    4.212222222
                ]
            },
            "properties": {
                "name": "Trujillo",
                "article": null
            }
        },
        {
            "type": "Feature",
            "geometry": {
                "type": "Point",
                "coordinates": [
                    -77.85,
                    1.9
                ]
            },
            "properties": {
                "name": "Isla del Trueno",
                "article": null
            }
        },
        {
            "type": "Feature",
            "geometry": {
                "type": "Point",
                "coordinates": [
                    -71.32494,
                    11.91034
                ]
            },
            "properties": {
                "name": "Bahía Tukakas",
                "article": null
            }
        },
        {
            "type": "Feature",
            "geometry": {
                "type": "Point",
                "coordinates": [
                    -74.788888888,
                    7.685
                ]
            },
            "properties": {
                "name": "Ciénaga Tulia",
                "article": null
            }
        },
        {
            "type": "Feature",
            "geometry": {
                "type": "Point",
                "coordinates": [
                    -76.983333333,
                    7.75
                ]
            },
            "properties": {
                "name": "Ciénagas de Tumaradó",
                "article": null
            }
        },
        {
            "type": "Feature",
            "geometry": {
                "type": "Point",
                "coordinates": [
                    -78.7675,
                    1.808611111
                ]
            },
            "properties": {
                "name": "Isla de Tumaco",
                "article": null
            }
        },
        {
            "type": "Feature",
            "geometry": {
                "type": "Point",
                "coordinates": [
                    -71.904444444,
                    1.725
                ]
            },
            "properties": {
                "name": "Sierra Tunahí",
                "article": null
            }
        },
        {
            "type": "Feature",
            "geometry": {
                "type": "Point",
                "coordinates": [
                    -73.233333333,
                    0.766666666
                ]
            },
            "properties": {
                "name": "Laguna Tunaima",
                "article": null
            }
        },
        {
            "type": "Feature",
            "geometry": {
                "type": "Point",
                "coordinates": [
                    -73.93,
                    4.6525
                ]
            },
            "properties": {
                "name": "Cordillera de Tunjaque",
                "article": null
            }
        },
        {
            "type": "Feature",
            "geometry": {
                "type": "Point",
                "coordinates": [
                    -75.136666666,
                    10.308333333
                ]
            },
            "properties": {
                "name": "Ciénaga Tupe",
                "article": null
            }
        },
        {
            "type": "Feature",
            "geometry": {
                "type": "Point",
                "coordinates": [
                    -71.8958,
                    6.5925
                ]
            },
            "properties": {
                "name": "Cerro Umpara",
                "article": null
            }
        },
        {
            "type": "Feature",
            "geometry": {
                "type": "Point",
                "coordinates": [
                    -77.05,
                    8.03333
                ]
            },
            "properties": {
                "name": "Ciénaga Unguía",
                "article": null
            }
        },
        {
            "type": "Feature",
            "geometry": {
                "type": "Point",
                "coordinates": [
                    -72.5775,
                    4.475277777
                ]
            },
            "properties": {
                "name": "Montaña de la Urama",
                "article": null
            }
        },
        {
            "type": "Feature",
            "geometry": {
                "type": "Point",
                "coordinates": [
                    -74.5725,
                    7.527222222
                ]
            },
            "properties": {
                "name": "Alto Urapá",
                "article": null
            }
        },
        {
            "type": "Feature",
            "geometry": {
                "type": "Point",
                "coordinates": [
                    -74.576666666,
                    7.571944444
                ]
            },
            "properties": {
                "name": "Alto Urucú",
                "article": null
            }
        },
        {
            "type": "Feature",
            "geometry": {
                "type": "Point",
                "coordinates": [
                    -71.633333333,
                    3.5
                ]
            },
            "properties": {
                "name": "Laguna Uvá",
                "article": null
            }
        },
        {
            "type": "Feature",
            "geometry": {
                "type": "Point",
                "coordinates": [
                    -74.441666666,
                    9.125833333
                ]
            },
            "properties": {
                "name": "Ciénaga El Uvero",
                "article": null
            }
        },
        {
            "type": "Feature",
            "geometry": {
                "type": "Point",
                "coordinates": [
                    -74.4867,
                    7.4714
                ]
            },
            "properties": {
                "name": "Lomas las Vagabundas",
                "article": null
            }
        },
        {
            "type": "Feature",
            "geometry": {
                "type": "Point",
                "coordinates": [
                    -74.8,
                    4.216666666
                ]
            },
            "properties": {
                "name": "Isla Vacazunga",
                "article": null
            }
        },
        {
            "type": "Feature",
            "geometry": {
                "type": "Point",
                "coordinates": [
                    -81.35,
                    13.35
                ]
            },
            "properties": {
                "name": "Cayos del Valle",
                "article": null
            }
        },
        {
            "type": "Feature",
            "geometry": {
                "type": "Point",
                "coordinates": [
                    -72.866666666,
                    10.583333333
                ]
            },
            "properties": {
                "name": "Sierra de Valledupar",
                "article": null
            }
        },
        {
            "type": "Feature",
            "geometry": {
                "type": "Point",
                "coordinates": [
                    -72.3664,
                    6.0331
                ]
            },
            "properties": {
                "name": "Cerro Vanegas",
                "article": null
            }
        },
        {
            "type": "Feature",
            "geometry": {
                "type": "Point",
                "coordinates": [
                    -74.391944444,
                    9.013055555
                ]
            },
            "properties": {
                "name": "Q23681597",
                "article": null
            }
        },
        {
            "type": "Feature",
            "geometry": {
                "type": "Point",
                "coordinates": [
                    -74.216666666,
                    8.766666666
                ]
            },
            "properties": {
                "name": "Ciénaga de Vásquez",
                "article": null
            }
        },
        {
            "type": "Feature",
            "geometry": {
                "type": "Point",
                "coordinates": [
                    -77.416666666,
                    5.4
                ]
            },
            "properties": {
                "name": "Isla Sivirá",
                "article": null
            }
        },
        {
            "type": "Feature",
            "geometry": {
                "type": "Point",
                "coordinates": [
                    -73.119444444,
                    5.763888888
                ]
            },
            "properties": {
                "name": "Lago de Sochagota",
                "article": null
            }
        },
        {
            "type": "Feature",
            "geometry": {
                "type": "Point",
                "coordinates": [
                    -74.609722222,
                    8.2675
                ]
            },
            "properties": {
                "name": "Isla Sobaquera",
                "article": null
            }
        },
        {
            "type": "Feature",
            "geometry": {
                "type": "Point",
                "coordinates": [
                    -74.7565,
                    7.283
                ]
            },
            "properties": {
                "name": "Cerro Socorrero",
                "article": null
            }
        },
        {
            "type": "Feature",
            "geometry": {
                "type": "Point",
                "coordinates": [
                    -72.444166666,
                    5.521388888
                ]
            },
            "properties": {
                "name": "Alto del Socorro",
                "article": null
            }
        },
        {
            "type": "Feature",
            "geometry": {
                "type": "Point",
                "coordinates": [
                    -73.9275,
                    7.219444444
                ]
            },
            "properties": {
                "name": "Isla Sogamoso",
                "article": null
            }
        },
        {
            "type": "Feature",
            "geometry": {
                "type": "Point",
                "coordinates": [
                    -77.683333333,
                    2.9
                ]
            },
            "properties": {
                "name": "Isla Soledad",
                "article": null
            }
        },
        {
            "type": "Feature",
            "geometry": {
                "type": "Point",
                "coordinates": [
                    -77.016666666,
                    7.033333333
                ]
            },
            "properties": {
                "name": "Ciénaga Solorzo",
                "article": null
            }
        },
        {
            "type": "Feature",
            "geometry": {
                "type": "Point",
                "coordinates": [
                    -74.716666666,
                    9.25
                ]
            },
            "properties": {
                "name": "Ciénaga el Sorro",
                "article": null
            }
        },
        {
            "type": "Feature",
            "geometry": {
                "type": "Point",
                "coordinates": [
                    -74.65,
                    9.116666666
                ]
            },
            "properties": {
                "name": "Ciénaga Suan",
                "article": null
            }
        },
        {
            "type": "Feature",
            "geometry": {
                "type": "Point",
                "coordinates": [
                    -74.5,
                    9.083333333
                ]
            },
            "properties": {
                "name": "Ciénaga los Suanes",
                "article": null
            }
        },
        {
            "type": "Feature",
            "geometry": {
                "type": "Point",
                "coordinates": [
                    -74.546666666,
                    9.161388888
                ]
            },
            "properties": {
                "name": "Ciénaga Suancito",
                "article": null
            }
        },
        {
            "type": "Feature",
            "geometry": {
                "type": "Point",
                "coordinates": [
                    -73.493055555,
                    9.025
                ]
            },
            "properties": {
                "name": "Cerro Suárez",
                "article": null
            }
        },
        {
            "type": "Feature",
            "geometry": {
                "type": "Point",
                "coordinates": [
                    -74.688611111,
                    9.419444444
                ]
            },
            "properties": {
                "name": "Isla Suárez",
                "article": null
            }
        },
        {
            "type": "Feature",
            "geometry": {
                "type": "Point",
                "coordinates": [
                    -73.8217,
                    10.5714
                ]
            },
            "properties": {
                "name": "Cuchilla Subaringaca",
                "article": null
            }
        },
        {
            "type": "Feature",
            "geometry": {
                "type": "Point",
                "coordinates": [
                    -75.731388888,
                    9.108888888
                ]
            },
            "properties": {
                "name": "Ciénaga Tabacal",
                "article": null
            }
        },
        {
            "type": "Feature",
            "geometry": {
                "type": "Point",
                "coordinates": [
                    -73.588611111,
                    7.169722222
                ]
            },
            "properties": {
                "name": "Isla Tabaco",
                "article": null
            }
        },
        {
            "type": "Feature",
            "geometry": {
                "type": "Point",
                "coordinates": [
                    -73.948888888,
                    7.473055555
                ]
            },
            "properties": {
                "name": "Ciénaga de Tabacorú",
                "article": null
            }
        },