{
    "type": "FeatureCollection",
    "features": [
        {
            "type": "Feature",
            "geometry": {
                "type": "Point",
                "coordinates": [
                    -85.145746,
                    10.0996249
                ]
            },
            "properties": {
                "name": "Chira",
                "article": "https://en.wikipedia.org/wiki/Chira_Island"
            }
        },
        {
            "type": "Feature",
            "geometry": {
                "type": "Point",
                "coordinates": [
                    -83.87864444,
                    8.70576389
                ]
            },
            "properties": {
                "name": "Caño Island",
                "article": "https://en.wikipedia.org/wiki/Isla_del_Ca%C3%B1o"
            }
        },
        {
            "type": "Feature",
            "geometry": {
                "type": "Point",
                "coordinates": [
                    -87.061111111,
                    5.528055555
                ]
            },
            "properties": {
                "name": "Coco Island",
                "article": "https://en.wikipedia.org/wiki/Cocos_Island"
            }
        },
        {
            "type": "Feature",
            "geometry": {
                "type": "Point",
                "coordinates": [
                    -83.488666666,
                    9.484083333
                ]
            },
            "properties": {
                "name": "Cerro Chirripó",
                "article": "https://en.wikipedia.org/wiki/Cerro_Chirrip%C3%B3"
            }
        },
        {
            "type": "Feature",
            "geometry": {
                "type": "Point",
                "coordinates": [
                    -83.4775,
                    8.91138889
                ]
            },
            "properties": {
                "name": "Stone spheres of Costa Rica",
                "article": "https://en.wikipedia.org/wiki/Stone_spheres_of_Costa_Rica"
            }
        },
        {
            "type": "Feature",
            "geometry": {
                "type": "Point",
                "coordinates": [
                    -83.766666666,
                    10.033333333
                ]
            },
            "properties": {
                "name": "Turrialba",
                "article": "https://en.wikipedia.org/wiki/Turrialba_Volcano"
            }
        },
        {
            "type": "Feature",
            "geometry": {
                "type": "Point",
                "coordinates": [
                    -84.90423333,
                    9.94007778
                ]
            },
            "properties": {
                "name": "San Lucas Island",
                "article": "https://en.wikipedia.org/wiki/San_Lucas_Island"
            }
        },
        {
            "type": "Feature",
            "geometry": {
                "type": "Point",
                "coordinates": [
                    -84.703333333,
                    10.463333333
                ]
            },
            "properties": {
                "name": "Arenal Volcano",
                "article": "https://en.wikipedia.org/wiki/Arenal_Volcano"
            }
        },
        {
            "type": "Feature",
            "geometry": {
                "type": "Point",
                "coordinates": [
                    -84.1,
                    10.135
                ]
            },
            "properties": {
                "name": "Barva Volcano",
                "article": "https://en.wikipedia.org/wiki/Barva_Volcano"
            }
        },
        {
            "type": "Feature",
            "geometry": {
                "type": "Point",
                "coordinates": [
                    -84.37505,
                    10.1890471
                ]
            },
            "properties": {
                "name": "Zarcero",
                "article": "https://en.wikipedia.org/wiki/Zarcero"
            }
        },
        {
            "type": "Feature",
            "geometry": {
                "type": "Point",
                "coordinates": [
                    -83.2816226,
                    9.1984622
                ]
            },
            "properties": {
                "name": "Buenos Aires",
                "article": "https://en.wikipedia.org/wiki/Buenos_Aires,_Costa_Rica"
            }
        },
        {
            "type": "Feature",
            "geometry": {
                "type": "Point",
                "coordinates": [
                    -84.688055555,
                    10.441944444
                ]
            },
            "properties": {
                "name": "Chato Volcan",
                "article": "https://en.wikipedia.org/wiki/Chato_Volcano"
            }
        },
        {
            "type": "Feature",
            "geometry": {
                "type": "Point",
                "coordinates": [
                    -85.323888888,
                    10.83
                ]
            },
            "properties": {
                "name": "Rincón de la Vieja Volcano",
                "article": "https://en.wikipedia.org/wiki/Rinc%C3%B3n_de_la_Vieja_Volcano"
            }
        },
        {
            "type": "Feature",
            "geometry": {
                "type": "Point",
                "coordinates": [
                    -85.473333333,
                    10.98
                ]
            },
            "properties": {
                "name": "Orosí Volcano",
                "article": "https://en.wikipedia.org/wiki/Oros%C3%AD_Volcano"
            }
        },
        {
            "type": "Feature",
            "geometry": {
                "type": "Point",
                "coordinates": [
                    -83.623122222,
                    10.849491666
                ]
            },
            "properties": {
                "name": "Isla Calero",
                "article": "https://en.wikipedia.org/wiki/Isla_Calero"
            }
        },
        {
            "type": "Feature",
            "geometry": {
                "type": "Point",
                "coordinates": [
                    -85.150944444,
                    10.747277777
                ]
            },
            "properties": {
                "name": "Miravalles Volcano",
                "article": "https://en.wikipedia.org/wiki/Miravalles_Volcano"
            }
        },
        {
            "type": "Feature",
            "geometry": {
                "type": "Point",
                "coordinates": [
                    -83.0113,
                    9.9938
                ]
            },
            "properties": {
                "name": "Uvita Island",
                "article": "https://en.wikipedia.org/wiki/Uvita_Island"
            }
        },
        {
            "type": "Feature",
            "geometry": {
                "type": "Point",
                "coordinates": [
                    -84.7442821,
                    9.977073
                ]
            },
            "properties": {
                "name": "El Roble",
                "article": "https://en.wikipedia.org/wiki/El_Roble_District"
            }
        },
        {
            "type": "Feature",
            "geometry": {
                "type": "Point",
                "coordinates": [
                    -83.478027777,
                    8.911638888
                ]
            },
            "properties": {
                "name": "Palmar Sur Archeological Excavations",
                "article": "https://en.wikipedia.org/wiki/Palmar_Sur_Archeological_Excavations"
            }
        },
        {
            "type": "Feature",
            "geometry": {
                "type": "Point",
                "coordinates": [
                    -84.079986111,
                    9.935397222
                ]
            },
            "properties": {
                "name": "Post Bulding  Central Office",
                "article": "https://en.wikipedia.org/wiki/Edificio_Correos"
            }
        },
        {
            "type": "Feature",
            "geometry": {
                "type": "Point",
                "coordinates": [
                    -84.3043974,
                    9.8290594
                ]
            },
            "properties": {
                "name": "Santiago",
                "article": "https://en.wikipedia.org/wiki/Santiago_District,_Puriscal"
            }
        },
        {
            "type": "Feature",
            "geometry": {
                "type": "Point",
                "coordinates": [
                    -82.851388888,
                    9.626111111
                ]
            },
            "properties": {
                "name": "Bribri",
                "article": "https://en.wikipedia.org/wiki/Bribri,_Costa_Rica"
            }
        },
        {
            "type": "Feature",
            "geometry": {
                "type": "Point",
                "coordinates": [
                    -84.203333333,
                    9.453888888
                ]
            },
            "properties": {
                "name": "Isla Damas",
                "article": "https://en.wikipedia.org/wiki/Isla_Damas"
            }
        },
        {
            "type": "Feature",
            "geometry": {
                "type": "Point",
                "coordinates": [
                    -83.523888888,
                    8.96
                ]
            },
            "properties": {
                "name": "Ciudad Cortés",
                "article": null
            }
        },
        {
            "type": "Feature",
            "geometry": {
                "type": "Point",
                "coordinates": [
                    -84.081666666,
                    9.959722222
                ]
            },
            "properties": {
                "name": "San Juan",
                "article": "https://en.wikipedia.org/wiki/San_Juan_District,_Tib%C3%A1s"
            }
        },
        {
            "type": "Feature",
            "geometry": {
                "type": "Point",
                "coordinates": [
                    -84.0730993,
                    9.9609348
                ]
            },
            "properties": {
                "name": "San Juan",
                "article": "https://en.wikipedia.org/wiki/San_Juan_District,_Tib%C3%A1s"
            }
        },
        {
            "type": "Feature",
            "geometry": {
                "type": "Point",
                "coordinates": [
                    -84.1759787,
                    9.9319879
                ]
            },
            "properties": {
                "name": "Santa Ana",
                "article": "https://en.wikipedia.org/wiki/Santa_Ana,_Costa_Rica"
            }
        },
        {
            "type": "Feature",
            "geometry": {
                "type": "Point",
                "coordinates": [
                    -83.75,
                    9.56666667
                ]
            },
            "properties": {
                "name": "Cerro de la Muerte",
                "article": "https://en.wikipedia.org/wiki/Cerro_de_la_Muerte"
            }
        },
        {
            "type": "Feature",
            "geometry": {
                "type": "Point",
                "coordinates": [
                    -83.68871,
                    10.70573
                ]
            },
            "properties": {
                "name": "Brava",
                "article": "https://en.wikipedia.org/wiki/Brava,_Costa_Rica"
            }
        },
        {
            "type": "Feature",
            "geometry": {
                "type": "Point",
                "coordinates": [
                    -84.050833333,
                    9.933333333
                ]
            },
            "properties": {
                "name": "Calle de la Amargura",
                "article": "https://en.wikipedia.org/wiki/Calle_de_la_Amargura"
            }
        },
        {
            "type": "Feature",
            "geometry": {
                "type": "Point",
                "coordinates": [
                    -84.18333333,
                    9.88333333
                ]
            },
            "properties": {
                "name": "Cerro Cedral",
                "article": "https://en.wikipedia.org/wiki/Cerro_Cedral"
            }
        },
        {
            "type": "Feature",
            "geometry": {
                "type": "Point",
                "coordinates": [
                    -82.819741666,
                    9.030805555
                ]
            },
            "properties": {
                "name": "Cerro Echandi",
                "article": "https://en.wikipedia.org/wiki/Cerro_Echandi"
            }
        },
        {
            "type": "Feature",
            "geometry": {
                "type": "Point",
                "coordinates": [
                    -83.033333333,
                    9.283333333
                ]
            },
            "properties": {
                "name": "Cerro Kamuk",
                "article": "https://en.wikipedia.org/wiki/Cerro_Kamuk"
            }
        },
        {
            "type": "Feature",
            "geometry": {
                "type": "Point",
                "coordinates": [
                    -84.13333333,
                    9.85
                ]
            },
            "properties": {
                "name": "Cerro Pico Alto",
                "article": "https://en.wikipedia.org/wiki/Cerro_Pico_Alto"
            }
        },
        {
            "type": "Feature",
            "geometry": {
                "type": "Point",
                "coordinates": [
                    -84.13,
                    9.85
                ]
            },
            "properties": {
                "name": "Cerro Rabo de Mico",
                "article": "https://en.wikipedia.org/wiki/Cerro_Rabo_de_Mico"
            }
        },
        {
            "type": "Feature",
            "geometry": {
                "type": "Point",
                "coordinates": [
                    -83.03333333,
                    9.28333333
                ]
            },
            "properties": {
                "name": "Cerro Pico Blanco",
                "article": "https://en.wikipedia.org/wiki/Cerro_Pico_Blanco"
            }
        },
        {
            "type": "Feature",
            "geometry": {
                "type": "Point",
                "coordinates": [
                    -83.691397964,
                    9.97244412
                ]
            },
            "properties": {
                "name": "Guayabo National Monument",
                "article": "https://en.wikipedia.org/wiki/Guayabo_National_Monument"
            }
        },
        {
            "type": "Feature",
            "geometry": {
                "type": "Point",
                "coordinates": [
                    -83.66666667,
                    9.93333333
                ]
            },
            "properties": {
                "name": "Guayabo National Monument",
                "article": "https://en.wikipedia.org/wiki/Guayabo_National_Monument"
            }
        },
        {
            "type": "Feature",
            "geometry": {
                "type": "Point",
                "coordinates": [
                    -83.508527777,
                    9.474638888
                ]
            },
            "properties": {
                "name": "Cerro Ventisqueros",
                "article": null
            }
        },
        {
            "type": "Feature",
            "geometry": {
                "type": "Point",
                "coordinates": [
                    -84.8931,
                    9.7683
                ]
            },
            "properties": {
                "name": "Isla Tortuga",
                "article": null
            }
        },
        {
            "type": "Feature",
            "geometry": {
                "type": "Point",
                "coordinates": [
                    -83.81666667,
                    9.82722222
                ]
            },
            "properties": {
                "name": "Lake Cachí",
                "article": "https://en.wikipedia.org/wiki/Lake_Cach%C3%AD"
            }
        },
        {
            "type": "Feature",
            "geometry": {
                "type": "Point",
                "coordinates": [
                    -83.61666667,
                    10.16666667
                ]
            },
            "properties": {
                "name": "Las Mercedes",
                "article": "https://en.wikipedia.org/wiki/Las_Mercedes_(archaeological_site,_Costa_Rica)"
            }
        },
        {
            "type": "Feature",
            "geometry": {
                "type": "Point",
                "coordinates": [
                    -85.011613,
                    9.734123
                ]
            },
            "properties": {
                "name": "Tambor",
                "article": "https://en.wikipedia.org/wiki/Tambor,_Costa_Rica"
            }
        },
        {
            "type": "Feature",
            "geometry": {
                "type": "Point",
                "coordinates": [
                    -84.13333333,
                    9.71666667
                ]
            },
            "properties": {
                "name": "Cerro Caraigres",
                "article": null
            }
        },
        {
            "type": "Feature",
            "geometry": {
                "type": "Point",
                "coordinates": [
                    -84.0706388,
                    9.8966632
                ]
            },
            "properties": {
                "name": "Desamparados",
                "article": "https://en.wikipedia.org/wiki/Desamparados"
            }
        },
        {
            "type": "Feature",
            "geometry": {
                "type": "Point",
                "coordinates": [
                    -85.795,
                    10.40609
                ]
            },
            "properties": {
                "name": "Brasilito",
                "article": null
            }
        },
        {
            "type": "Feature",
            "geometry": {
                "type": "Point",
                "coordinates": [
                    -84.079580555,
                    9.932511111
                ]
            },
            "properties": {
                "name": "San José",
                "article": "https://en.wikipedia.org/wiki/San_Jos%C3%A9,_Costa_Rica"
            }
        },
        {
            "type": "Feature",
            "geometry": {
                "type": "Point",
                "coordinates": [
                    -84.117019444,
                    9.998119444
                ]
            },
            "properties": {
                "name": "Heredia",
                "article": "https://en.wikipedia.org/wiki/Heredia,_Costa_Rica"
            }
        },
        {
            "type": "Feature",
            "geometry": {
                "type": "Point",
                "coordinates": [
                    -83.920441666,
                    9.864211111
                ]
            },
            "properties": {
                "name": "Cartago",
                "article": "https://en.wikipedia.org/wiki/Cartago,_Costa_Rica"
            }
        },
        {
            "type": "Feature",
            "geometry": {
                "type": "Point",
                "coordinates": [
                    -83.0840367,
                    10.0022155
                ]
            },
            "properties": {
                "name": "Limón",
                "article": "https://en.wikipedia.org/wiki/Lim%C3%B3n"
            }
        },
        {
            "type": "Feature",
            "geometry": {
                "type": "Point",
                "coordinates": [
                    -84.834641666,
                    9.977302777
                ]
            },
            "properties": {
                "name": "Puntarenas",
                "article": "https://en.wikipedia.org/wiki/Puntarenas"
            }
        },
        {
            "type": "Feature",
            "geometry": {
                "type": "Point",
                "coordinates": [
                    -84.2040672,
                    10.0310872
                ]
            },
            "properties": {
                "name": "Alajuela",
                "article": "https://en.wikipedia.org/wiki/Alajuela"
            }
        },
        {
            "type": "Feature",
            "geometry": {
                "type": "Point",
                "coordinates": [
                    -84.078333333,
                    9.934166666
                ]
            },
            "properties": {
                "name": "Steinvorth Building",
                "article": null
            }
        },
        {
            "type": "Feature",
            "geometry": {
                "type": "Point",
                "coordinates": [
                    -84.076111111,
                    9.934722222
                ]
            },
            "properties": {
                "name": "Maroy Building",
                "article": null
            }
        },
        {
            "type": "Feature",
            "geometry": {
                "type": "Point",
                "coordinates": [
                    -84.076944444,
                    9.939166666
                ]
            },
            "properties": {
                "name": "Castillo del Moro",
                "article": null
            }
        },
        {
            "type": "Feature",
            "geometry": {
                "type": "Point",
                "coordinates": [
                    -84.078888888,
                    9.935833333
                ]
            },
            "properties": {
                "name": "Luis Olle Building",
                "article": null
            }
        },
        {
            "type": "Feature",
            "geometry": {
                "type": "Point",
                "coordinates": [
                    -84.080277777,
                    9.934444444
                ]
            },
            "properties": {
                "name": "Costa Rica National Palace",
                "article": null
            }
        },
        {
            "type": "Feature",
            "geometry": {
                "type": "Point",
                "coordinates": [
                    -84.11194444,
                    9.93972222
                ]
            },
            "properties": {
                "name": "Vistas de Nunciatura",
                "article": null
            }
        },
        {
            "type": "Feature",
            "geometry": {
                "type": "Point",
                "coordinates": [
                    -84.016666666,
                    10.083333333
                ]
            },
            "properties": {
                "name": "Cerro Zurquí",
                "article": null
            }
        },
        {
            "type": "Feature",
            "geometry": {
                "type": "Point",
                "coordinates": [
                    -83.633333333,
                    8.8
                ]
            },
            "properties": {
                "name": "Isla Violín",
                "article": null
            }
        },
        {
            "type": "Feature",
            "geometry": {
                "type": "Point",
                "coordinates": [
                    -83.63333333,
                    8.8
                ]
            },
            "properties": {
                "name": "Isla Violín",
                "article": null
            }
        },
        {
            "type": "Feature",
            "geometry": {
                "type": "Point",
                "coordinates": [
                    -85.716666666,
                    10.666666666
                ]
            },
            "properties": {
                "name": "Viradores Norte",
                "article": null
            }
        },
        {
            "type": "Feature",
            "geometry": {
                "type": "Point",
                "coordinates": [
                    -82.933333333,
                    8.05
                ]
            },
            "properties": {
                "name": "Isla de la Viuda",
                "article": null
            }
        },
        {
            "type": "Feature",
            "geometry": {
                "type": "Point",
                "coordinates": [
                    -83.857777777,
                    9.611388888
                ]
            },
            "properties": {
                "name": "Cerro Vueltas",
                "article": null
            }
        },
        {
            "type": "Feature",
            "geometry": {
                "type": "Point",
                "coordinates": [
                    -85.7525,
                    10.2558
                ]
            },
            "properties": {
                "name": "Cerro Yayas",
                "article": null
            }
        },
        {
            "type": "Feature",
            "geometry": {
                "type": "Point",
                "coordinates": [
                    -87.0767,
                    5.5292
                ]
            },
            "properties": {
                "name": "Cerro Yglesias",
                "article": null
            }
        },
        {
            "type": "Feature",
            "geometry": {
                "type": "Point",
                "coordinates": [
                    -85.134166666,
                    10.136666666
                ]
            },
            "properties": {
                "name": "Isla Yuca",
                "article": null
            }
        },
        {
            "type": "Feature",
            "geometry": {
                "type": "Point",
                "coordinates": [
                    -85.35,
                    10.316666666
                ]
            },
            "properties": {
                "name": "Isla Zahino",
                "article": null
            }
        },
        {
            "type": "Feature",
            "geometry": {
                "type": "Point",
                "coordinates": [
                    -85.4292,
                    10.08
                ]
            },
            "properties": {
                "name": "Cerro del Zapotillo",
                "article": null
            }
        },
        {
            "type": "Feature",
            "geometry": {
                "type": "Point",
                "coordinates": [
                    -84.033333333,
                    10.059166666
                ]
            },
            "properties": {
                "name": "Cerro Zurqui",
                "article": null
            }
        },
        {
            "type": "Feature",
            "geometry": {
                "type": "Point",
                "coordinates": [
                    -82.9992,
                    9.3367
                ]
            },
            "properties": {
                "name": "Cerro Shunébeta",
                "article": null
            }
        },
        {
            "type": "Feature",
            "geometry": {
                "type": "Point",
                "coordinates": [
                    -83.02,
                    9.420833333
                ]
            },
            "properties": {
                "name": "Cerro Siola",
                "article": null
            }
        },
        {
            "type": "Feature",
            "geometry": {
                "type": "Point",
                "coordinates": [
                    -85.120277777,
                    10.030277777
                ]
            },
            "properties": {
                "name": "Isla Sombrero",
                "article": null
            }
        },
        {
            "type": "Feature",
            "geometry": {
                "type": "Point",
                "coordinates": [
                    -85.2843,
                    10.2136
                ]
            },
            "properties": {
                "name": "Cerro de Sonzapote",
                "article": null
            }
        },
        {
            "type": "Feature",
            "geometry": {
                "type": "Point",
                "coordinates": [
                    -83.138611111,
                    9.418888888
                ]
            },
            "properties": {
                "name": "Cerro Stutuk",
                "article": null
            }
        },
        {
            "type": "Feature",
            "geometry": {
                "type": "Point",
                "coordinates": [
                    -83.1633,
                    9.3675
                ]
            },
            "properties": {
                "name": "Cerro Suibia",
                "article": null
            }
        },
        {
            "type": "Feature",
            "geometry": {
                "type": "Point",
                "coordinates": [
                    -84.133333333,
                    10.133333333
                ]
            },
            "properties": {
                "name": "Cima Sur",
                "article": null
            }
        },
        {
            "type": "Feature",
            "geometry": {
                "type": "Point",
                "coordinates": [
                    -84.0283,
                    9.8317
                ]
            },
            "properties": {
                "name": "Cerro Tablazo",
                "article": null
            }
        },
        {
            "type": "Feature",
            "geometry": {
                "type": "Point",
                "coordinates": [
                    -84.170833333,
                    9.866944444
                ]
            },
            "properties": {
                "name": "Cerro Tacuatorí",
                "article": null
            }
        },
        {
            "type": "Feature",
            "geometry": {
                "type": "Point",
                "coordinates": [
                    -84.155555555,
                    9.898333333
                ]
            },
            "properties": {
                "name": "Alto del Tapezco",
                "article": null
            }
        },
        {
            "type": "Feature",
            "geometry": {
                "type": "Point",
                "coordinates": [
                    -83.4934,
                    9.457
                ]
            },
            "properties": {
                "name": "Cerro de Terbi",
                "article": null
            }
        },
        {
            "type": "Feature",
            "geometry": {
                "type": "Point",
                "coordinates": [
                    -83.4792,
                    8.54
                ]
            },
            "properties": {
                "name": "Cerro Tigre",
                "article": null
            }
        },
        {
            "type": "Feature",
            "geometry": {
                "type": "Point",
                "coordinates": [
                    -84.892777777,
                    9.769166666
                ]
            },
            "properties": {
                "name": "Isla Tolinga",
                "article": null
            }
        },
        {
            "type": "Feature",
            "geometry": {
                "type": "Point",
                "coordinates": [
                    -84.3158,
                    10.175
                ]
            },
            "properties": {
                "name": "Cerro Tomás",
                "article": null
            }
        },
        {
            "type": "Feature",
            "geometry": {
                "type": "Point",
                "coordinates": [
                    -85.233333333,
                    10.65
                ]
            },
            "properties": {
                "name": "Cerro del Torno",
                "article": null
            }
        },
        {
            "type": "Feature",
            "geometry": {
                "type": "Point",
                "coordinates": [
                    -85.236944444,
                    10.204166666
                ]
            },
            "properties": {
                "name": "Isla Toro",
                "article": null
            }
        },
        {
            "type": "Feature",
            "geometry": {
                "type": "Point",
                "coordinates": [
                    -84.5529,
                    9.8103
                ]
            },
            "properties": {
                "name": "Cerro Tronco Negro",
                "article": null
            }
        },
        {
            "type": "Feature",
            "geometry": {
                "type": "Point",
                "coordinates": [
                    -83.4675,
                    9.735
                ]
            },
            "properties": {
                "name": "Cerro Tububata",
                "article": null
            }
        },
        {
            "type": "Feature",
            "geometry": {
                "type": "Point",
                "coordinates": [
                    -84.393611111,
                    9.756944444
                ]
            },
            "properties": {
                "name": "Cerro Túfares",
                "article": null
            }
        },
        {
            "type": "Feature",
            "geometry": {
                "type": "Point",
                "coordinates": [
                    -84.470833333,
                    9.793055555
                ]
            },
            "properties": {
                "name": "Cerro Turrubares",
                "article": null
            }
        },
        {
            "type": "Feature",
            "geometry": {
                "type": "Point",
                "coordinates": [
                    -82.9783,
                    9.0983
                ]
            },
            "properties": {
                "name": "Cerro Turubo",
                "article": null
            }
        },
        {
            "type": "Feature",
            "geometry": {
                "type": "Point",
                "coordinates": [
                    -82.939722222,
                    9.621388888
                ]
            },
            "properties": {
                "name": "Cerro Uatsi",
                "article": null
            }
        },
        {
            "type": "Feature",
            "geometry": {
                "type": "Point",
                "coordinates": [
                    -83.548888888,
                    9.530833333
                ]
            },
            "properties": {
                "name": "Cerro Urán",
                "article": null
            }
        },
        {
            "type": "Feature",
            "geometry": {
                "type": "Point",
                "coordinates": [
                    -83.697777777,
                    9.213611111
                ]
            },
            "properties": {
                "name": "Cerro Uvita",
                "article": null
            }
        },
        {
            "type": "Feature",
            "geometry": {
                "type": "Point",
                "coordinates": [
                    -85.060833333,
                    9.986388888
                ]
            },
            "properties": {
                "name": "Isla Venado",
                "article": null
            }
        },
        {
            "type": "Feature",
            "geometry": {
                "type": "Point",
                "coordinates": [
                    -85.245,
                    10.228611111
                ]
            },
            "properties": {
                "name": "Isla Verde",
                "article": null
            }
        },
        {
            "type": "Feature",
            "geometry": {
                "type": "Point",
                "coordinates": [
                    -84.115277777,
                    9.365833333
                ]
            },
            "properties": {
                "name": "Isla Mogote",
                "article": null
            }
        },
        {
            "type": "Feature",
            "geometry": {
                "type": "Point",
                "coordinates": [
                    -85.116666666,
                    10.2
                ]
            },
            "properties": {
                "name": "Cerro Raspa Huacal",
                "article": null
            }
        },
        {
            "type": "Feature",
            "geometry": {
                "type": "Point",
                "coordinates": [
                    -84.076666666,
                    10.065277777
                ]
            },
            "properties": {
                "name": "Cerro Redondo",
                "article": null
            }
        },
        {
            "type": "Feature",
            "geometry": {
                "type": "Point",
                "coordinates": [
                    -85.533333333,
                    10.016666666
                ]
            },
            "properties": {
                "name": "Cerro de Río Frío",
                "article": null
            }
        },
        {
            "type": "Feature",
            "geometry": {
                "type": "Point",
                "coordinates": [
                    -87.08333,
                    5.55
                ]
            },
            "properties": {
                "name": "Isla Piedra Sucia",
                "article": null
            }
        },
        {
            "type": "Feature",
            "geometry": {
                "type": "Point",
                "coordinates": [
                    -82.936111111,
                    9.060555555
                ]
            },
            "properties": {
                "name": "Cerro Pittier",
                "article": null
            }
        },
        {
            "type": "Feature",
            "geometry": {
                "type": "Point",
                "coordinates": [
                    -85.803055555,
                    10.4475
                ]
            },
            "properties": {
                "name": "Isla Plata",
                "article": null
            }
        },
        {
            "type": "Feature",
            "geometry": {
                "type": "Point",
                "coordinates": [
                    -84.3642,
                    10.2992
                ]
            },
            "properties": {
                "name": "Cerro Platanar",
                "article": null
            }
        },
        {
            "type": "Feature",
            "geometry": {
                "type": "Point",
                "coordinates": [
                    -85.405,
                    9.9317
                ]
            },
            "properties": {
                "name": "Cerro Platanillo",
                "article": null
            }
        },
        {
            "type": "Feature",
            "geometry": {
                "type": "Point",
                "coordinates": [
                    -84.395,
                    10.2658
                ]
            },
            "properties": {
                "name": "Cerro Porvenir",
                "article": null
            }
        },
        {
            "type": "Feature",
            "geometry": {
                "type": "Point",
                "coordinates": [
                    -82.8933,
                    9.6567
                ]
            },
            "properties": {
                "name": "Cerro Puerto Viejo",
                "article": null
            }
        },
        {
            "type": "Feature",
            "geometry": {
                "type": "Point",
                "coordinates": [
                    -83.245833333,
                    9.4875
                ]
            },
            "properties": {
                "name": "Cerro Puníbeta",
                "article": null
            }
        },
        {
            "type": "Feature",
            "geometry": {
                "type": "Point",
                "coordinates": [
                    -85.245,
                    10.228611111
                ]
            },
            "properties": {
                "name": "Isla Verde",
                "article": null
            }
        },
        {
            "type": "Feature",
            "geometry": {
                "type": "Point",
                "coordinates": [
                    -84.115277777,
                    9.365833333
                ]
            },
            "properties": {
                "name": "Isla Mogote",
                "article": null
            }
        },
        {
            "type": "Feature",
            "geometry": {
                "type": "Point",
                "coordinates": [
                    -85.116666666,
                    10.2
                ]
            },
            "properties": {
                "name": "Cerro Raspa Huacal",
                "article": null
            }
        },
        {
            "type": "Feature",
            "geometry": {
                "type": "Point",
                "coordinates": [
                    -84.076666666,
                    10.065277777
                ]
            },
            "properties": {
                "name": "Cerro Redondo",
                "article": null
            }
        },
        {
            "type": "Feature",
            "geometry": {
                "type": "Point",
                "coordinates": [
                    -85.533333333,
                    10.016666666
                ]
            },
            "properties": {
                "name": "Cerro de Río Frío",
                "article": null
            }
        },
        {
            "type": "Feature",
            "geometry": {
                "type": "Point",
                "coordinates": [
                    -83.883333333,
                    9.616666666
                ]
            },
            "properties": {
                "name": "Cerro Roble",
                "article": null
            }
        },
        {
            "type": "Feature",
            "geometry": {
                "type": "Point",
                "coordinates": [
                    -85.3904,
                    10.2717
                ]
            },
            "properties": {
                "name": "Cerro del Rosario",
                "article": null
            }
        },
        {
            "type": "Feature",
            "geometry": {
                "type": "Point",
                "coordinates": [
                    -83.757777777,
                    9.591944444
                ]
            },
            "properties": {
                "name": "Cerro Sákira",
                "article": null
            }
        },
        {
            "type": "Feature",
            "geometry": {
                "type": "Point",
                "coordinates": [
                    -85.343611111,
                    10.320833333
                ]
            },
            "properties": {
                "name": "Isla Saíno",
                "article": null
            }
        },
        {
            "type": "Feature",
            "geometry": {
                "type": "Point",
                "coordinates": [
                    -84.148333333,
                    9.623055555
                ]
            },
            "properties": {
                "name": "Cerro San Jerónimo",
                "article": null
            }
        },
        {
            "type": "Feature",
            "geometry": {
                "type": "Point",
                "coordinates": [
                    -84.9484,
                    10.366
                ]
            },
            "properties": {
                "name": "Cerro San José",
                "article": null
            }
        },
        {
            "type": "Feature",
            "geometry": {
                "type": "Point",
                "coordinates": [
                    -85.915277777,
                    10.857222222
                ]
            },
            "properties": {
                "name": "Isla San José",
                "article": null
            }
        },
        {
            "type": "Feature",
            "geometry": {
                "type": "Point",
                "coordinates": [
                    -84.128611111,
                    9.876666666
                ]
            },
            "properties": {
                "name": "Cerro San Miguel",
                "article": null
            }
        },
        {
            "type": "Feature",
            "geometry": {
                "type": "Point",
                "coordinates": [
                    -84.7067,
                    10.0215
                ]
            },
            "properties": {
                "name": "Cerro San Miguel",
                "article": null
            }
        },
        {
            "type": "Feature",
            "geometry": {
                "type": "Point",
                "coordinates": [
                    -85.4408,
                    10.0175
                ]
            },
            "properties": {
                "name": "Cerro San Rafael",
                "article": null
            }
        },
        {
            "type": "Feature",
            "geometry": {
                "type": "Point",
                "coordinates": [
                    -83.1317,
                    8.84
                ]
            },
            "properties": {
                "name": "Alto de Santa Cruz",
                "article": null
            }
        },
        {
            "type": "Feature",
            "geometry": {
                "type": "Point",
                "coordinates": [
                    -85.2858,
                    10.0383
                ]
            },
            "properties": {
                "name": "Cerro de Santa Rita",
                "article": null
            }
        },
        {
            "type": "Feature",
            "geometry": {
                "type": "Point",
                "coordinates": [
                    -85.611388888,
                    10.834444444
                ]
            },
            "properties": {
                "name": "Cerro Santa Rosa",
                "article": null
            }
        },
        {
            "type": "Feature",
            "geometry": {
                "type": "Point",
                "coordinates": [
                    -85.166666666,
                    10.7
                ]
            },
            "properties": {
                "name": "Cerro Santa Rosa",
                "article": null
            }
        },
        {
            "type": "Feature",
            "geometry": {
                "type": "Point",
                "coordinates": [
                    -83.038055555,
                    9.475277777
                ]
            },
            "properties": {
                "name": "Cerro Nimaso",
                "article": null
            }
        },
        {
            "type": "Feature",
            "geometry": {
                "type": "Point",
                "coordinates": [
                    -87.05,
                    5.55
                ]
            },
            "properties": {
                "name": "Isla Pájara",
                "article": null
            }
        },
        {
            "type": "Feature",
            "geometry": {
                "type": "Point",
                "coordinates": [
                    -84.996388888,
                    10.093611111
                ]
            },
            "properties": {
                "name": "Isla Pájaro",
                "article": null
            }
        },
        {
            "type": "Feature",
            "geometry": {
                "type": "Point",
                "coordinates": [
                    -84.908888888,
                    9.869722222
                ]
            },
            "properties": {
                "name": "Isla Pájaros",
                "article": null
            }
        },
        {
            "type": "Feature",
            "geometry": {
                "type": "Point",
                "coordinates": [
                    -83.9233,
                    9.8008
                ]
            },
            "properties": {
                "name": "Cerro Palo Blanco",
                "article": null
            }
        },
        {
            "type": "Feature",
            "geometry": {
                "type": "Point",
                "coordinates": [
                    -84.116666666,
                    9.9
                ]
            },
            "properties": {
                "name": "Alto del Palo de Campana",
                "article": null
            }
        },
        {
            "type": "Feature",
            "geometry": {
                "type": "Point",
                "coordinates": [
                    -84.162777777,
                    9.939722222
                ]
            },
            "properties": {
                "name": "Alto de las Palomas",
                "article": null
            }
        },
        {
            "type": "Feature",
            "geometry": {
                "type": "Point",
                "coordinates": [
                    -83.5917,
                    9.9258
                ]
            },
            "properties": {
                "name": "Pan de Azúcar",
                "article": null
            }
        },
        {
            "type": "Feature",
            "geometry": {
                "type": "Point",
                "coordinates": [
                    -84.901111111,
                    9.924166666
                ]
            },
            "properties": {
                "name": "Isla Pan de Azúcar",
                "article": null
            }
        },
        {
            "type": "Feature",
            "geometry": {
                "type": "Point",
                "coordinates": [
                    -82.711861111,
                    8.922611111
                ]
            },
            "properties": {
                "name": "Cerro Pando",
                "article": null
            }
        },
        {
            "type": "Feature",
            "geometry": {
                "type": "Point",
                "coordinates": [
                    -83.7225,
                    9.5383
                ]
            },
            "properties": {
                "name": "Cerro Páramo",
                "article": null
            }
        },
        {
            "type": "Feature",
            "geometry": {
                "type": "Point",
                "coordinates": [
                    -85.483333333,
                    10.933333333
                ]
            },
            "properties": {
                "name": "Cerro Pedregal",
                "article": null
            }
        },
        {
            "type": "Feature",
            "geometry": {
                "type": "Point",
                "coordinates": [
                    -85.8925,
                    10.8725
                ]
            },
            "properties": {
                "name": "Isla Pelada",
                "article": null
            }
        },
        {
            "type": "Feature",
            "geometry": {
                "type": "Point",
                "coordinates": [
                    -85.15,
                    10.233333333
                ]
            },
            "properties": {
                "name": "Cerro Peña Blanca",
                "article": null
            }
        },
        {
            "type": "Feature",
            "geometry": {
                "type": "Point",
                "coordinates": [
                    -85.018055555,
                    10.367222222
                ]
            },
            "properties": {
                "name": "Cerro Pelado",
                "article": "https://en.wikipedia.org/wiki/Pelado_Hill"
            }
        },
        {
            "type": "Feature",
            "geometry": {
                "type": "Point",
                "coordinates": [
                    -85.516666666,
                    9.85
                ]
            },
            "properties": {
                "name": "Isla Piedra Blanca",
                "article": null
            }
        },
        {
            "type": "Feature",
            "geometry": {
                "type": "Point",
                "coordinates": [
                    -87.033333333,
                    5.55
                ]
            },
            "properties": {
                "name": "Isla Piedra Lara Colón",
                "article": null
            }
        },
        {
            "type": "Feature",
            "geometry": {
                "type": "Point",
                "coordinates": [
                    -84.148055555,
                    9.872777777
                ]
            },
            "properties": {
                "name": "Cerro Piedra Blanca",
                "article": null
            }
        },
        {
            "type": "Feature",
            "geometry": {
                "type": "Point",
                "coordinates": [
                    -85.865,
                    10.843888888
                ]
            },
            "properties": {
                "name": "Isla Colorada",
                "article": null
            }
        },
        {
            "type": "Feature",
            "geometry": {
                "type": "Point",
                "coordinates": [
                    -84.133333333,
                    9.866666666
                ]
            },
            "properties": {
                "name": "Cerro de La Cruz",
                "article": null
            }
        },
        {
            "type": "Feature",
            "geometry": {
                "type": "Point",
                "coordinates": [
                    -85.287777777,
                    10.253611111
                ]
            },
            "properties": {
                "name": "Cerro La Cueva",
                "article": null
            }
        },
        {
            "type": "Feature",
            "geometry": {
                "type": "Point",
                "coordinates": [
                    -85.215,
                    9.9817
                ]
            },
            "properties": {
                "name": "Cerro de La Esperanza",
                "article": null
            }
        },
        {
            "type": "Feature",
            "geometry": {
                "type": "Point",
                "coordinates": [
                    -84.019444444,
                    10.067222222
                ]
            },
            "properties": {
                "name": "Cerro La Hondura",
                "article": null
            }
        },
        {
            "type": "Feature",
            "geometry": {
                "type": "Point",
                "coordinates": [
                    -84.04,
                    9.6242
                ]
            },
            "properties": {
                "name": "Cerro La Laguna",
                "article": null
            }
        },
        {
            "type": "Feature",
            "geometry": {
                "type": "Point",
                "coordinates": [
                    -85.4375,
                    9.9883
                ]
            },
            "properties": {
                "name": "Cerro La Mariola",
                "article": null
            }
        },
        {
            "type": "Feature",
            "geometry": {
                "type": "Point",
                "coordinates": [
                    -85.4167,
                    9.8917
                ]
            },
            "properties": {
                "name": "Cerro La Mora",
                "article": null
            }
        },
        {
            "type": "Feature",
            "geometry": {
                "type": "Point",
                "coordinates": [
                    -85.24,
                    10.7258
                ]
            },
            "properties": {
                "name": "Cerro La Palma",
                "article": null
            }
        },
        {
            "type": "Feature",
            "geometry": {
                "type": "Point",
                "coordinates": [
                    -85.3517,
                    10.0508
                ]
            },
            "properties": {
                "name": "Cerro La Pita",
                "article": null
            }
        },
        {
            "type": "Feature",
            "geometry": {
                "type": "Point",
                "coordinates": [
                    -83.0158,
                    8.7992
                ]
            },
            "properties": {
                "name": "Cerro Las Cruces",
                "article": null
            }
        },
        {
            "type": "Feature",
            "geometry": {
                "type": "Point",
                "coordinates": [
                    -85.45,
                    10.133333333
                ]
            },
            "properties": {
                "name": "Cerro de Las Cruces",
                "article": null
            }
        },
        {
            "type": "Feature",
            "geometry": {
                "type": "Point",
                "coordinates": [
                    -83.577222222,
                    10.351666666
                ]
            },
            "properties": {
                "name": "Cerro Las Lomas",
                "article": null
            }
        },
        {
            "type": "Feature",
            "geometry": {
                "type": "Point",
                "coordinates": [
                    -83.9225,
                    9.9792
                ]
            },
            "properties": {
                "name": "Las Nubes",
                "article": null
            }
        },
        {
            "type": "Feature",
            "geometry": {
                "type": "Point",
                "coordinates": [
                    -85.1858,
                    10.2283
                ]
            },
            "properties": {
                "name": "Cerro Gordo",
                "article": null
            }
        },
        {
            "type": "Feature",
            "geometry": {
                "type": "Point",
                "coordinates": [
                    -84.15,
                    9.916666666
                ]
            },
            "properties": {
                "name": "Alto de la Granadilla",
                "article": null
            }
        },
        {
            "type": "Feature",
            "geometry": {
                "type": "Point",
                "coordinates": [
                    -83.8308,
                    10.0197
                ]
            },
            "properties": {
                "name": "Cerro Grande",
                "article": null
            }
        },
        {
            "type": "Feature",
            "geometry": {
                "type": "Point",
                "coordinates": [
                    -85.233333333,
                    10.633333333
                ]
            },
            "properties": {
                "name": "Cerro La Vuelta del Torno",
                "article": null
            }
        },
        {
            "type": "Feature",
            "geometry": {
                "type": "Point",
                "coordinates": [
                    -83.836944444,
                    9.506944444
                ]
            },
            "properties": {
                "name": "Cerro Lira",
                "article": null
            }
        },
        {
            "type": "Feature",
            "geometry": {
                "type": "Point",
                "coordinates": [
                    -82.8383,
                    8.6504
                ]
            },
            "properties": {
                "name": "Cerro Mamey",
                "article": null
            }
        },
        {
            "type": "Feature",
            "geometry": {
                "type": "Point",
                "coordinates": [
                    -83.355,
                    9.045
                ]
            },
            "properties": {
                "name": "Mano de Tigre",
                "article": null
            }
        },
        {
            "type": "Feature",
            "geometry": {
                "type": "Point",
                "coordinates": [
                    -87.05,
                    5.56667
                ]
            },
            "properties": {
                "name": "Isla Manuelita",
                "article": null
            }
        },
        {
            "type": "Feature",
            "geometry": {
                "type": "Point",
                "coordinates": [
                    -85.5667,
                    9.9783
                ]
            },
            "properties": {
                "name": "Cerro Maquenco",
                "article": null
            }
        },
        {
            "type": "Feature",
            "geometry": {
                "type": "Point",
                "coordinates": [
                    -85.383333333,
                    10.05
                ]
            },
            "properties": {
                "name": "Cerro Maravilla",
                "article": null
            }
        },
        {
            "type": "Feature",
            "geometry": {
                "type": "Point",
                "coordinates": [
                    -83.24,
                    9.782777777
                ]
            },
            "properties": {
                "name": "Cerro Matama",
                "article": null
            }
        },
        {
            "type": "Feature",
            "geometry": {
                "type": "Point",
                "coordinates": [
                    -85.416666666,
                    10.1
                ]
            },
            "properties": {
                "name": "Cerro de Matambú",
                "article": null
            }
        },
        {
            "type": "Feature",
            "geometry": {
                "type": "Point",
                "coordinates": [
                    -82.8883,
                    9.5992
                ]
            },
            "properties": {
                "name": "Cerro Mereduk",
                "article": null
            }
        },
        {
            "type": "Feature",
            "geometry": {
                "type": "Point",
                "coordinates": [
                    -82.958888888,
                    9.613333333
                ]
            },
            "properties": {
                "name": "Cerro Mirador",
                "article": null
            }
        },
        {
            "type": "Feature",
            "geometry": {
                "type": "Point",
                "coordinates": [
                    -87.03333,
                    5.51667
                ]
            },
            "properties": {
                "name": "Isla Montagne",
                "article": null
            }
        },
        {
            "type": "Feature",
            "geometry": {
                "type": "Point",
                "coordinates": [
                    -85.6283,
                    10.1567
                ]
            },
            "properties": {
                "name": "Cerro Montaña",
                "article": null
            }
        },
        {
            "type": "Feature",
            "geometry": {
                "type": "Point",
                "coordinates": [
                    -85.6533,
                    11.115
                ]
            },
            "properties": {
                "name": "Cerro Montepec",
                "article": null
            }
        },
        {
            "type": "Feature",
            "geometry": {
                "type": "Point",
                "coordinates": [
                    -85.333333333,
                    10.033333333
                ]
            },
            "properties": {
                "name": "Cerro Monte Romo",
                "article": null
            }
        },
        {
            "type": "Feature",
            "geometry": {
                "type": "Point",
                "coordinates": [
                    -83.088055555,
                    9.796388888
                ]
            },
            "properties": {
                "name": "Cerro Muchilla",
                "article": null
            }
        },
        {
            "type": "Feature",
            "geometry": {
                "type": "Point",
                "coordinates": [
                    -84.925,
                    9.888611111
                ]
            },
            "properties": {
                "name": "Isla Muertos",
                "article": null
            }
        },
        {
            "type": "Feature",
            "geometry": {
                "type": "Point",
                "coordinates": [
                    -85.4742,
                    10.9092
                ]
            },
            "properties": {
                "name": "Cerro Nancite",
                "article": null
            }
        },
        {
            "type": "Feature",
            "geometry": {
                "type": "Point",
                "coordinates": [
                    -84.0118,
                    9.4909
                ]
            },
            "properties": {
                "name": "Cerro Nara",
                "article": null
            }
        },
        {
            "type": "Feature",
            "geometry": {
                "type": "Point",
                "coordinates": [
                    -84.8335719,
                    9.823622
                ]
            },
            "properties": {
                "name": "Negritos Afuera",
                "article": null
            }
        },
        {
            "type": "Feature",
            "geometry": {
                "type": "Point",
                "coordinates": [
                    -84.85662819,
                    9.821029281
                ]
            },
            "properties": {
                "name": "Negritos Adentro",
                "article": null
            }
        },
        {
            "type": "Feature",
            "geometry": {
                "type": "Point",
                "coordinates": [
                    -84.083333333,
                    10.15
                ]
            },
            "properties": {
                "name": "Cima Este",
                "article": null
            }
        },
        {
            "type": "Feature",
            "geometry": {
                "type": "Point",
                "coordinates": [
                    -85.1459,
                    9.8105
                ]
            },
            "properties": {
                "name": "Cerro Frío",
                "article": null
            }
        },
        {
            "type": "Feature",
            "geometry": {
                "type": "Point",
                "coordinates": [
                    -83.762777777,
                    9.553888888
                ]
            },
            "properties": {
                "name": "Cerro Frío",
                "article": null
            }
        },
        {
            "type": "Feature",
            "geometry": {
                "type": "Point",
                "coordinates": [
                    -85.6125,
                    10.1708
                ]
            },
            "properties": {
                "name": "Cerro del Gallo",
                "article": null
            }
        },
        {
            "type": "Feature",
            "geometry": {
                "type": "Point",
                "coordinates": [
                    -85.466666666,
                    10.95
                ]
            },
            "properties": {
                "name": "Cerro Góngora",
                "article": null
            }
        },
        {
            "type": "Feature",
            "geometry": {
                "type": "Point",
                "coordinates": [
                    -85.4406,
                    10.1135
                ]
            },
            "properties": {
                "name": "Cerro Grande",
                "article": null
            }
        },
        {
            "type": "Feature",
            "geometry": {
                "type": "Point",
                "coordinates": [
                    -85.183333333,
                    10.7
                ]
            },
            "properties": {
                "name": "Cerro Grande",
                "article": null
            }
        },
        {
            "type": "Feature",
            "geometry": {
                "type": "Point",
                "coordinates": [
                    -84.130277777,
                    10.125555555
                ]
            },
            "properties": {
                "name": "Cerro Guararí",
                "article": null
            }
        },
        {
            "type": "Feature",
            "geometry": {
                "type": "Point",
                "coordinates": [
                    -84.914444444,
                    9.915555555
                ]
            },
            "properties": {
                "name": "Isla Guayabo",
                "article": null
            }
        },
        {
            "type": "Feature",
            "geometry": {
                "type": "Point",
                "coordinates": [
                    -84.878333333,
                    9.911666666
                ]
            },
            "properties": {
                "name": "Isla Guayabo",
                "article": null
            }
        },
        {
            "type": "Feature",
            "geometry": {
                "type": "Point",
                "coordinates": [
                    -85.339722222,
                    10.350277777
                ]
            },
            "properties": {
                "name": "Cerro Guayacán",
                "article": null
            }
        },
        {
            "type": "Feature",
            "geometry": {
                "type": "Point",
                "coordinates": [
                    -83.850277777,
                    9.955277777
                ]
            },
            "properties": {
                "name": "Cerro Gurdián",
                "article": null
            }
        },
        {
            "type": "Feature",
            "geometry": {
                "type": "Point",
                "coordinates": [
                    -83.283333333,
                    9.366666666
                ]
            },
            "properties": {
                "name": "Cerro Hakk",
                "article": null
            }
        },
        {
            "type": "Feature",
            "geometry": {
                "type": "Point",
                "coordinates": [
                    -84.670833333,
                    9.628888888
                ]
            },
            "properties": {
                "name": "Isla Herradura",
                "article": null
            }
        },
        {
            "type": "Feature",
            "geometry": {
                "type": "Point",
                "coordinates": [
                    -84.603611111,
                    9.693611111
                ]
            },
            "properties": {
                "name": "Cerro Herradura",
                "article": null
            }
        },
        {
            "type": "Feature",
            "geometry": {
                "type": "Point",
                "coordinates": [
                    -83.2725,
                    9.2433
                ]
            },
            "properties": {
                "name": "Cerro Herubri",
                "article": null
            }
        },
        {
            "type": "Feature",
            "geometry": {
                "type": "Point",
                "coordinates": [
                    -85.416666666,
                    10.483333333
                ]
            },
            "properties": {
                "name": "Cerro de las Huacas",
                "article": null
            }
        },
        {
            "type": "Feature",
            "geometry": {
                "type": "Point",
                "coordinates": [
                    -85.266666666,
                    10.2
                ]
            },
            "properties": {
                "name": "Cerro del Copal",
                "article": null
            }
        },
        {
            "type": "Feature",
            "geometry": {
                "type": "Point",
                "coordinates": [
                    -85.316944444,
                    10.243611111
                ]
            },
            "properties": {
                "name": "Cerro de Corral de Piedra",
                "article": null
            }
        },
        {
            "type": "Feature",
            "geometry": {
                "type": "Point",
                "coordinates": [
                    -85.355,
                    10.195555555
                ]
            },
            "properties": {
                "name": "Cerro Corralillo",
                "article": null
            }
        },
        {
            "type": "Feature",
            "geometry": {
                "type": "Point",
                "coordinates": [
                    -84.1508,
                    9.5583
                ]
            },
            "properties": {
                "name": "Alto de los Coto",
                "article": null
            }
        },
        {
            "type": "Feature",
            "geometry": {
                "type": "Point",
                "coordinates": [
                    -85.326111111,
                    10.381388888
                ]
            },
            "properties": {
                "name": "Cerro Coyote",
                "article": null
            }
        },
        {
            "type": "Feature",
            "geometry": {
                "type": "Point",
                "coordinates": [
                    -84.166388888,
                    9.9475
                ]
            },
            "properties": {
                "name": "Cerro de los Coyotes",
                "article": null
            }
        },
        {
            "type": "Feature",
            "geometry": {
                "type": "Point",
                "coordinates": [
                    -82.981944444,
                    8.749722222
                ]
            },
            "properties": {
                "name": "Cerro Cruces",
                "article": null
            }
        },
        {
            "type": "Feature",
            "geometry": {
                "type": "Point",
                "coordinates": [
                    -83.6217,
                    9.5383
                ]
            },
            "properties": {
                "name": "Cerro Cuerisí",
                "article": null
            }
        },
        {
            "type": "Feature",
            "geometry": {
                "type": "Point",
                "coordinates": [
                    -85.135,
                    10.6733
                ]
            },
            "properties": {
                "name": "Cerro Cuipilapa",
                "article": null
            }
        },
        {
            "type": "Feature",
            "geometry": {
                "type": "Point",
                "coordinates": [
                    -84.116666666,
                    9.85
                ]
            },
            "properties": {
                "name": "Cerro Daser",
                "article": null
            }
        },
        {
            "type": "Feature",
            "geometry": {
                "type": "Point",
                "coordinates": [
                    -83.398055555,
                    9.337222222
                ]
            },
            "properties": {
                "name": "Cerro Deri",
                "article": null
            }
        },
        {
            "type": "Feature",
            "geometry": {
                "type": "Point",
                "coordinates": [
                    -84.0637,
                    10.0815
                ]
            },
            "properties": {
                "name": "Cerro Delicias",
                "article": null
            }
        },
        {
            "type": "Feature",
            "geometry": {
                "type": "Point",
                "coordinates": [
                    -85.516666666,
                    10.916666666
                ]
            },
            "properties": {
                "name": "Cerro del Diablo",
                "article": null
            }
        },
        {
            "type": "Feature",
            "geometry": {
                "type": "Point",
                "coordinates": [
                    -83.1725,
                    9.6475
                ]
            },
            "properties": {
                "name": "Cerro Dichíbeta",
                "article": null
            }
        },
        {
            "type": "Feature",
            "geometry": {
                "type": "Point",
                "coordinates": [
                    -83.130277777,
                    9.275555555
                ]
            },
            "properties": {
                "name": "Cerro Diká",
                "article": null
            }
        },
        {
            "type": "Feature",
            "geometry": {
                "type": "Point",
                "coordinates": [
                    -85.75,
                    11.0
                ]
            },
            "properties": {
                "name": "Isla Dispensa",
                "article": null
            }
        },
        {
            "type": "Feature",
            "geometry": {
                "type": "Point",
                "coordinates": [
                    -83.7717,
                    9.8467
                ]
            },
            "properties": {
                "name": "Cerro Duan",
                "article": null
            }
        },
        {
            "type": "Feature",
            "geometry": {
                "type": "Point",
                "coordinates": [
                    -83.0723,
                    9.2434
                ]
            },
            "properties": {
                "name": "Cerro Dud",
                "article": null
            }
        },
        {
            "type": "Feature",
            "geometry": {
                "type": "Point",
                "coordinates": [
                    -83.303888888,
                    9.375833333
                ]
            },
            "properties": {
                "name": "Cerro Dúrika",
                "article": null
            }
        },
        {
            "type": "Feature",
            "geometry": {
                "type": "Point",
                "coordinates": [
                    -83.283333333,
                    9.366666666
                ]
            },
            "properties": {
                "name": "Cerro Hakk",
                "article": null
            }
        },
        {
            "type": "Feature",
            "geometry": {
                "type": "Point",
                "coordinates": [
                    -84.670833333,
                    9.628888888
                ]
            },
            "properties": {
                "name": "Isla Herradura",
                "article": null
            }
        },
        {
            "type": "Feature",
            "geometry": {
                "type": "Point",
                "coordinates": [
                    -84.603611111,
                    9.693611111
                ]
            },
            "properties": {
                "name": "Cerro Herradura",
                "article": null
            }
        },
        {
            "type": "Feature",
            "geometry": {
                "type": "Point",
                "coordinates": [
                    -83.2725,
                    9.2433
                ]
            },
            "properties": {
                "name": "Cerro Herubri",
                "article": null
            }
        },
        {
            "type": "Feature",
            "geometry": {
                "type": "Point",
                "coordinates": [
                    -85.416666666,
                    10.483333333
                ]
            },
            "properties": {
                "name": "Cerro de las Huacas",
                "article": null
            }
        },
        {
            "type": "Feature",
            "geometry": {
                "type": "Point",
                "coordinates": [
                    -84.2,
                    9.9
                ]
            },
            "properties": {
                "name": "Cerro Huitite",
                "article": null
            }
        },
        {
            "type": "Feature",
            "geometry": {
                "type": "Point",
                "coordinates": [
                    -84.208888888,
                    10.295277777
                ]
            },
            "properties": {
                "name": "Laguna de Hule",
                "article": "https://en.wikipedia.org/wiki/Lake_Hule"
            }
        },
        {
            "type": "Feature",
            "geometry": {
                "type": "Point",
                "coordinates": [
                    -85.133333333,
                    10.233333333
                ]
            },
            "properties": {
                "name": "Cerro Humo",
                "article": null
            }
        },
        {
            "type": "Feature",
            "geometry": {
                "type": "Point",
                "coordinates": [
                    -84.7803,
                    10.5002
                ]
            },
            "properties": {
                "name": "Cerro del Indio",
                "article": null
            }
        },
        {
            "type": "Feature",
            "geometry": {
                "type": "Point",
                "coordinates": [
                    -84.983333333,
                    10.583333333
                ]
            },
            "properties": {
                "name": "Cerro Jilguero",
                "article": null
            }
        },
        {
            "type": "Feature",
            "geometry": {
                "type": "Point",
                "coordinates": [
                    -87.05,
                    5.51667
                ]
            },
            "properties": {
                "name": "Isla Juan Bautista",
                "article": null
            }
        },
        {
            "type": "Feature",
            "geometry": {
                "type": "Point",
                "coordinates": [
                    -85.715555555,
                    10.981944444
                ]
            },
            "properties": {
                "name": "Isla Juanilla",
                "article": null
            }
        },
        {
            "type": "Feature",
            "geometry": {
                "type": "Point",
                "coordinates": [
                    -85.6587,
                    10.2167
                ]
            },
            "properties": {
                "name": "Cerro Juan Leal",
                "article": null
            }
        },
        {
            "type": "Feature",
            "geometry": {
                "type": "Point",
                "coordinates": [
                    -83.055833333,
                    9.194444444
                ]
            },
            "properties": {
                "name": "Cerro Kasir",
                "article": null
            }
        },
        {
            "type": "Feature",
            "geometry": {
                "type": "Point",
                "coordinates": [
                    -83.3339,
                    9.3837
                ]
            },
            "properties": {
                "name": "Cerro Eli",
                "article": null
            }
        },
        {
            "type": "Feature",
            "geometry": {
                "type": "Point",
                "coordinates": [
                    -85.5442,
                    11.0017
                ]
            },
            "properties": {
                "name": "Cerro El Hacha",
                "article": null
            }
        },
        {
            "type": "Feature",
            "geometry": {
                "type": "Point",
                "coordinates": [
                    -85.183333333,
                    10.683333333
                ]
            },
            "properties": {
                "name": "Cerro El Peje",
                "article": null
            }
        },
        {
            "type": "Feature",
            "geometry": {
                "type": "Point",
                "coordinates": [
                    -83.5958,
                    9.5525
                ]
            },
            "properties": {
                "name": "Cerro El Nivel",
                "article": null
            }
        },
        {
            "type": "Feature",
            "geometry": {
                "type": "Point",
                "coordinates": [
                    -84.366666666,
                    9.733333333
                ]
            },
            "properties": {
                "name": "Cerro El Rey",
                "article": null
            }
        },
        {
            "type": "Feature",
            "geometry": {
                "type": "Point",
                "coordinates": [
                    -83.429166666,
                    9.3675
                ]
            },
            "properties": {
                "name": "Cerro Ena",
                "article": null
            }
        },
        {
            "type": "Feature",
            "geometry": {
                "type": "Point",
                "coordinates": [
                    -85.5633,
                    10.1533
                ]
            },
            "properties": {
                "name": "Cerro Esperanza",
                "article": null
            }
        },
        {
            "type": "Feature",
            "geometry": {
                "type": "Point",
                "coordinates": [
                    -84.406111111,
                    10.085
                ]
            },
            "properties": {
                "name": "Cerro Espíritu Santo",
                "article": null
            }
        },
        {
            "type": "Feature",
            "geometry": {
                "type": "Point",
                "coordinates": [
                    -84.316666666,
                    10.216666666
                ]
            },
            "properties": {
                "name": "Cerro Estanislao",
                "article": null
            }
        },
        {
            "type": "Feature",
            "geometry": {
                "type": "Point",
                "coordinates": [
                    -85.708888888,
                    11.047777777
                ]
            },
            "properties": {
                "name": "Isla Bolaños",
                "article": null
            }
        },
        {
            "type": "Feature",
            "geometry": {
                "type": "Point",
                "coordinates": [
                    -85.708611111,
                    11.048055555
                ]
            },
            "properties": {
                "name": "Isla Bolaños",
                "article": null
            }
        },
        {
            "type": "Feature",
            "geometry": {
                "type": "Point",
                "coordinates": [
                    -83.478888888,
                    9.113888888
                ]
            },
            "properties": {
                "name": "Cerro Bolas",
                "article": null
            }
        },
        {
            "type": "Feature",
            "geometry": {
                "type": "Point",
                "coordinates": [
                    -85.6263,
                    10.1056
                ]
            },
            "properties": {
                "name": "Cerro Brujo",
                "article": null
            }
        },
        {
            "type": "Feature",
            "geometry": {
                "type": "Point",
                "coordinates": [
                    -83.595555555,
                    8.648055555
                ]
            },
            "properties": {
                "name": "Cerro Brujo",
                "article": null
            }
        },
        {
            "type": "Feature",
            "geometry": {
                "type": "Point",
                "coordinates": [
                    -83.756666666,
                    9.553055555
                ]
            },
            "properties": {
                "name": "Cerro Buena Vista",
                "article": null
            }
        },
        {
            "type": "Feature",
            "geometry": {
                "type": "Point",
                "coordinates": [
                    -84.983055555,
                    9.986944444
                ]
            },
            "properties": {
                "name": "Isla Caballo",
                "article": null
            }
        },
        {
            "type": "Feature",
            "geometry": {
                "type": "Point",
                "coordinates": [
                    -84.96666667,
                    9.98333333
                ]
            },
            "properties": {
                "name": "Isla Caballo",
                "article": null
            }
        },
        {
            "type": "Feature",
            "geometry": {
                "type": "Point",
                "coordinates": [
                    -85.3475,
                    10.216666666
                ]
            },
            "properties": {
                "name": "Cerro Caballito",
                "article": null
            }
        },
        {
            "type": "Feature",
            "geometry": {
                "type": "Point",
                "coordinates": [
                    -83.383611111,
                    9.346666666
                ]
            },
            "properties": {
                "name": "Cerro Cabécar",
                "article": null
            }
        },
        {
            "type": "Feature",
            "geometry": {
                "type": "Point",
                "coordinates": [
                    -85.112777777,
                    9.541944444
                ]
            },
            "properties": {
                "name": "Isla Cabo Blanco",
                "article": null
            }
        },
        {
            "type": "Feature",
            "geometry": {
                "type": "Point",
                "coordinates": [
                    -83.8865,
                    9.9688
                ]
            },
            "properties": {
                "name": "Cerro Cabeza de Vaca",
                "article": null
            }
        },
        {
            "type": "Feature",
            "geometry": {
                "type": "Point",
                "coordinates": [
                    -85.080277777,
                    9.595277777
                ]
            },
            "properties": {
                "name": "Isla Cabuya",
                "article": null
            }
        },
        {
            "type": "Feature",
            "geometry": {
                "type": "Point",
                "coordinates": [
                    -85.448,
                    10.9324
                ]
            },
            "properties": {
                "name": "Cerro Cacao",
                "article": null
            }
        },
        {
            "type": "Feature",
            "geometry": {
                "type": "Point",
                "coordinates": [
                    -84.0433,
                    10.1929
                ]
            },
            "properties": {
                "name": "Cerro Cacho Negro",
                "article": null
            }
        },
        {
            "type": "Feature",
            "geometry": {
                "type": "Point",
                "coordinates": [
                    -84.35,
                    10.2
                ]
            },
            "properties": {
                "name": "Cerro Camacho",
                "article": null
            }
        },
        {
            "type": "Feature",
            "geometry": {
                "type": "Point",
                "coordinates": [
                    -85.2808,
                    9.9867
                ]
            },
            "properties": {
                "name": "Cerro Camas",
                "article": null
            }
        },
        {
            "type": "Feature",
            "geometry": {
                "type": "Point",
                "coordinates": [
                    -83.981666666,
                    9.615277777
                ]
            },
            "properties": {
                "name": "Cerro Camorra",
                "article": null
            }
        },
        {
            "type": "Feature",
            "geometry": {
                "type": "Point",
                "coordinates": [
                    -84.1926,
                    9.888
                ]
            },
            "properties": {
                "name": "Alto de la Caña Quemada",
                "article": null
            }
        },
        {
            "type": "Feature",
            "geometry": {
                "type": "Point",
                "coordinates": [
                    -83.0,
                    8.733333333
                ]
            },
            "properties": {
                "name": "Cerro Cañas Gordas",
                "article": null
            }
        },
        {
            "type": "Feature",
            "geometry": {
                "type": "Point",
                "coordinates": [
                    -85.441111111,
                    10.748055555
                ]
            },
            "properties": {
                "name": "Cerro Cañas Dulces",
                "article": null
            }
        },
        {
            "type": "Feature",
            "geometry": {
                "type": "Point",
                "coordinates": [
                    -84.368055555,
                    9.725
                ]
            },
            "properties": {
                "name": "Cerro Cangreja",
                "article": null
            }
        },
        {
            "type": "Feature",
            "geometry": {
                "type": "Point",
                "coordinates": [
                    -85.854166666,
                    10.299722222
                ]
            },
            "properties": {
                "name": "Isla Capitán",
                "article": null
            }
        },
        {
            "type": "Feature",
            "geometry": {
                "type": "Point",
                "coordinates": [
                    -83.9917,
                    9.7958
                ]
            },
            "properties": {
                "name": "Cerro Caragral",
                "article": null
            }
        },
        {
            "type": "Feature",
            "geometry": {
                "type": "Point",
                "coordinates": [
                    -84.03333,
                    10.06667
                ]
            },
            "properties": {
                "name": "Cerro Caricias",
                "article": null
            }
        },
        {
            "type": "Feature",
            "geometry": {
                "type": "Point",
                "coordinates": [
                    -83.983611111,
                    9.884166666
                ]
            },
            "properties": {
                "name": "Cerro Carpintera",
                "article": null
            }
        },
        {
            "type": "Feature",
            "geometry": {
                "type": "Point",
                "coordinates": [
                    -83.916666666,
                    9.8
                ]
            },
            "properties": {
                "name": "Cascajal",
                "article": null
            }
        },
        {
            "type": "Feature",
            "geometry": {
                "type": "Point",
                "coordinates": [
                    -85.263611111,
                    10.340277777
                ]
            },
            "properties": {
                "name": "Cerro Catalina",
                "article": null
            }
        },
        {
            "type": "Feature",
            "geometry": {
                "type": "Point",
                "coordinates": [
                    -87.06409,
                    5.54995
                ]
            },
            "properties": {
                "name": "Isla Cáscara",
                "article": null
            }
        },
        {
            "type": "Feature",
            "geometry": {
                "type": "Point",
                "coordinates": [
                    -85.6434,
                    10.2528
                ]
            },
            "properties": {
                "name": "Cerro Cebollin",
                "article": null
            }
        },
        {
            "type": "Feature",
            "geometry": {
                "type": "Point",
                "coordinates": [
                    -84.878333333,
                    9.846388888
                ]
            },
            "properties": {
                "name": "Isla Cedros",
                "article": null
            }
        },
        {
            "type": "Feature",
            "geometry": {
                "type": "Point",
                "coordinates": [
                    -84.083333333,
                    10.15
                ]
            },
            "properties": {
                "name": "Cima Central",
                "article": null
            }
        },
        {
            "type": "Feature",
            "geometry": {
                "type": "Point",
                "coordinates": [
                    -85.137777777,
                    10.202777777
                ]
            },