{
    "type": "FeatureCollection",
    "features": [
        {
            "type": "Feature",
            "geometry": {
                "type": "Point",
                "coordinates": [
                    -82.549166666,
                    22.991944444
                ]
            },
            "properties": {
                "name": "Bauta",
                "article": "https://en.wikipedia.org/wiki/Bauta,_Cuba"
            }
        },
        {
            "type": "Feature",
            "geometry": {
                "type": "Point",
                "coordinates": [
                    -82.688055555,
                    22.930555555
                ]
            },
            "properties": {
                "name": "Guanajay",
                "article": "https://en.wikipedia.org/wiki/Guanajay"
            }
        },
        {
            "type": "Feature",
            "geometry": {
                "type": "Point",
                "coordinates": [
                    -82.498888888,
                    22.888888888
                ]
            },
            "properties": {
                "name": "San Antonio de los Baños",
                "article": "https://en.wikipedia.org/wiki/San_Antonio_de_los_Ba%C3%B1os"
            }
        },
        {
            "type": "Feature",
            "geometry": {
                "type": "Point",
                "coordinates": [
                    -82.763333333,
                    22.813611111
                ]
            },
            "properties": {
                "name": "Artemisa",
                "article": "https://en.wikipedia.org/wiki/Artemisa"
            }
        },
        {
            "type": "Feature",
            "geometry": {
                "type": "Point",
                "coordinates": [
                    -82.85,
                    21.75
                ]
            },
            "properties": {
                "name": "Isla de la Juventud",
                "article": "https://en.wikipedia.org/wiki/Isla_de_la_Juventud"
            }
        },
        {
            "type": "Feature",
            "geometry": {
                "type": "Point",
                "coordinates": [
                    -81.906944444,
                    22.781944444
                ]
            },
            "properties": {
                "name": "San Nicolás de Bari",
                "article": "https://en.wikipedia.org/wiki/San_Nicol%C3%A1s_de_Bari"
            }
        },
        {
            "type": "Feature",
            "geometry": {
                "type": "Point",
                "coordinates": [
                    -81.923888888,
                    22.916388888
                ]
            },
            "properties": {
                "name": "Madruga",
                "article": "https://en.wikipedia.org/wiki/Madruga"
            }
        },
        {
            "type": "Feature",
            "geometry": {
                "type": "Point",
                "coordinates": [
                    -82.023611111,
                    22.8475
                ]
            },
            "properties": {
                "name": "Güines",
                "article": "https://en.wikipedia.org/wiki/G%C3%BCines"
            }
        },
        {
            "type": "Feature",
            "geometry": {
                "type": "Point",
                "coordinates": [
                    -82.28333,
                    22.71667
                ]
            },
            "properties": {
                "name": "Batabanó",
                "article": "https://en.wikipedia.org/wiki/Bataban%C3%B3,_Cuba"
            }
        },
        {
            "type": "Feature",
            "geometry": {
                "type": "Point",
                "coordinates": [
                    -82.148611111,
                    22.781388888
                ]
            },
            "properties": {
                "name": "Melena del Sur",
                "article": "https://en.wikipedia.org/wiki/Melena_del_Sur"
            }
        },
        {
            "type": "Feature",
            "geometry": {
                "type": "Point",
                "coordinates": [
                    -81.75,
                    22.766666666
                ]
            },
            "properties": {
                "name": "Nueva Paz",
                "article": "https://en.wikipedia.org/wiki/Nueva_Paz"
            }
        },
        {
            "type": "Feature",
            "geometry": {
                "type": "Point",
                "coordinates": [
                    -81.573611,
                    23.049444
                ]
            },
            "properties": {
                "name": "Matanzas",
                "article": "https://en.wikipedia.org/wiki/Matanzas"
            }
        },
        {
            "type": "Feature",
            "geometry": {
                "type": "Point",
                "coordinates": [
                    -79.723888888,
                    22.467777777
                ]
            },
            "properties": {
                "name": "Camajuaní",
                "article": "https://en.wikipedia.org/wiki/Camajuan%C3%AD"
            }
        },
        {
            "type": "Feature",
            "geometry": {
                "type": "Point",
                "coordinates": [
                    -76.1325,
                    20.601111111
                ]
            },
            "properties": {
                "name": "Urbano Noris",
                "article": "https://en.wikipedia.org/wiki/Urbano_Noris"
            }
        },
        {
            "type": "Feature",
            "geometry": {
                "type": "Point",
                "coordinates": [
                    -75.281388888,
                    20.664722222
                ]
            },
            "properties": {
                "name": "Frank País",
                "article": "https://en.wikipedia.org/wiki/Frank_Pa%C3%ADs,_Cuba"
            }
        },
        {
            "type": "Feature",
            "geometry": {
                "type": "Point",
                "coordinates": [
                    -76.136666666,
                    21.107222222
                ]
            },
            "properties": {
                "name": "Gibara",
                "article": "https://en.wikipedia.org/wiki/Gibara"
            }
        },
        {
            "type": "Feature",
            "geometry": {
                "type": "Point",
                "coordinates": [
                    -75.996388888,
                    21.028055555
                ]
            },
            "properties": {
                "name": "Rafael Freyre",
                "article": "https://en.wikipedia.org/wiki/Rafael_Freyre"
            }
        },
        {
            "type": "Feature",
            "geometry": {
                "type": "Point",
                "coordinates": [
                    -76.324166666,
                    20.743888888
                ]
            },
            "properties": {
                "name": "Cacocum",
                "article": "https://en.wikipedia.org/wiki/Cacocum"
            }
        },
        {
            "type": "Feature",
            "geometry": {
                "type": "Point",
                "coordinates": [
                    -76.601944444,
                    20.853888888
                ]
            },
            "properties": {
                "name": "Calixto García",
                "article": "https://en.wikipedia.org/wiki/Calixto_Garc%C3%ADa,_Cuba"
            }
        },
        {
            "type": "Feature",
            "geometry": {
                "type": "Point",
                "coordinates": [
                    -76.029722222,
                    20.763055555
                ]
            },
            "properties": {
                "name": "Báguanos",
                "article": "https://en.wikipedia.org/wiki/B%C3%A1guanos"
            }
        },
        {
            "type": "Feature",
            "geometry": {
                "type": "Point",
                "coordinates": [
                    -75.241666666,
                    20.585833333
                ]
            },
            "properties": {
                "name": "Sagua de Tánamo",
                "article": "https://en.wikipedia.org/wiki/Sagua_de_T%C3%A1namo"
            }
        },
        {
            "type": "Feature",
            "geometry": {
                "type": "Point",
                "coordinates": [
                    -74.6314,
                    20.06936
                ]
            },
            "properties": {
                "name": "Imías",
                "article": "https://en.wikipedia.org/wiki/Im%C3%ADas"
            }
        },
        {
            "type": "Feature",
            "geometry": {
                "type": "Point",
                "coordinates": [
                    -79.472222222,
                    22.515833333
                ]
            },
            "properties": {
                "name": "Caibarién",
                "article": "https://en.wikipedia.org/wiki/Caibari%C3%A9n"
            }
        },
        {
            "type": "Feature",
            "geometry": {
                "type": "Point",
                "coordinates": [
                    -79.966666666,
                    21.8
                ]
            },
            "properties": {
                "name": "Trinidad",
                "article": "https://en.wikipedia.org/wiki/Trinidad,_Cuba"
            }
        },
        {
            "type": "Feature",
            "geometry": {
                "type": "Point",
                "coordinates": [
                    -80.567777777,
                    22.280555555
                ]
            },
            "properties": {
                "name": "Abreus",
                "article": "https://en.wikipedia.org/wiki/Abreus,_Cuba"
            }
        },
        {
            "type": "Feature",
            "geometry": {
                "type": "Point",
                "coordinates": [
                    -79.0,
                    22.0
                ]
            },
            "properties": {
                "name": "Cuba",
                "article": null
            }
        },
        {
            "type": "Feature",
            "geometry": {
                "type": "Point",
                "coordinates": [
                    -77.283055555,
                    20.907777777
                ]
            },
            "properties": {
                "name": "Jobabo",
                "article": "https://en.wikipedia.org/wiki/Jobabo"
            }
        },
        {
            "type": "Feature",
            "geometry": {
                "type": "Point",
                "coordinates": [
                    -77.28194,
                    20.90748
                ]
            },
            "properties": {
                "name": "Jobabo",
                "article": "https://en.wikipedia.org/wiki/Jobabo"
            }
        },
        {
            "type": "Feature",
            "geometry": {
                "type": "Point",
                "coordinates": [
                    -82.504722222,
                    22.801944444
                ]
            },
            "properties": {
                "name": "Güira de Melena",
                "article": "https://en.wikipedia.org/wiki/G%C3%BCira_de_Melena"
            }
        },
        {
            "type": "Feature",
            "geometry": {
                "type": "Point",
                "coordinates": [
                    -82.958055555,
                    22.743888888
                ]
            },
            "properties": {
                "name": "Candelaria",
                "article": "https://en.wikipedia.org/wiki/Candelaria,_Cuba"
            }
        },
        {
            "type": "Feature",
            "geometry": {
                "type": "Point",
                "coordinates": [
                    -78.2775,
                    21.576666666
                ]
            },
            "properties": {
                "name": "Carlos Manuel de Céspedes",
                "article": "https://en.wikipedia.org/wiki/Carlos_Manuel_de_C%C3%A9spedes,_Cuba"
            }
        },
        {
            "type": "Feature",
            "geometry": {
                "type": "Point",
                "coordinates": [
                    -82.582777777,
                    22.806666666
                ]
            },
            "properties": {
                "name": "Alquízar",
                "article": "https://en.wikipedia.org/wiki/Alqu%C3%ADzar"
            }
        },
        {
            "type": "Feature",
            "geometry": {
                "type": "Point",
                "coordinates": [
                    -77.605,
                    21.489444444
                ]
            },
            "properties": {
                "name": "Minas",
                "article": "https://en.wikipedia.org/wiki/Minas,_Cuba"
            }
        },
        {
            "type": "Feature",
            "geometry": {
                "type": "Point",
                "coordinates": [
                    -77.747222222,
                    21.083611111
                ]
            },
            "properties": {
                "name": "Najasa",
                "article": "https://en.wikipedia.org/wiki/Najasa"
            }
        },
        {
            "type": "Feature",
            "geometry": {
                "type": "Point",
                "coordinates": [
                    -78.149166666,
                    21.256944444
                ]
            },
            "properties": {
                "name": "Vertientes",
                "article": "https://en.wikipedia.org/wiki/Vertientes"
            }
        },
        {
            "type": "Feature",
            "geometry": {
                "type": "Point",
                "coordinates": [
                    -77.770555555,
                    21.733055555
                ]
            },
            "properties": {
                "name": "Sierra de Cubitas",
                "article": "https://en.wikipedia.org/wiki/Sierra_de_Cubitas"
            }
        },
        {
            "type": "Feature",
            "geometry": {
                "type": "Point",
                "coordinates": [
                    -77.347777777,
                    21.058888888
                ]
            },
            "properties": {
                "name": "Guáimaro",
                "article": "https://en.wikipedia.org/wiki/Gu%C3%A1imaro"
            }
        },
        {
            "type": "Feature",
            "geometry": {
                "type": "Point",
                "coordinates": [
                    -78.111388888,
                    21.856111111
                ]
            },
            "properties": {
                "name": "Esmeralda",
                "article": "https://en.wikipedia.org/wiki/Esmeralda,_Cuba"
            }
        },
        {
            "type": "Feature",
            "geometry": {
                "type": "Point",
                "coordinates": [
                    -77.264444444,
                    21.540277777
                ]
            },
            "properties": {
                "name": "Nuevitas",
                "article": "https://en.wikipedia.org/wiki/Nuevitas"
            }
        },
        {
            "type": "Feature",
            "geometry": {
                "type": "Point",
                "coordinates": [
                    -77.9986,
                    20.71176
                ]
            },
            "properties": {
                "name": "Santa Cruz del Sur",
                "article": "https://en.wikipedia.org/wiki/Santa_Cruz_del_Sur"
            }
        },
        {
            "type": "Feature",
            "geometry": {
                "type": "Point",
                "coordinates": [
                    -78.222777777,
                    21.529444444
                ]
            },
            "properties": {
                "name": "Florida",
                "article": "https://en.wikipedia.org/wiki/Florida,_Cuba"
            }
        },
        {
            "type": "Feature",
            "geometry": {
                "type": "Point",
                "coordinates": [
                    -81.392434,
                    22.029111
                ]
            },
            "properties": {
                "name": "Ernst Thälmann Island",
                "article": "https://en.wikipedia.org/wiki/Ernst_Th%C3%A4lmann_Island"
            }
        },
        {
            "type": "Feature",
            "geometry": {
                "type": "Point",
                "coordinates": [
                    -81.286111111,
                    23.139444444
                ]
            },
            "properties": {
                "name": "Varadero",
                "article": "https://en.wikipedia.org/wiki/Varadero"
            }
        },
        {
            "type": "Feature",
            "geometry": {
                "type": "Point",
                "coordinates": [
                    -75.991944444,
                    20.213888888
                ]
            },
            "properties": {
                "name": "Palma Soriano",
                "article": "https://en.wikipedia.org/wiki/Palma_Soriano"
            }
        },
        {
            "type": "Feature",
            "geometry": {
                "type": "Point",
                "coordinates": [
                    -75.051388888,
                    20.180277777
                ]
            },
            "properties": {
                "name": "Manuel Tames",
                "article": "https://en.wikipedia.org/wiki/Manuel_Tames"
            }
        },
        {
            "type": "Feature",
            "geometry": {
                "type": "Point",
                "coordinates": [
                    -80.238333333,
                    22.583333333
                ]
            },
            "properties": {
                "name": "Santo Domingo",
                "article": "https://en.wikipedia.org/wiki/Santo_Domingo,_Cuba"
            }
        },
        {
            "type": "Feature",
            "geometry": {
                "type": "Point",
                "coordinates": [
                    -75.711666666,
                    20.969722222
                ]
            },
            "properties": {
                "name": "Banes",
                "article": "https://en.wikipedia.org/wiki/Banes,_Cuba"
            }
        },
        {
            "type": "Feature",
            "geometry": {
                "type": "Point",
                "coordinates": [
                    -82.386944444,
                    22.932777777
                ]
            },
            "properties": {
                "name": "Bejucal",
                "article": "https://en.wikipedia.org/wiki/Bejucal"
            }
        },
        {
            "type": "Feature",
            "geometry": {
                "type": "Point",
                "coordinates": [
                    -82.801111111,
                    21.884722222
                ]
            },
            "properties": {
                "name": "Nueva Gerona",
                "article": "https://en.wikipedia.org/wiki/Nueva_Gerona"
            }
        },
        {
            "type": "Feature",
            "geometry": {
                "type": "Point",
                "coordinates": [
                    -82.358888888,
                    23.136666666
                ]
            },
            "properties": {
                "name": "Havana",
                "article": "https://en.wikipedia.org/wiki/Havana"
            }
        },
        {
            "type": "Feature",
            "geometry": {
                "type": "Point",
                "coordinates": [
                    -80.909722222,
                    22.533888888
                ]
            },
            "properties": {
                "name": "Calimete",
                "article": "https://en.wikipedia.org/wiki/Calimete"
            }
        },
        {
            "type": "Feature",
            "geometry": {
                "type": "Point",
                "coordinates": [
                    -81.015277777,
                    22.775277777
                ]
            },
            "properties": {
                "name": "Perico",
                "article": "https://en.wikipedia.org/wiki/Perico,_Cuba"
            }
        },
        {
            "type": "Feature",
            "geometry": {
                "type": "Point",
                "coordinates": [
                    -80.256111111,
                    22.79
                ]
            },
            "properties": {
                "name": "Quemado de Güines",
                "article": "https://en.wikipedia.org/wiki/Quemado_de_G%C3%BCines"
            }
        },
        {
            "type": "Feature",
            "geometry": {
                "type": "Point",
                "coordinates": [
                    -80.555277777,
                    22.342777777
                ]
            },
            "properties": {
                "name": "Rodas",
                "article": "https://en.wikipedia.org/wiki/Rodas"
            }
        },
        {
            "type": "Feature",
            "geometry": {
                "type": "Point",
                "coordinates": [
                    -80.394444444,
                    22.244444444
                ]
            },
            "properties": {
                "name": "Palmira",
                "article": "https://en.wikipedia.org/wiki/Palmira,_Cuba"
            }
        },
        {
            "type": "Feature",
            "geometry": {
                "type": "Point",
                "coordinates": [
                    -80.071111111,
                    22.808611111
                ]
            },
            "properties": {
                "name": "Sagua La Grande",
                "article": "https://en.wikipedia.org/wiki/Sagua_La_Grande"
            }
        },
        {
            "type": "Feature",
            "geometry": {
                "type": "Point",
                "coordinates": [
                    -80.906666666,
                    22.7225
                ]
            },
            "properties": {
                "name": "Colón",
                "article": "https://en.wikipedia.org/wiki/Col%C3%B3n,_Cuba"
            }
        },
        {
            "type": "Feature",
            "geometry": {
                "type": "Point",
                "coordinates": [
                    -80.276111111,
                    22.341944444
                ]
            },
            "properties": {
                "name": "Cruces",
                "article": "https://en.wikipedia.org/wiki/Cruces,_Cuba"
            }
        },
        {
            "type": "Feature",
            "geometry": {
                "type": "Point",
                "coordinates": [
                    -80.290555555,
                    22.416388888
                ]
            },
            "properties": {
                "name": "Lajas",
                "article": "https://en.wikipedia.org/wiki/Lajas,_Cuba"
            }
        },
        {
            "type": "Feature",
            "geometry": {
                "type": "Point",
                "coordinates": [
                    -77.918611111,
                    21.378611111
                ]
            },
            "properties": {
                "name": "Camagüey",
                "article": "https://en.wikipedia.org/wiki/Camag%C3%BCey"
            }
        },
        {
            "type": "Feature",
            "geometry": {
                "type": "Point",
                "coordinates": [
                    -76.642777777,
                    20.381666666
                ]
            },
            "properties": {
                "name": "Bayamo, Cuba.",
                "article": "https://en.wikipedia.org/wiki/Bayamo"
            }
        },
        {
            "type": "Feature",
            "geometry": {
                "type": "Point",
                "coordinates": [
                    -77.108611111,
                    20.339722222
                ]
            },
            "properties": {
                "name": "Manzanillo",
                "article": "https://en.wikipedia.org/wiki/Manzanillo,_Cuba"
            }
        },
        {
            "type": "Feature",
            "geometry": {
                "type": "Point",
                "coordinates": [
                    -78.763055555,
                    21.848055555
                ]
            },
            "properties": {
                "name": "Ciego de Ávila",
                "article": "https://en.wikipedia.org/wiki/Ciego_de_%C3%81vila"
            }
        },
        {
            "type": "Feature",
            "geometry": {
                "type": "Point",
                "coordinates": [
                    -82.753888888,
                    22.993611111
                ]
            },
            "properties": {
                "name": "Mariel",
                "article": "https://en.wikipedia.org/wiki/Mariel,_Cuba"
            }
        },
        {
            "type": "Feature",
            "geometry": {
                "type": "Point",
                "coordinates": [
                    -75.829444444,
                    20.021666666
                ]
            },
            "properties": {
                "name": "Santiago de Cuba",
                "article": "https://en.wikipedia.org/wiki/Santiago_de_Cuba"
            }
        },
        {
            "type": "Feature",
            "geometry": {
                "type": "Point",
                "coordinates": [
                    -74.807777777,
                    20.056944444
                ]
            },
            "properties": {
                "name": "San Antonio del Sur",
                "article": "https://en.wikipedia.org/wiki/San_Antonio_del_Sur"
            }
        },
        {
            "type": "Feature",
            "geometry": {
                "type": "Point",
                "coordinates": [
                    -74.941666666,
                    20.655555555
                ]
            },
            "properties": {
                "name": "Moa",
                "article": "https://en.wikipedia.org/wiki/Moa,_Cuba"
            }
        },
        {
            "type": "Feature",
            "geometry": {
                "type": "Point",
                "coordinates": [
                    -76.917222222,
                    20.563611111
                ]
            },
            "properties": {
                "name": "Río Cauto",
                "article": "https://en.wikipedia.org/wiki/R%C3%ADo_Cauto,_Cuba"
            }
        },
        {
            "type": "Feature",
            "geometry": {
                "type": "Point",
                "coordinates": [
                    -77.82625,
                    21.24224
                ]
            },
            "properties": {
                "name": "Jimaguayú",
                "article": "https://en.wikipedia.org/wiki/Jimaguay%C3%BA"
            }
        },
        {
            "type": "Feature",
            "geometry": {
                "type": "Point",
                "coordinates": [
                    -75.206111,
                    20.138333
                ]
            },
            "properties": {
                "name": "Guantánamo",
                "article": "https://en.wikipedia.org/wiki/Guant%C3%A1namo"
            }
        },
        {
            "type": "Feature",
            "geometry": {
                "type": "Point",
                "coordinates": [
                    -80.436388888,
                    22.145555555
                ]
            },
            "properties": {
                "name": "Cienfuegos",
                "article": "https://en.wikipedia.org/wiki/Cienfuegos"
            }
        },
        {
            "type": "Feature",
            "geometry": {
                "type": "Point",
                "coordinates": [
                    -79.953055555,
                    22.406666666
                ]
            },
            "properties": {
                "name": "Santa Clara",
                "article": "https://en.wikipedia.org/wiki/Santa_Clara,_Cuba"
            }
        },
        {
            "type": "Feature",
            "geometry": {
                "type": "Point",
                "coordinates": [
                    -83.671944444,
                    22.412222222
                ]
            },
            "properties": {
                "name": "Pinar del Río",
                "article": "https://en.wikipedia.org/wiki/Pinar_del_R%C3%ADo"
            }
        },
        {
            "type": "Feature",
            "geometry": {
                "type": "Point",
                "coordinates": [
                    -76.263055555,
                    20.887222222
                ]
            },
            "properties": {
                "name": "Holguín",
                "article": "https://en.wikipedia.org/wiki/Holgu%C3%ADn"
            }
        },
        {
            "type": "Feature",
            "geometry": {
                "type": "Point",
                "coordinates": [
                    -78.350277777,
                    22.075
                ]
            },
            "properties": {
                "name": "Bolivia",
                "article": "https://en.wikipedia.org/wiki/Bolivia,_Cuba"
            }
        },
        {
            "type": "Feature",
            "geometry": {
                "type": "Point",
                "coordinates": [
                    -77.521111111,
                    21.238888888
                ]
            },
            "properties": {
                "name": "Sibanicú",
                "article": "https://en.wikipedia.org/wiki/Sibanic%C3%BA"
            }
        },
        {
            "type": "Feature",
            "geometry": {
                "type": "Point",
                "coordinates": [
                    -82.596388888,
                    22.9575
                ]
            },
            "properties": {
                "name": "Caimito",
                "article": "https://en.wikipedia.org/wiki/Caimito,_Cuba"
            }
        },
        {
            "type": "Feature",
            "geometry": {
                "type": "Point",
                "coordinates": [
                    -83.051111111,
                    22.716944444
                ]
            },
            "properties": {
                "name": "San Cristóbal",
                "article": "https://en.wikipedia.org/wiki/San_Crist%C3%B3bal,_Cuba"
            }
        },
        {
            "type": "Feature",
            "geometry": {
                "type": "Point",
                "coordinates": [
                    -83.163888888,
                    22.906388888
                ]
            },
            "properties": {
                "name": "Bahía Honda",
                "article": "https://en.wikipedia.org/wiki/Bah%C3%ADa_Honda,_Cuba"
            }
        },
        {
            "type": "Feature",
            "geometry": {
                "type": "Point",
                "coordinates": [
                    -79.443888888,
                    21.933888888
                ]
            },
            "properties": {
                "name": "Sancti Spíritus",
                "article": "https://en.wikipedia.org/wiki/Sancti_Sp%C3%ADritus"
            }
        },
        {
            "type": "Feature",
            "geometry": {
                "type": "Point",
                "coordinates": [
                    -79.243333333,
                    21.760555555
                ]
            },
            "properties": {
                "name": "La Sierpe",
                "article": "https://en.wikipedia.org/wiki/La_Sierpe,_Cuba"
            }
        },
        {
            "type": "Feature",
            "geometry": {
                "type": "Point",
                "coordinates": [
                    -79.655555555,
                    22.315833333
                ]
            },
            "properties": {
                "name": "Placetas",
                "article": "https://en.wikipedia.org/wiki/Placetas"
            }
        },
        {
            "type": "Feature",
            "geometry": {
                "type": "Point",
                "coordinates": [
                    -79.236944444,
                    22.330277777
                ]
            },
            "properties": {
                "name": "Yaguajay",
                "article": "https://en.wikipedia.org/wiki/Yaguajay,_Cuba"
            }
        },
        {
            "type": "Feature",
            "geometry": {
                "type": "Point",
                "coordinates": [
                    -79.265,
                    22.005
                ]
            },
            "properties": {
                "name": "Taguasco",
                "article": "https://en.wikipedia.org/wiki/Taguasco"
            }
        },
        {
            "type": "Feature",
            "geometry": {
                "type": "Point",
                "coordinates": [
                    -75.9,
                    20.55
                ]
            },
            "properties": {
                "name": "Birán",
                "article": "https://en.wikipedia.org/wiki/Bir%C3%A1n"
            }
        },
        {
            "type": "Feature",
            "geometry": {
                "type": "Point",
                "coordinates": [
                    -75.9,
                    20.55
                ]
            },
            "properties": {
                "name": "Birán",
                "article": "https://en.wikipedia.org/wiki/Bir%C3%A1n"
            }
        },
        {
            "type": "Feature",
            "geometry": {
                "type": "Point",
                "coordinates": [
                    -74.156111111,
                    20.243055555
                ]
            },
            "properties": {
                "name": "Maisí",
                "article": "https://en.wikipedia.org/wiki/Mais%C3%AD"
            }
        },
        {
            "type": "Feature",
            "geometry": {
                "type": "Point",
                "coordinates": [
                    -74.15181,
                    20.24673
                ]
            },
            "properties": {
                "name": "Maisí",
                "article": "https://en.wikipedia.org/wiki/Mais%C3%AD"
            }
        },
        {
            "type": "Feature",
            "geometry": {
                "type": "Point",
                "coordinates": [
                    -78.627777777,
                    22.110833333
                ]
            },
            "properties": {
                "name": "Morón",
                "article": "https://en.wikipedia.org/wiki/Mor%C3%B3n,_Cuba"
            }
        },
        {
            "type": "Feature",
            "geometry": {
                "type": "Point",
                "coordinates": [
                    -81.203611111,
                    23.042777777
                ]
            },
            "properties": {
                "name": "Cárdenas",
                "article": "https://en.wikipedia.org/wiki/C%C3%A1rdenas,_Cuba"
            }
        },
        {
            "type": "Feature",
            "geometry": {
                "type": "Point",
                "coordinates": [
                    -77.436111111,
                    20.144444444
                ]
            },
            "properties": {
                "name": "Media Luna",
                "article": "https://en.wikipedia.org/wiki/Media_Luna,_Cuba"
            }
        },
        {
            "type": "Feature",
            "geometry": {
                "type": "Point",
                "coordinates": [
                    -82.155833333,
                    22.967777777
                ]
            },
            "properties": {
                "name": "San José de las Lajas",
                "article": "https://en.wikipedia.org/wiki/San_Jos%C3%A9_de_las_Lajas"
            }
        },
        {
            "type": "Feature",
            "geometry": {
                "type": "Point",
                "coordinates": [
                    -78.966944444,
                    22.1475
                ]
            },
            "properties": {
                "name": "Florencia",
                "article": "https://en.wikipedia.org/wiki/Florencia,_Cuba"
            }
        },
        {
            "type": "Feature",
            "geometry": {
                "type": "Point",
                "coordinates": [
                    -78.418888888,
                    21.945277777
                ]
            },
            "properties": {
                "name": "Primero de Enero",
                "article": "https://en.wikipedia.org/wiki/Primero_de_Enero"
            }
        },
        {
            "type": "Feature",
            "geometry": {
                "type": "Point",
                "coordinates": [
                    -78.703056,
                    22.018889
                ]
            },
            "properties": {
                "name": "Ciro Redondo",
                "article": "https://en.wikipedia.org/wiki/Ciro_Redondo"
            }
        },
        {
            "type": "Feature",
            "geometry": {
                "type": "Point",
                "coordinates": [
                    -75.678055555,
                    20.659166666
                ]
            },
            "properties": {
                "name": "Mayarí",
                "article": "https://en.wikipedia.org/wiki/Mayar%C3%AD"
            }
        },
        {
            "type": "Feature",
            "geometry": {
                "type": "Point",
                "coordinates": [
                    -75.15196,
                    19.99077
                ]
            },
            "properties": {
                "name": "Caimanera",
                "article": "https://en.wikipedia.org/wiki/Caimanera"
            }
        },
        {
            "type": "Feature",
            "geometry": {
                "type": "Point",
                "coordinates": [
                    -74.924444444,
                    20.35
                ]
            },
            "properties": {
                "name": "Yateras",
                "article": "https://en.wikipedia.org/wiki/Yateras"
            }
        },
        {
            "type": "Feature",
            "geometry": {
                "type": "Point",
                "coordinates": [
                    -75.223055555,
                    20.209444444
                ]
            },
            "properties": {
                "name": "El Salvador",
                "article": "https://en.wikipedia.org/wiki/El_Salvador,_Cuba"
            }
        },
        {
            "type": "Feature",
            "geometry": {
                "type": "Point",
                "coordinates": [
                    -75.342222222,
                    20.1275
                ]
            },
            "properties": {
                "name": "Niceto Pérez",
                "article": "https://en.wikipedia.org/wiki/Niceto_P%C3%A9rez"
            }
        },
        {
            "type": "Feature",
            "geometry": {
                "type": "Point",
                "coordinates": [
                    -79.243333333,
                    21.760555555
                ]
            },
            "properties": {
                "name": "La Sierpe",
                "article": "https://en.wikipedia.org/wiki/La_Sierpe,_Cuba"
            }
        },
        {
            "type": "Feature",
            "geometry": {
                "type": "Point",
                "coordinates": [
                    -79.655555555,
                    22.315833333
                ]
            },
            "properties": {
                "name": "Placetas",
                "article": "https://en.wikipedia.org/wiki/Placetas"
            }
        },
        {
            "type": "Feature",
            "geometry": {
                "type": "Point",
                "coordinates": [
                    -79.236944444,
                    22.330277777
                ]
            },
            "properties": {
                "name": "Yaguajay",
                "article": "https://en.wikipedia.org/wiki/Yaguajay,_Cuba"
            }
        },
        {
            "type": "Feature",
            "geometry": {
                "type": "Point",
                "coordinates": [
                    -79.265,
                    22.005
                ]
            },
            "properties": {
                "name": "Taguasco",
                "article": "https://en.wikipedia.org/wiki/Taguasco"
            }
        },
        {
            "type": "Feature",
            "geometry": {
                "type": "Point",
                "coordinates": [
                    -75.9,
                    20.55
                ]
            },
            "properties": {
                "name": "Birán",
                "article": "https://en.wikipedia.org/wiki/Bir%C3%A1n"
            }
        },
        {
            "type": "Feature",
            "geometry": {
                "type": "Point",
                "coordinates": [
                    -75.9,
                    20.55
                ]
            },
            "properties": {
                "name": "Birán",
                "article": "https://en.wikipedia.org/wiki/Bir%C3%A1n"
            }
        },
        {
            "type": "Feature",
            "geometry": {
                "type": "Point",
                "coordinates": [
                    -74.156111111,
                    20.243055555
                ]
            },
            "properties": {
                "name": "Maisí",
                "article": "https://en.wikipedia.org/wiki/Mais%C3%AD"
            }
        },
        {
            "type": "Feature",
            "geometry": {
                "type": "Point",
                "coordinates": [
                    -74.15181,
                    20.24673
                ]
            },
            "properties": {
                "name": "Maisí",
                "article": "https://en.wikipedia.org/wiki/Mais%C3%AD"
            }
        },
        {
            "type": "Feature",
            "geometry": {
                "type": "Point",
                "coordinates": [
                    -75.7961154,
                    20.0209106
                ]
            },
            "properties": {
                "name": "Battle of San Juan Hill",
                "article": "https://en.wikipedia.org/wiki/Battle_of_San_Juan_Hill"
            }
        },
        {
            "type": "Feature",
            "geometry": {
                "type": "Point",
                "coordinates": [
                    -78.621388888,
                    22.209166666
                ]
            },
            "properties": {
                "name": "Laguna de Leche",
                "article": "https://en.wikipedia.org/wiki/Laguna_de_Leche"
            }
        },
        {
            "type": "Feature",
            "geometry": {
                "type": "Point",
                "coordinates": [
                    -74.573888888,
                    20.352222222
                ]
            },
            "properties": {
                "name": "El Yunque, Cuba",
                "article": "https://en.wikipedia.org/wiki/El_Yunque_(Cuba)"
            }
        },
        {
            "type": "Feature",
            "geometry": {
                "type": "Point",
                "coordinates": [
                    -76.4775,
                    21.163333333
                ]
            },
            "properties": {
                "name": "Jesús Menéndez",
                "article": "https://en.wikipedia.org/wiki/Jes%C3%BAs_Men%C3%A9ndez"
            }
        },
        {
            "type": "Feature",
            "geometry": {
                "type": "Point",
                "coordinates": [
                    -76.876388888,
                    20.917222222
                ]
            },
            "properties": {
                "name": "Majibacoa",
                "article": "https://en.wikipedia.org/wiki/Majibacoa"
            }
        },
        {
            "type": "Feature",
            "geometry": {
                "type": "Point",
                "coordinates": [
                    -76.4727,
                    20.55709
                ]
            },
            "properties": {
                "name": "Cauto Cristo",
                "article": "https://en.wikipedia.org/wiki/Cauto_Cristo"
            }
        },
        {
            "type": "Feature",
            "geometry": {
                "type": "Point",
                "coordinates": [
                    -75.626816,
                    20.011396
                ]
            },
            "properties": {
                "name": "Gran Piedra",
                "article": null
            }
        },
        {
            "type": "Feature",
            "geometry": {
                "type": "Point",
                "coordinates": [
                    -82.009444444,
                    23.042777777
                ]
            },
            "properties": {
                "name": "Jaruco",
                "article": "https://en.wikipedia.org/wiki/Jaruco"
            }
        },
        {
            "type": "Feature",
            "geometry": {
                "type": "Point",
                "coordinates": [
                    -78.624444444,
                    21.681944444
                ]
            },
            "properties": {
                "name": "Baraguá",
                "article": "https://en.wikipedia.org/wiki/Baragu%C3%A1"
            }
        },
        {
            "type": "Feature",
            "geometry": {
                "type": "Point",
                "coordinates": [
                    -83.768055555,
                    22.282777777
                ]
            },
            "properties": {
                "name": "San Luis",
                "article": "https://en.wikipedia.org/wiki/San_Luis,_Pinar_del_R%C3%ADo"
            }
        },
        {
            "type": "Feature",
            "geometry": {
                "type": "Point",
                "coordinates": [
                    -83.768055555,
                    22.282777777
                ]
            },
            "properties": {
                "name": "San Luis",
                "article": "https://en.wikipedia.org/wiki/San_Luis,_Pinar_del_R%C3%ADo"
            }
        },
        {
            "type": "Feature",
            "geometry": {
                "type": "Point",
                "coordinates": [
                    -78.990555555,
                    21.924444444
                ]
            },
            "properties": {
                "name": "Majagua",
                "article": "https://en.wikipedia.org/wiki/Majagua,_Cuba"
            }
        },
        {
            "type": "Feature",
            "geometry": {
                "type": "Point",
                "coordinates": [
                    -76.749444444,
                    20.173611111
                ]
            },
            "properties": {
                "name": "Buey Arriba",
                "article": "https://en.wikipedia.org/wiki/Buey_Arriba"
            }
        },
        {
            "type": "Feature",
            "geometry": {
                "type": "Point",
                "coordinates": [
                    -77.320833333,
                    19.905277777
                ]
            },
            "properties": {
                "name": "Pilón",
                "article": "https://en.wikipedia.org/wiki/Pil%C3%B3n,_Cuba"
            }
        },
        {
            "type": "Feature",
            "geometry": {
                "type": "Point",
                "coordinates": [
                    -76.538055555,
                    20.260833333
                ]
            },
            "properties": {
                "name": "Guisa",
                "article": "https://en.wikipedia.org/wiki/Guisa"
            }
        },
        {
            "type": "Feature",
            "geometry": {
                "type": "Point",
                "coordinates": [
                    -77.584444444,
                    20.819722222
                ]
            },
            "properties": {
                "name": "Amancio",
                "article": "https://en.wikipedia.org/wiki/Amancio,_Cuba"
            }
        },
        {
            "type": "Feature",
            "geometry": {
                "type": "Point",
                "coordinates": [
                    -76.601666666,
                    21.195
                ]
            },
            "properties": {
                "name": "Puerto Padre",
                "article": "https://en.wikipedia.org/wiki/Puerto_Padre"
            }
        },
        {
            "type": "Feature",
            "geometry": {
                "type": "Point",
                "coordinates": [
                    -82.482222,
                    23.000278
                ]
            },
            "properties": {
                "name": "Lourdes SIGINT station",
                "article": "https://en.wikipedia.org/wiki/Lourdes_SIGINT_station"
            }
        },
        {
            "type": "Feature",
            "geometry": {
                "type": "Point",
                "coordinates": [
                    -79.9842748,
                    21.80565979
                ]
            },
            "properties": {
                "name": "Palacio Brunet (Trinidad)",
                "article": null
            }
        },
        {
            "type": "Feature",
            "geometry": {
                "type": "Point",
                "coordinates": [
                    -76.946944444,
                    20.276666666
                ]
            },
            "properties": {
                "name": "Yara",
                "article": "https://en.wikipedia.org/wiki/Yara,_Cuba"
            }
        },
        {
            "type": "Feature",
            "geometry": {
                "type": "Point",
                "coordinates": [
                    -82.355833333,
                    22.824722222
                ]
            },
            "properties": {
                "name": "Quivicán",
                "article": "https://en.wikipedia.org/wiki/Quivic%C3%A1n"
            }
        },
        {
            "type": "Feature",
            "geometry": {
                "type": "Point",
                "coordinates": [
                    -79.954167,
                    22.405278
                ]
            },
            "properties": {
                "name": "Battle of Santa Clara",
                "article": "https://en.wikipedia.org/wiki/Battle_of_Santa_Clara"
            }
        },
        {
            "type": "Feature",
            "geometry": {
                "type": "Point",
                "coordinates": [
                    -83.5525,
                    22.747222222
                ]
            },
            "properties": {
                "name": "La Palma",
                "article": "https://en.wikipedia.org/wiki/La_Palma,_Cuba"
            }
        },
        {
            "type": "Feature",
            "geometry": {
                "type": "Point",
                "coordinates": [
                    -76.422222222,
                    20.373055555
                ]
            },
            "properties": {
                "name": "Jiguaní",
                "article": "https://en.wikipedia.org/wiki/Jiguan%C3%AD"
            }
        },
        {
            "type": "Feature",
            "geometry": {
                "type": "Point",
                "coordinates": [
                    -76.937777777,
                    21.314444444
                ]
            },
            "properties": {
                "name": "Manatí",
                "article": "https://en.wikipedia.org/wiki/Manat%C3%AD,_Cuba"
            }
        },
        {
            "type": "Feature",
            "geometry": {
                "type": "Point",
                "coordinates": [
                    -81.290833333,
                    22.730277777
                ]
            },
            "properties": {
                "name": "Pedro Betancourt",
                "article": "https://en.wikipedia.org/wiki/Pedro_Betancourt"
            }
        },
        {
            "type": "Feature",
            "geometry": {
                "type": "Point",
                "coordinates": [
                    -80.716111111,
                    22.74
                ]
            },
            "properties": {
                "name": "Los Arabos",
                "article": "https://en.wikipedia.org/wiki/Los_Arabos"
            }
        },
        {
            "type": "Feature",
            "geometry": {
                "type": "Point",
                "coordinates": [
                    -80.066111111,
                    22.620833333
                ]
            },
            "properties": {
                "name": "Cifuentes",
                "article": "https://en.wikipedia.org/wiki/Cifuentes,_Cuba"
            }
        },
        {
            "type": "Feature",
            "geometry": {
                "type": "Point",
                "coordinates": [
                    -80.846111111,
                    22.384722222
                ]
            },
            "properties": {
                "name": "Aguada de Pasajeros",
                "article": "https://en.wikipedia.org/wiki/Aguada_de_Pasajeros"
            }
        },
        {
            "type": "Feature",
            "geometry": {
                "type": "Point",
                "coordinates": [
                    -75.720555555,
                    20.841111111
                ]
            },
            "properties": {
                "name": "Antilla",
                "article": "https://en.wikipedia.org/wiki/Antilla,_Cuba"
            }
        },
        {
            "type": "Feature",
            "geometry": {
                "type": "Point",
                "coordinates": [
                    -81.198055555,
                    22.810555555
                ]
            },
            "properties": {
                "name": "Jovellanos",
                "article": "https://en.wikipedia.org/wiki/Jovellanos"
            }
        },
        {
            "type": "Feature",
            "geometry": {
                "type": "Point",
                "coordinates": [
                    -80.583055555,
                    22.985555555
                ]
            },
            "properties": {
                "name": "Corralillo",
                "article": "https://en.wikipedia.org/wiki/Corralillo"
            }
        },
        {
            "type": "Feature",
            "geometry": {
                "type": "Point",
                "coordinates": [
                    -81.128611111,
                    22.526944444
                ]
            },
            "properties": {
                "name": "Jagüey Grande",
                "article": "https://en.wikipedia.org/wiki/Jag%C3%BCey_Grande"
            }
        },
        {
            "type": "Feature",
            "geometry": {
                "type": "Point",
                "coordinates": [
                    -81.1325,
                    22.529166666
                ]
            },
            "properties": {
                "name": "Jagüey Grande",
                "article": "https://en.wikipedia.org/wiki/Jag%C3%BCey_Grande"
            }
        },
        {
            "type": "Feature",
            "geometry": {
                "type": "Point",
                "coordinates": [
                    -77.415833333,
                    20.990555555
                ]
            },
            "properties": {
                "name": "Colombia",
                "article": "https://en.wikipedia.org/wiki/Colombia,_Cuba"
            }
        },
        {
            "type": "Feature",
            "geometry": {
                "type": "Point",
                "coordinates": [
                    -79.0947,
                    22.6447
                ]
            },
            "properties": {
                "name": "Cayo Los Ensenachos",
                "article": null
            }
        },
        {
            "type": "Feature",
            "geometry": {
                "type": "Point",
                "coordinates": [
                    -79.0,
                    22.6577
                ]
            },
            "properties": {
                "name": "Cayo Santa María",
                "article": "https://en.wikipedia.org/wiki/Cayo_Santa_Mar%C3%ADa"
            }
        },
        {
            "type": "Feature",
            "geometry": {
                "type": "Point",
                "coordinates": [
                    -77.524444444,
                    21.846666666
                ]
            },
            "properties": {
                "name": "Cayo Guajaba",
                "article": "https://en.wikipedia.org/wiki/Cayo_Guajaba"
            }
        },
        {
            "type": "Feature",
            "geometry": {
                "type": "Point",
                "coordinates": [
                    -82.13916667,
                    23.16472222
                ]
            },
            "properties": {
                "name": "Guanabo",
                "article": "https://en.wikipedia.org/wiki/Guanabo"
            }
        },
        {
            "type": "Feature",
            "geometry": {
                "type": "Point",
                "coordinates": [
                    -82.4467,
                    23.1015
                ]
            },
            "properties": {
                "name": "Quinta Avenida",
                "article": "https://en.wikipedia.org/wiki/Quinta_Avenida_(Havana)"
            }
        },
        {
            "type": "Feature",
            "geometry": {
                "type": "Point",
                "coordinates": [
                    -82.355286,
                    23.129673
                ]
            },
            "properties": {
                "name": "Havana Central railway station",
                "article": "https://en.wikipedia.org/wiki/Havana_Central_railway_station"
            }
        },
        {
            "type": "Feature",
            "geometry": {
                "type": "Point",
                "coordinates": [
                    -74.506111111,
                    20.365277777
                ]
            },
            "properties": {
                "name": "Gustavo Rizo Airport",
                "article": "https://en.wikipedia.org/wiki/Gustavo_Rizo_Airport"
            }
        },
        {
            "type": "Feature",
            "geometry": {
                "type": "Point",
                "coordinates": [
                    -79.53333333,
                    22.73333333
                ]
            },
            "properties": {
                "name": "Cayo Fragoso",
                "article": "https://en.wikipedia.org/wiki/Cayo_Fragoso"
            }
        },
        {
            "type": "Feature",
            "geometry": {
                "type": "Point",
                "coordinates": [
                    -84.836736,
                    21.772547
                ]
            },
            "properties": {
                "name": "Cuban underwater city",
                "article": "https://en.wikipedia.org/wiki/Cuban_underwater_formation"
            }
        },
        {
            "type": "Feature",
            "geometry": {
                "type": "Point",
                "coordinates": [
                    -77.124825,
                    20.34333889
                ]
            },
            "properties": {
                "name": "First Battle of Manzanillo",
                "article": "https://en.wikipedia.org/wiki/First_Battle_of_Manzanillo"
            }
        },
        {
            "type": "Feature",
            "geometry": {
                "type": "Point",
                "coordinates": [
                    -80.48222222,
                    23.20194444
                ]
            },
            "properties": {
                "name": "Cayo Bahía de Cádiz",
                "article": null
            }
        },
        {
            "type": "Feature",
            "geometry": {
                "type": "Point",
                "coordinates": [
                    -80.3,
                    22.25
                ]
            },
            "properties": {
                "name": "San Fernando de Camarones",
                "article": null
            }
        },
        {
            "type": "Feature",
            "geometry": {
                "type": "Point",
                "coordinates": [
                    -82.3571,
                    23.1389
                ]
            },
            "properties": {
                "name": "Bacardi Building (Havana)",
                "article": "https://en.wikipedia.org/wiki/Bacardi_Building_(Havana)"
            }
        },
        {
            "type": "Feature",
            "geometry": {
                "type": "Point",
                "coordinates": [
                    -75.1137,
                    20.0212
                ]
            },
            "properties": {
                "name": "Battle of Guantánamo Bay",
                "article": "https://en.wikipedia.org/wiki/Battle_of_Guant%C3%A1namo_Bay"
            }
        },
        {
            "type": "Feature",
            "geometry": {
                "type": "Point",
                "coordinates": [
                    -81.3667,
                    23.1125
                ]
            },
            "properties": {
                "name": "Boca de Camarioca",
                "article": null
            }
        },
        {
            "type": "Feature",
            "geometry": {
                "type": "Point",
                "coordinates": [
                    -76.6019,
                    20.85
                ]
            },
            "properties": {
                "name": "Buenaventura",
                "article": null
            }
        },
        {
            "type": "Feature",
            "geometry": {
                "type": "Point",
                "coordinates": [
                    -83.45,
                    22.9
                ]
            },
            "properties": {
                "name": "Cayo Alacranes",
                "article": null
            }
        },
        {
            "type": "Feature",
            "geometry": {
                "type": "Point",
                "coordinates": [
                    -78.9,
                    20.8
                ]
            },
            "properties": {
                "name": "Cayo Anclitas",
                "article": null
            }
        },
        {
            "type": "Feature",
            "geometry": {
                "type": "Point",
                "coordinates": [
                    -78.7225,
                    21.10027778
                ]
            },
            "properties": {
                "name": "Cayo Algodón Grande",
                "article": null
            }
        },
        {
            "type": "Feature",
            "geometry": {
                "type": "Point",
                "coordinates": [
                    -80.41527778,
                    23.14833333
                ]
            },
            "properties": {
                "name": "Cayo Blanquizal",
                "article": null
            }
        },
        {
            "type": "Feature",
            "geometry": {
                "type": "Point",
                "coordinates": [
                    -78.99888889,
                    20.86166667
                ]
            },
            "properties": {
                "name": "Cayo Caballones",
                "article": null
            }
        },
        {
            "type": "Feature",
            "geometry": {
                "type": "Point",
                "coordinates": [
                    -79.42583333,
                    21.12277778
                ]
            },
            "properties": {
                "name": "Cayo Bretón",
                "article": null
            }
        },
        {
            "type": "Feature",
            "geometry": {
                "type": "Point",
                "coordinates": [
                    -79.4214,
                    21.1144
                ]
            },
            "properties": {
                "name": "Cayo Bretón",
                "article": null
            }
        },
        {
            "type": "Feature",
            "geometry": {
                "type": "Point",
                "coordinates": [
                    -78.88444444,
                    22.68666667
                ]
            },
            "properties": {
                "name": "Cayo Caimán Grande",
                "article": null
            }
        },
        {
            "type": "Feature",
            "geometry": {
                "type": "Point",
                "coordinates": [
                    -82.03333333,
                    21.6
                ]
            },
            "properties": {
                "name": "Cayo Cantiles",
                "article": null
            }
        },
        {
            "type": "Feature",
            "geometry": {
                "type": "Point",
                "coordinates": [
                    -80.45888889,
                    22.08722222
                ]
            },
            "properties": {
                "name": "Cayo Carenas",
                "article": null
            }
        },
        {
            "type": "Feature",
            "geometry": {
                "type": "Point",
                "coordinates": [
                    -77.7625,
                    22.17972222
                ]
            },
            "properties": {
                "name": "Cayo Cruz",
                "article": null
            }
        },
        {
            "type": "Feature",
            "geometry": {
                "type": "Point",
                "coordinates": [
                    -77.82111,
                    22.24083
                ]
            },
            "properties": {
                "name": "Cayo Cruz",
                "article": null
            }
        },
        {
            "type": "Feature",
            "geometry": {
                "type": "Point",
                "coordinates": [
                    -80.91138889,
                    23.265
                ]
            },
            "properties": {
                "name": "Cayo Cruz del Padre",
                "article": "https://en.wikipedia.org/wiki/Cayo_Cruz_del_Padre"
            }
        },
        {
            "type": "Feature",
            "geometry": {
                "type": "Point",
                "coordinates": [
                    -77.68333333,
                    21.86666667
                ]
            },
            "properties": {
                "name": "Cayo Eusebio",
                "article": null
            }
        },
        {
            "type": "Feature",
            "geometry": {
                "type": "Point",
                "coordinates": [
                    -79.198611111,
                    22.635277777
                ]
            },
            "properties": {
                "name": "Cayo Francés",
                "article": null
            }
        },
        {
            "type": "Feature",
            "geometry": {
                "type": "Point",
                "coordinates": [
                    -78.24138889,
                    20.62361111
                ]
            },
            "properties": {
                "name": "Cayo Granada",
                "article": null
            }
        },
        {
            "type": "Feature",
            "geometry": {
                "type": "Point",
                "coordinates": [
                    -79.95583333,
                    22.95638889
                ]
            },
            "properties": {
                "name": "Cayo Hachuela",
                "article": null
            }
        },
        {
            "type": "Feature",
            "geometry": {
                "type": "Point",
                "coordinates": [
                    -80.07888889,
                    23.06722222
                ]
            },
            "properties": {
                "name": "Cayo Hicacal",
                "article": null
            }
        },
        {
            "type": "Feature",
            "geometry": {
                "type": "Point",
                "coordinates": [
                    -84.0228,
                    22.7153
                ]
            },
            "properties": {
                "name": "Cayo Jutías",
                "article": null
            }
        },
        {
            "type": "Feature",
            "geometry": {
                "type": "Point",
                "coordinates": [
                    -83.67,
                    22.8125
                ]
            },
            "properties": {
                "name": "Cayo Las Uvas",
                "article": null
            }
        },
        {
            "type": "Feature",
            "geometry": {
                "type": "Point",
                "coordinates": [
                    -80.45583333,
                    22.15083333
                ]
            },
            "properties": {
                "name": "Cayo Loco",
                "article": null
            }
        },
        {
            "type": "Feature",
            "geometry": {
                "type": "Point",
                "coordinates": [
                    -79.95833333,
                    22.98055556
                ]
            },
            "properties": {
                "name": "Cayo Maravillas",
                "article": null
            }
        },
        {
            "type": "Feature",
            "geometry": {
                "type": "Point",
                "coordinates": [
                    -77.91638889,
                    22.33138889
                ]
            },
            "properties": {
                "name": "Cayo Mégano Grande",
                "article": null
            }
        },
        {
            "type": "Feature",
            "geometry": {
                "type": "Point",
                "coordinates": [
                    -78.116666944,
                    22.483333055
                ]
            },
            "properties": {
                "name": "Cayo Paredón Grande",
                "article": null
            }
        },
        {
            "type": "Feature",
            "geometry": {
                "type": "Point",
                "coordinates": [
                    -80.2025,
                    23.10555556
                ]
            },
            "properties": {
                "name": "Cayo Piedra del Obispo",
                "article": null
            }
        },
        {
            "type": "Feature",
            "geometry": {
                "type": "Point",
                "coordinates": [
                    -80.15916667,
                    23.06166667
                ]
            },
            "properties": {
                "name": "Cayo Sotavento",
                "article": null
            }
        },
        {
            "type": "Feature",
            "geometry": {
                "type": "Point",
                "coordinates": [
                    -81.88333333,
                    21.63333333
                ]
            },
            "properties": {
                "name": "Cayo del Rosario",
                "article": null
            }
        },
        {
            "type": "Feature",
            "geometry": {
                "type": "Point",
                "coordinates": [
                    -82.361,
                    23.1321
                ]
            },
            "properties": {
                "name": "Palacio de Aldama",
                "article": "https://en.wikipedia.org/wiki/Palacio_de_Aldama"
            }
        },
        {
            "type": "Feature",
            "geometry": {
                "type": "Point",
                "coordinates": [
                    -82.38733333,
                    23.12066667
                ]
            },
            "properties": {
                "name": "Palace of the Revolution",
                "article": "https://en.wikipedia.org/wiki/Palace_of_the_Revolution"
            }
        },
        {
            "type": "Feature",
            "geometry": {
                "type": "Point",
                "coordinates": [
                    -82.45527778,
                    23.08777778
                ]
            },
            "properties": {
                "name": "Q6058351",
                "article": null
            }
        },
        {
            "type": "Feature",
            "geometry": {
                "type": "Point",
                "coordinates": [
                    -83.41527778,
                    22.9075
                ]
            },
            "properties": {
                "name": "Cayo Catalanes",
                "article": null
            }
        },
        {
            "type": "Feature",
            "geometry": {
                "type": "Point",
                "coordinates": [
                    -78.31666667,
                    22.25
                ]
            },
            "properties": {
                "name": "Cayo Judas",
                "article": null
            }
        },
        {
            "type": "Feature",
            "geometry": {
                "type": "Point",
                "coordinates": [
                    -82.35792778,
                    23.13801667
                ]
            },
            "properties": {
                "name": "Manzana de Gómez",
                "article": "https://en.wikipedia.org/wiki/Gran_Hotel_Manzana_Kempinski_La_Habana"
            }
        },
        {
            "type": "Feature",
            "geometry": {
                "type": "Point",
                "coordinates": [
                    -82.2475,
                    23.026111
                ]
            },
            "properties": {
                "name": "Modelo Brewery",
                "article": "https://en.wikipedia.org/wiki/Modelo_Brewery"
            }
        },
        {
            "type": "Feature",
            "geometry": {
                "type": "Point",
                "coordinates": [
                    -82.360629,
                    23.134246
                ]
            },
            "properties": {
                "name": "Real Fabrica de Tabacos Partagás",
                "article": "https://en.wikipedia.org/wiki/Real_Fabrica_de_Tabacos_Partag%C3%A1s"
            }
        },
        {
            "type": "Feature",
            "geometry": {
                "type": "Point",
                "coordinates": [
                    -79.96598,
                    22.41355
                ]
            },
            "properties": {
                "name": "Santa Clara railway station",
                "article": "https://en.wikipedia.org/wiki/Santa_Clara_railway_station_(Cuba)"
            }
        },
        {
            "type": "Feature",
            "geometry": {
                "type": "Point",
                "coordinates": [
                    -82.34903333,
                    23.14049444
                ]
            },
            "properties": {
                "name": "El Templete (Havana)",
                "article": "https://en.wikipedia.org/wiki/El_Templete"
            }
        },
        {
            "type": "Feature",
            "geometry": {
                "type": "Point",
                "coordinates": [
                    -75.81916667,
                    20.02638889
                ]
            },
            "properties": {
                "name": "Attack on the Moncada Barracks",
                "article": "https://en.wikipedia.org/wiki/Attack_on_the_Moncada_Barracks"
            }
        },
        {
            "type": "Feature",
            "geometry": {
                "type": "Point",
                "coordinates": [
                    -80.5833333,
                    22.4
                ]
            },
            "properties": {
                "name": "Adrián Martínez",
                "article": null
            }
        },
        {
            "type": "Feature",
            "geometry": {
                "type": "Point",
                "coordinates": [
                    -77.27889,
                    20.23417
                ]
            },
            "properties": {
                "name": "Campechuela",
                "article": null
            }
        },
        {
            "type": "Feature",
            "geometry": {
                "type": "Point",
                "coordinates": [
                    -76.9,
                    20.55
                ]
            },
            "properties": {
                "name": "Fernando Echenique",
                "article": null
            }
        },
        {
            "type": "Feature",
            "geometry": {
                "type": "Point",
                "coordinates": [
                    -80.9,
                    22.78
                ]
            },
            "properties": {
                "name": "Nueva Echevarria",
                "article": null
            }
        },
        {
            "type": "Feature",
            "geometry": {
                "type": "Point",
                "coordinates": [
                    -81.92611,
                    23.15374
                ]
            },
            "properties": {
                "name": "Santa Cruz del Norte",
                "article": null
            }
        },
        {
            "type": "Feature",
            "geometry": {
                "type": "Point",
                "coordinates": [
                    -75.8343,
                    20.0309
                ]
            },
            "properties": {
                "name": "Santiago de Cuba railway station",
                "article": "https://en.wikipedia.org/wiki/Santiago_de_Cuba_railway_station"
            }
        },
        {
            "type": "Feature",
            "geometry": {
                "type": "Point",
                "coordinates": [
                    -77.9157,
                    21.3893
                ]
            },
            "properties": {
                "name": "Camagüey railway station",
                "article": "https://en.wikipedia.org/wiki/Camag%C3%BCey_railway_station"
            }
        },
        {
            "type": "Feature",
            "geometry": {
                "type": "Point",
                "coordinates": [
                    -82.37583333,
                    23.13833333
                ]
            },
            "properties": {
                "name": "Callejón de Hamel",
                "article": null
            }
        },
        {
            "type": "Feature",
            "geometry": {
                "type": "Point",
                "coordinates": [
                    -82.3943,
                    23.1313
                ]
            },
            "properties": {
                "name": "Calle 23",
                "article": null
            }
        },
        {
            "type": "Feature",
            "geometry": {
                "type": "Point",
                "coordinates": [
                    -83.3645,
                    22.789
                ]
            },
            "properties": {
                "name": "Pan de Guajaibón",
                "article": "https://en.wikipedia.org/wiki/Pan_de_Guajaib%C3%B3n"
            }
        },
        {
            "type": "Feature",
            "geometry": {
                "type": "Point",
                "coordinates": [
                    -81.16553,
                    23.19461
                ]
            },
            "properties": {
                "name": "Royalton Hicacos",
                "article": "https://en.wikipedia.org/wiki/Royalton_Hicacos"
            }
        },
        {
            "type": "Feature",
            "geometry": {
                "type": "Point",
                "coordinates": [
                    -80.9711111,
                    22.6158333
                ]
            },
            "properties": {
                "name": "Caney",
                "article": null
            }
        },
        {
            "type": "Feature",
            "geometry": {
                "type": "Point",
                "coordinates": [
                    -80.20354,
                    22.15247
                ]
            },
            "properties": {
                "name": "Cumanayagua",
                "article": null
            }
        },
        {
            "type": "Feature",
            "geometry": {
                "type": "Point",
                "coordinates": [
                    -80.9333333,
                    22.9666667
                ]
            },
            "properties": {
                "name": "La Laguna",
                "article": null
            }
        },
        {
            "type": "Feature",
            "geometry": {
                "type": "Point",
                "coordinates": [
                    -83.7666667,
                    22.2833333
                ]
            },
            "properties": {
                "name": "El Divino Platón",
                "article": null
            }
        },
        {
            "type": "Feature",
            "geometry": {
                "type": "Point",
                "coordinates": [
                    -79.338,
                    22.033
                ]
            },
            "properties": {
                "name": "Puerta Prieta",
                "article": null
            }
        },
        {
            "type": "Feature",
            "geometry": {
                "type": "Point",
                "coordinates": [
                    -79.866111111,
                    22.616944444
                ]
            },
            "properties": {
                "name": "Encrucijada",
                "article": "https://en.wikipedia.org/wiki/Encrucijada"
            }
        },
        {
            "type": "Feature",
            "geometry": {
                "type": "Point",
                "coordinates": [
                    -76.1308333,
                    20.8377778
                ]
            },
            "properties": {
                "name": "Haticos",
                "article": null
            }
        },
        {
            "type": "Feature",
            "geometry": {
                "type": "Point",
                "coordinates": [
                    -75.779932924,
                    20.090772849
                ]
            },
            "properties": {
                "name": "San Vicente",
                "article": null
            }
        },
        {
            "type": "Feature",
            "geometry": {
                "type": "Point",
                "coordinates": [
                    -75.733333333,
                    20.316666666
                ]
            },
            "properties": {
                "name": "Alto la Vigía",
                "article": null
            }
        },
        {
            "type": "Feature",
            "geometry": {
                "type": "Point",
                "coordinates": [
                    -83.746944444,
                    22.641666666
                ]
            },
            "properties": {
                "name": "Sierra de Viñales",
                "article": null
            }
        },
        {
            "type": "Feature",
            "geometry": {
                "type": "Point",
                "coordinates": [
                    -79.584166666,
                    22.831388888
                ]
            },
            "properties": {
                "name": "Roca Vinson",
                "article": null
            }
        },
        {
            "type": "Feature",
            "geometry": {
                "type": "Point",
                "coordinates": [
                    -78.69611,
                    20.74583
                ]
            },
            "properties": {
                "name": "Cayo Vivero",
                "article": null
            }
        },
        {
            "type": "Feature",
            "geometry": {
                "type": "Point",
                "coordinates": [
                    -77.82028,
                    20.6675
                ]
            },
            "properties": {
                "name": "Cayo Yagruma",
                "article": null
            }
        },
        {
            "type": "Feature",
            "geometry": {
                "type": "Point",
                "coordinates": [
                    -75.8339,
                    21.0806
                ]
            },
            "properties": {
                "name": "Lomas de Yaguajay",
                "article": null
            }
        },
        {
            "type": "Feature",
            "geometry": {
                "type": "Point",
                "coordinates": [
                    -78.00833,
                    20.57806
                ]
            },
            "properties": {
                "name": "Cayo Yana",
                "article": null
            }
        },
        {
            "type": "Feature",
            "geometry": {
                "type": "Point",
                "coordinates": [
                    -74.720277777,
                    20.125833333
                ]
            },
            "properties": {
                "name": "Alto Yareyal",
                "article": null
            }
        },
        {
            "type": "Feature",
            "geometry": {
                "type": "Point",
                "coordinates": [
                    -75.7675,
                    20.769722222
                ]
            },
            "properties": {
                "name": "Cayo Yuraguanal",
                "article": null
            }
        },
        {
            "type": "Feature",
            "geometry": {
                "type": "Point",
                "coordinates": [
                    -74.748055555,
                    20.212777777
                ]
            },
            "properties": {
                "name": "Alto del Zapote",
                "article": null
            }
        },
        {
            "type": "Feature",
            "geometry": {
                "type": "Point",
                "coordinates": [
                    -84.435,
                    22.19806
                ]
            },
            "properties": {
                "name": "Cayo Zapato",
                "article": null
            }
        },
        {
            "type": "Feature",
            "geometry": {
                "type": "Point",
                "coordinates": [
                    -80.21667,
                    22.91667
                ]
            },
            "properties": {
                "name": "Cayo Zarapico",
                "article": null
            }
        },
        {
            "type": "Feature",
            "geometry": {
                "type": "Point",
                "coordinates": [
                    -79.58333,
                    21.45
                ]
            },
            "properties": {
                "name": "Cayo Zaza de Fuera",
                "article": null
            }
        },
        {
            "type": "Feature",
            "geometry": {
                "type": "Point",
                "coordinates": [
                    -80.1481,
                    21.9531
                ]
            },
            "properties": {
                "name": "Loma el Torno",
                "article": null
            }
        },
        {
            "type": "Feature",
            "geometry": {
                "type": "Point",
                "coordinates": [
                    -75.5,
                    20.683333333
                ]
            },
            "properties": {
                "name": "Cayo Tortuga",
                "article": null
            }
        },
        {
            "type": "Feature",
            "geometry": {
                "type": "Point",
                "coordinates": [
                    -76.480555555,
                    21.223333333
                ]
            },
            "properties": {
                "name": "Cayo Totí",
                "article": null
            }
        },
        {
            "type": "Feature",
            "geometry": {
                "type": "Point",
                "coordinates": [
                    -81.08222,
                    21.63528
                ]
            },
            "properties": {
                "name": "Cayo Trabuco",
                "article": null
            }
        },
        {
            "type": "Feature",
            "geometry": {
                "type": "Point",
                "coordinates": [
                    -79.958888888,
                    21.972222222
                ]
            },
            "properties": {
                "name": "Loma Guaniguícal",
                "article": null
            }
        },
        {
            "type": "Feature",
            "geometry": {
                "type": "Point",
                "coordinates": [
                    -81.83333,
                    21.88333
                ]
            },
            "properties": {
                "name": "Cayo Traviesa",
                "article": null
            }
        },
        {
            "type": "Feature",
            "geometry": {
                "type": "Point",
                "coordinates": [
                    -77.134444444,
                    19.943888888
                ]
            },
            "properties": {
                "name": "Loma de Tres Machos",
                "article": null
            }
        },
        {
            "type": "Feature",
            "geometry": {
                "type": "Point",
                "coordinates": [
                    -82.590555555,
                    21.840277777
                ]
            },
            "properties": {
                "name": "Cayo Triángulo",
                "article": null
            }
        },
        {
            "type": "Feature",
            "geometry": {
                "type": "Point",
                "coordinates": [
                    -80.41583,
                    23.01444
                ]
            },
            "properties": {
                "name": "Cayo Triste",
                "article": null
            }
        },
        {
            "type": "Feature",
            "geometry": {
                "type": "Point",
                "coordinates": [
                    -80.56694,
                    23.04583
                ]
            },
            "properties": {
                "name": "Cayo Triste",
                "article": null
            }
        },
        {
            "type": "Feature",
            "geometry": {
                "type": "Point",
                "coordinates": [
                    -84.888055555,
                    21.895277777
                ]
            },
            "properties": {
                "name": "Cayos Triste",
                "article": null
            }
        },
        {
            "type": "Feature",
            "geometry": {
                "type": "Point",
                "coordinates": [
                    -79.83333,
                    22.86667
                ]
            },
            "properties": {
                "name": "Cayo de Tumba Olla",
                "article": null
            }
        },
        {
            "type": "Feature",
            "geometry": {
                "type": "Point",
                "coordinates": [
                    -78.617222222,
                    22.269444444
                ]
            },
            "properties": {
                "name": "Isla de Turiguanó",
                "article": null
            }
        },
        {
            "type": "Feature",
            "geometry": {
                "type": "Point",
                "coordinates": [
                    -75.333333333,
                    20.683333333
                ]
            },
            "properties": {
                "name": "Cayo Turrones",
                "article": null
            }
        },
        {
            "type": "Feature",
            "geometry": {
                "type": "Point",
                "coordinates": [
                    -78.06778,
                    20.50417
                ]
            },
            "properties": {
                "name": "Cayo Uvero",
                "article": null
            }
        },
        {
            "type": "Feature",
            "geometry": {
                "type": "Point",
                "coordinates": [
                    -83.728055555,
                    22.6225
                ]
            },
            "properties": {
                "name": "El Mogote del Valle",
                "article": null
            }
        },
        {
            "type": "Feature",
            "geometry": {
                "type": "Point",
                "coordinates": [
                    -77.95194,
                    20.4825
                ]
            },
            "properties": {
                "name": "Cayo la Vela",
                "article": null
            }
        },
        {
            "type": "Feature",
            "geometry": {
                "type": "Point",
                "coordinates": [
                    -76.965,
                    19.9967
                ]
            },
            "properties": {
                "name": "Loma la Vela",
                "article": null
            }
        },
        {
            "type": "Feature",
            "geometry": {
                "type": "Point",
                "coordinates": [
                    -79.7575,
                    22.94361
                ]
            },
            "properties": {
                "name": "Cayo la Vela",
                "article": null
            }
        },
        {
            "type": "Feature",
            "geometry": {
                "type": "Point",
                "coordinates": [
                    -80.16667,
                    22.95
                ]
            },
            "properties": {
                "name": "Cayo Veloz",
                "article": null
            }
        },
        {
            "type": "Feature",
            "geometry": {
                "type": "Point",
                "coordinates": [
                    -80.22833,
                    23.13917
                ]
            },
            "properties": {
                "name": "Cayo Verde",
                "article": null
            }
        },
        {
            "type": "Feature",
            "geometry": {
                "type": "Point",
                "coordinates": [
                    -77.64738,
                    22.11753
                ]
            },
            "properties": {
                "name": "Cayo Verde",
                "article": null
            }
        },
        {
            "type": "Feature",
            "geometry": {
                "type": "Point",
                "coordinates": [
                    -75.7583,
                    20.5625
                ]
            },
            "properties": {
                "name": "Monte Verde",
                "article": null
            }
        },
        {
            "type": "Feature",
            "geometry": {
                "type": "Point",
                "coordinates": [
                    -82.956666666,
                    22.831111111
                ]
            },
            "properties": {
                "name": "Loma el Solón",
                "article": null
            }
        },
        {
            "type": "Feature",
            "geometry": {
                "type": "Point",
                "coordinates": [
                    -80.103611111,
                    21.928055555
                ]
            },
            "properties": {
                "name": "Pico del Sombrero",
                "article": null
            }
        },
        {
            "type": "Feature",
            "geometry": {
                "type": "Point",
                "coordinates": [
                    -79.58111,
                    22.71583
                ]
            },
            "properties": {
                "name": "Cayo Sombrero",
                "article": null
            }
        },
        {
            "type": "Feature",
            "geometry": {
                "type": "Point",
                "coordinates": [
                    -82.968333333,
                    22.976944444
                ]
            },
            "properties": {
                "name": "Cayo Sucio",
                "article": null
            }
        },
        {
            "type": "Feature",
            "geometry": {
                "type": "Point",
                "coordinates": [
                    -74.375277777,
                    20.126388888
                ]
            },
            "properties": {
                "name": "Alto la Subida",
                "article": null
            }
        },
        {
            "type": "Feature",
            "geometry": {
                "type": "Point",
                "coordinates": [
                    -82.128611111,
                    21.619722222
                ]
            },
            "properties": {
                "name": "Cayo Tablones",
                "article": null
            }
        },
        {
            "type": "Feature",
            "geometry": {
                "type": "Point",
                "coordinates": [
                    -82.080277777,
                    21.7225
                ]
            },
            "properties": {
                "name": "Cayo Tablones",
                "article": null
            }
        },
        {
            "type": "Feature",
            "geometry": {
                "type": "Point",
                "coordinates": [
                    -75.1875,
                    20.3492
                ]
            },
            "properties": {
                "name": "Alto de la Tagua",
                "article": null
            }
        },
        {
            "type": "Feature",
            "geometry": {
                "type": "Point",
                "coordinates": [
                    -77.3,
                    20.61667
                ]
            },
            "properties": {
                "name": "Cayo Tamayo",
                "article": null
            }
        },