{
    "type": "FeatureCollection",
    "features": [
        {
            "type": "Feature",
            "geometry": {
                "type": "Point",
                "coordinates": [
                    43.970072,
                    42.225661
                ]
            },
            "properties": {
                "name": "Tskhinvali",
                "article": "https://en.wikipedia.org/wiki/Tskhinvali"
            }
        },
        {
            "type": "Feature",
            "geometry": {
                "type": "Point",
                "coordinates": [
                    43.812222222,
                    41.444444444
                ]
            },
            "properties": {
                "name": "Paravani Lake",
                "article": "https://en.wikipedia.org/wiki/Paravani_Lake"
            }
        },
        {
            "type": "Feature",
            "geometry": {
                "type": "Point",
                "coordinates": [
                    42.77,
                    42.647222222
                ]
            },
            "properties": {
                "name": "Tsageri",
                "article": "https://en.wikipedia.org/wiki/Tsageri"
            }
        },
        {
            "type": "Feature",
            "geometry": {
                "type": "Point",
                "coordinates": [
                    44.090555555,
                    41.599722222
                ]
            },
            "properties": {
                "name": "Tsalka",
                "article": "https://en.wikipedia.org/wiki/Tsalka"
            }
        },
        {
            "type": "Feature",
            "geometry": {
                "type": "Point",
                "coordinates": [
                    42.705555555,
                    42.271666666
                ]
            },
            "properties": {
                "name": "Kutaisi",
                "article": "https://en.wikipedia.org/wiki/Kutaisi"
            }
        },
        {
            "type": "Feature",
            "geometry": {
                "type": "Point",
                "coordinates": [
                    42.378888888,
                    42.414777777
                ]
            },
            "properties": {
                "name": "Martvili",
                "article": "https://en.wikipedia.org/wiki/Martvili"
            }
        },
        {
            "type": "Feature",
            "geometry": {
                "type": "Point",
                "coordinates": [
                    44.719444444,
                    41.843055555
                ]
            },
            "properties": {
                "name": "Mtskheta",
                "article": "https://en.wikipedia.org/wiki/Mtskheta"
            }
        },
        {
            "type": "Feature",
            "geometry": {
                "type": "Point",
                "coordinates": [
                    45.011666666,
                    41.543611111
                ]
            },
            "properties": {
                "name": "Rustavi",
                "article": "https://en.wikipedia.org/wiki/Rustavi"
            }
        },
        {
            "type": "Feature",
            "geometry": {
                "type": "Point",
                "coordinates": [
                    41.8725,
                    42.508055555
                ]
            },
            "properties": {
                "name": "Zugdidi",
                "article": "https://en.wikipedia.org/wiki/Zugdidi"
            }
        },
        {
            "type": "Feature",
            "geometry": {
                "type": "Point",
                "coordinates": [
                    41.666666666,
                    42.15
                ]
            },
            "properties": {
                "name": "Poti",
                "article": "https://en.wikipedia.org/wiki/Poti"
            }
        },
        {
            "type": "Feature",
            "geometry": {
                "type": "Point",
                "coordinates": [
                    43.382777777,
                    41.841666666
                ]
            },
            "properties": {
                "name": "Borjomi",
                "article": "https://en.wikipedia.org/wiki/Borjomi"
            }
        },
        {
            "type": "Feature",
            "geometry": {
                "type": "Point",
                "coordinates": [
                    45.476388888,
                    41.916944444
                ]
            },
            "properties": {
                "name": "Telavi",
                "article": "https://en.wikipedia.org/wiki/Telavi"
            }
        },
        {
            "type": "Feature",
            "geometry": {
                "type": "Point",
                "coordinates": [
                    40.339722222,
                    43.159166666
                ]
            },
            "properties": {
                "name": "Pitsunda",
                "article": "https://en.wikipedia.org/wiki/Pitsunda"
            }
        },
        {
            "type": "Feature",
            "geometry": {
                "type": "Point",
                "coordinates": [
                    42.986111,
                    41.638889
                ]
            },
            "properties": {
                "name": "Akhaltsikhe",
                "article": "https://en.wikipedia.org/wiki/Akhaltsikhe"
            }
        },
        {
            "type": "Feature",
            "geometry": {
                "type": "Point",
                "coordinates": [
                    43.283611111,
                    42.289444444
                ]
            },
            "properties": {
                "name": "Chiatura",
                "article": "https://en.wikipedia.org/wiki/Chiatura"
            }
        },
        {
            "type": "Feature",
            "geometry": {
                "type": "Point",
                "coordinates": [
                    45.973611111,
                    41.6125
                ]
            },
            "properties": {
                "name": "Tsnori",
                "article": "https://en.wikipedia.org/wiki/Tsnori"
            }
        },
        {
            "type": "Feature",
            "geometry": {
                "type": "Point",
                "coordinates": [
                    42.600555555,
                    42.326388888
                ]
            },
            "properties": {
                "name": "Tsqaltubo",
                "article": "https://en.wikipedia.org/wiki/Tsqaltubo"
            }
        },
        {
            "type": "Feature",
            "geometry": {
                "type": "Point",
                "coordinates": [
                    41.736944444,
                    42.6275
                ]
            },
            "properties": {
                "name": "Gali",
                "article": "https://en.wikipedia.org/wiki/Gali_(town)"
            }
        },
        {
            "type": "Feature",
            "geometry": {
                "type": "Point",
                "coordinates": [
                    44.204444444,
                    41.332222222
                ]
            },
            "properties": {
                "name": "Dmanisi",
                "article": "https://en.wikipedia.org/wiki/Dmanisi"
            }
        },
        {
            "type": "Feature",
            "geometry": {
                "type": "Point",
                "coordinates": [
                    44.204444444,
                    41.332222222
                ]
            },
            "properties": {
                "name": "Dmanisi",
                "article": "https://en.wikipedia.org/wiki/Dmanisi"
            }
        },
        {
            "type": "Feature",
            "geometry": {
                "type": "Point",
                "coordinates": [
                    41.683333333,
                    42.85
                ]
            },
            "properties": {
                "name": "Tkvarcheli",
                "article": "https://en.wikipedia.org/wiki/Tkvarcheli"
            }
        },
        {
            "type": "Feature",
            "geometry": {
                "type": "Point",
                "coordinates": [
                    44.695833333,
                    42.084722222
                ]
            },
            "properties": {
                "name": "Dusheti",
                "article": "https://en.wikipedia.org/wiki/Dusheti"
            }
        },
        {
            "type": "Feature",
            "geometry": {
                "type": "Point",
                "coordinates": [
                    42.005027777,
                    41.923027777
                ]
            },
            "properties": {
                "name": "Ozurgeti",
                "article": "https://en.wikipedia.org/wiki/Ozurgeti"
            }
        },
        {
            "type": "Feature",
            "geometry": {
                "type": "Point",
                "coordinates": [
                    42.067777777,
                    42.268888888
                ]
            },
            "properties": {
                "name": "Senaki",
                "article": "https://en.wikipedia.org/wiki/Senaki"
            }
        },
        {
            "type": "Feature",
            "geometry": {
                "type": "Point",
                "coordinates": [
                    45.211111111,
                    42.034444444
                ]
            },
            "properties": {
                "name": "Akhmeta",
                "article": "https://en.wikipedia.org/wiki/Akhmeta"
            }
        },
        {
            "type": "Feature",
            "geometry": {
                "type": "Point",
                "coordinates": [
                    41.666667,
                    42.15
                ]
            },
            "properties": {
                "name": "Phasis",
                "article": "https://en.wikipedia.org/wiki/Phasis_(town)"
            }
        },
        {
            "type": "Feature",
            "geometry": {
                "type": "Point",
                "coordinates": [
                    43.214722222,
                    41.214722222
                ]
            },
            "properties": {
                "name": "Kartsakhi Lake",
                "article": "https://en.wikipedia.org/wiki/Kartsakhi_Lake"
            }
        },
        {
            "type": "Feature",
            "geometry": {
                "type": "Point",
                "coordinates": [
                    43.15,
                    42.519444444
                ]
            },
            "properties": {
                "name": "Ambrolauri",
                "article": "https://en.wikipedia.org/wiki/Ambrolauri"
            }
        },
        {
            "type": "Feature",
            "geometry": {
                "type": "Point",
                "coordinates": [
                    43.404722222,
                    42.339722222
                ]
            },
            "properties": {
                "name": "Sachkhere",
                "article": "https://en.wikipedia.org/wiki/Sachkhere"
            }
        },
        {
            "type": "Feature",
            "geometry": {
                "type": "Point",
                "coordinates": [
                    43.486111111,
                    41.405555555
                ]
            },
            "properties": {
                "name": "Akhalkalaki",
                "article": "https://en.wikipedia.org/wiki/Akhalkalaki"
            }
        },
        {
            "type": "Feature",
            "geometry": {
                "type": "Point",
                "coordinates": [
                    42.341666666,
                    42.1625
                ]
            },
            "properties": {
                "name": "Samtredia",
                "article": "https://en.wikipedia.org/wiki/Samtredia"
            }
        },
        {
            "type": "Feature",
            "geometry": {
                "type": "Point",
                "coordinates": [
                    44.506944444,
                    41.760555555
                ]
            },
            "properties": {
                "name": "Mount Didgori",
                "article": "https://en.wikipedia.org/wiki/Mount_Didgori"
            }
        },
        {
            "type": "Feature",
            "geometry": {
                "type": "Point",
                "coordinates": [
                    44.541944444,
                    41.449444444
                ]
            },
            "properties": {
                "name": "Bolnisi",
                "article": "https://en.wikipedia.org/wiki/Bolnisi"
            }
        },
        {
            "type": "Feature",
            "geometry": {
                "type": "Point",
                "coordinates": [
                    44.798055555,
                    41.487222222
                ]
            },
            "properties": {
                "name": "Marneuli",
                "article": "https://en.wikipedia.org/wiki/Marneuli"
            }
        },
        {
            "type": "Feature",
            "geometry": {
                "type": "Point",
                "coordinates": [
                    42.876944444,
                    41.618611111
                ]
            },
            "properties": {
                "name": "Vale",
                "article": "https://en.wikipedia.org/wiki/Vale,_Georgia"
            }
        },
        {
            "type": "Feature",
            "geometry": {
                "type": "Point",
                "coordinates": [
                    42.824722222,
                    42.067777777
                ]
            },
            "properties": {
                "name": "Baghdati",
                "article": "https://en.wikipedia.org/wiki/Baghdati"
            }
        },
        {
            "type": "Feature",
            "geometry": {
                "type": "Point",
                "coordinates": [
                    42.050833333,
                    42.7175
                ]
            },
            "properties": {
                "name": "Jvari",
                "article": "https://en.wikipedia.org/wiki/Jvari_(town)"
            }
        },
        {
            "type": "Feature",
            "geometry": {
                "type": "Point",
                "coordinates": [
                    44.005555555,
                    42.527222222
                ]
            },
            "properties": {
                "name": "Kabargin Oth Group",
                "article": "https://en.wikipedia.org/wiki/Kabargin_Oth_Group"
            }
        },
        {
            "type": "Feature",
            "geometry": {
                "type": "Point",
                "coordinates": [
                    43.598611111,
                    41.9975
                ]
            },
            "properties": {
                "name": "Khashuri",
                "article": "https://en.wikipedia.org/wiki/Khashuri"
            }
        },
        {
            "type": "Feature",
            "geometry": {
                "type": "Point",
                "coordinates": [
                    43.441666666,
                    42.583888888
                ]
            },
            "properties": {
                "name": "Oni",
                "article": "https://en.wikipedia.org/wiki/Oni,_Georgia"
            }
        },
        {
            "type": "Feature",
            "geometry": {
                "type": "Point",
                "coordinates": [
                    42.998333333,
                    42.350277777
                ]
            },
            "properties": {
                "name": "Tkibuli",
                "article": "https://en.wikipedia.org/wiki/Tkibuli"
            }
        },
        {
            "type": "Feature",
            "geometry": {
                "type": "Point",
                "coordinates": [
                    41.57361111,
                    41.57305556
                ]
            },
            "properties": {
                "name": "Gonio",
                "article": "https://en.wikipedia.org/wiki/Gonio_(fortress)"
            }
        },
        {
            "type": "Feature",
            "geometry": {
                "type": "Point",
                "coordinates": [
                    41.57231667,
                    41.57433333
                ]
            },
            "properties": {
                "name": "Gonio",
                "article": "https://en.wikipedia.org/wiki/Gonio_(fortress)"
            }
        },
        {
            "type": "Feature",
            "geometry": {
                "type": "Point",
                "coordinates": [
                    45.921666666,
                    41.618611111
                ]
            },
            "properties": {
                "name": "Sighnaghi",
                "article": "https://en.wikipedia.org/wiki/Signagi"
            }
        },
        {
            "type": "Feature",
            "geometry": {
                "type": "Point",
                "coordinates": [
                    40.5415,
                    43.4811
                ]
            },
            "properties": {
                "name": "Lake Ritsa",
                "article": "https://en.wikipedia.org/wiki/Lake_Ritsa"
            }
        },
        {
            "type": "Feature",
            "geometry": {
                "type": "Point",
                "coordinates": [
                    42.036111111,
                    42.0875
                ]
            },
            "properties": {
                "name": "Lanchkhuti",
                "article": "https://en.wikipedia.org/wiki/Lanchkhuti"
            }
        },
        {
            "type": "Feature",
            "geometry": {
                "type": "Point",
                "coordinates": [
                    45.325833333,
                    41.736944444
                ]
            },
            "properties": {
                "name": "Sagarejo",
                "article": "https://en.wikipedia.org/wiki/Sagarejo"
            }
        },
        {
            "type": "Feature",
            "geometry": {
                "type": "Point",
                "coordinates": [
                    44.418888888,
                    41.924444444
                ]
            },
            "properties": {
                "name": "Kaspi",
                "article": "https://en.wikipedia.org/wiki/Kaspi"
            }
        },
        {
            "type": "Feature",
            "geometry": {
                "type": "Point",
                "coordinates": [
                    44.78916667,
                    41.695
                ]
            },
            "properties": {
                "name": "Mtatsminda",
                "article": null
            }
        },
        {
            "type": "Feature",
            "geometry": {
                "type": "Point",
                "coordinates": [
                    44.789722222,
                    41.695833333
                ]
            },
            "properties": {
                "name": "Mtatsminda",
                "article": null
            }
        },
        {
            "type": "Feature",
            "geometry": {
                "type": "Point",
                "coordinates": [
                    44.7925,
                    41.7225
                ]
            },
            "properties": {
                "name": "Tbilisi",
                "article": "https://en.wikipedia.org/wiki/Tbilisi"
            }
        },
        {
            "type": "Feature",
            "geometry": {
                "type": "Point",
                "coordinates": [
                    44.112416666,
                    41.981686111
                ]
            },
            "properties": {
                "name": "Gori",
                "article": "https://en.wikipedia.org/wiki/Gori,_Georgia"
            }
        },
        {
            "type": "Feature",
            "geometry": {
                "type": "Point",
                "coordinates": [
                    41.641666666,
                    41.645833333
                ]
            },
            "properties": {
                "name": "Batumi",
                "article": "https://en.wikipedia.org/wiki/Batumi"
            }
        },
        {
            "type": "Feature",
            "geometry": {
                "type": "Point",
                "coordinates": [
                    41.019166666,
                    43.003611111
                ]
            },
            "properties": {
                "name": "Sukhumi",
                "article": "https://en.wikipedia.org/wiki/Sukhumi"
            }
        },
        {
            "type": "Feature",
            "geometry": {
                "type": "Point",
                "coordinates": [
                    40.812611111,
                    43.087833333
                ]
            },
            "properties": {
                "name": "Novyy Afon",
                "article": "https://en.wikipedia.org/wiki/New_Athos"
            }
        },
        {
            "type": "Feature",
            "geometry": {
                "type": "Point",
                "coordinates": [
                    40.266944444,
                    43.280833333
                ]
            },
            "properties": {
                "name": "Gagra",
                "article": "https://en.wikipedia.org/wiki/Gagra"
            }
        },
        {
            "type": "Feature",
            "geometry": {
                "type": "Point",
                "coordinates": [
                    46.272222222,
                    41.823611111
                ]
            },
            "properties": {
                "name": "Lagodekhi",
                "article": "https://en.wikipedia.org/wiki/Lagodekhi"
            }
        },
        {
            "type": "Feature",
            "geometry": {
                "type": "Point",
                "coordinates": [
                    45.089444444,
                    41.460833333
                ]
            },
            "properties": {
                "name": "Gardabani",
                "article": "https://en.wikipedia.org/wiki/Gardabani"
            }
        },
        {
            "type": "Feature",
            "geometry": {
                "type": "Point",
                "coordinates": [
                    46.111111111,
                    41.463888888
                ]
            },
            "properties": {
                "name": "Dedoplis Tskaro",
                "article": "https://en.wikipedia.org/wiki/Dedoplistsqaro"
            }
        },
        {
            "type": "Feature",
            "geometry": {
                "type": "Point",
                "coordinates": [
                    44.461111111,
                    41.543333333
                ]
            },
            "properties": {
                "name": "Tetritsqaro",
                "article": "https://en.wikipedia.org/wiki/Tetritsqaro"
            }
        },
        {
            "type": "Feature",
            "geometry": {
                "type": "Point",
                "coordinates": [
                    42.511944444,
                    42.083888888
                ]
            },
            "properties": {
                "name": "Vani",
                "article": "https://en.wikipedia.org/wiki/Vani"
            }
        },
        {
            "type": "Feature",
            "geometry": {
                "type": "Point",
                "coordinates": [
                    42.422777777,
                    42.326388888
                ]
            },
            "properties": {
                "name": "Khoni",
                "article": "https://en.wikipedia.org/wiki/Khoni"
            }
        },
        {
            "type": "Feature",
            "geometry": {
                "type": "Point",
                "coordinates": [
                    45.818333333,
                    41.951388888
                ]
            },
            "properties": {
                "name": "Kvareli",
                "article": "https://en.wikipedia.org/wiki/Kvareli"
            }
        },
        {
            "type": "Feature",
            "geometry": {
                "type": "Point",
                "coordinates": [
                    45.794166666,
                    41.744444444
                ]
            },
            "properties": {
                "name": "Gurjaani",
                "article": "https://en.wikipedia.org/wiki/Gurjaani"
            }
        },
        {
            "type": "Feature",
            "geometry": {
                "type": "Point",
                "coordinates": [
                    42.068194444,
                    42.609388888
                ]
            },
            "properties": {
                "name": "Tsalenjikha",
                "article": "https://en.wikipedia.org/wiki/Tsalenjikha"
            }
        },
        {
            "type": "Feature",
            "geometry": {
                "type": "Point",
                "coordinates": [
                    45.53245,
                    42.27015
                ]
            },
            "properties": {
                "name": "Q1088915",
                "article": null
            }
        },
        {
            "type": "Feature",
            "geometry": {
                "type": "Point",
                "coordinates": [
                    44.516667,
                    41.683333
                ]
            },
            "properties": {
                "name": "Battle of Didgori",
                "article": "https://en.wikipedia.org/wiki/Battle_of_Didgori"
            }
        },
        {
            "type": "Feature",
            "geometry": {
                "type": "Point",
                "coordinates": [
                    41.06913889,
                    42.96655556
                ]
            },
            "properties": {
                "name": "Kelasuri Wall",
                "article": "https://en.wikipedia.org/wiki/Kelasuri_Wall"
            }
        },
        {
            "type": "Feature",
            "geometry": {
                "type": "Point",
                "coordinates": [
                    43.179722222,
                    42.9575
                ]
            },
            "properties": {
                "name": "Ailama",
                "article": "https://en.wikipedia.org/wiki/Ailama"
            }
        },
        {
            "type": "Feature",
            "geometry": {
                "type": "Point",
                "coordinates": [
                    42.659579,
                    43.123918
                ]
            },
            "properties": {
                "name": "Ushba",
                "article": "https://en.wikipedia.org/wiki/Ushba"
            }
        },
        {
            "type": "Feature",
            "geometry": {
                "type": "Point",
                "coordinates": [
                    44.797777777,
                    41.723333333
                ]
            },
            "properties": {
                "name": "Tbilisi railway station",
                "article": "https://en.wikipedia.org/wiki/Tbilisi_railway_station"
            }
        },
        {
            "type": "Feature",
            "geometry": {
                "type": "Point",
                "coordinates": [
                    44.207505,
                    41.966664
                ]
            },
            "properties": {
                "name": "Uplistsikhe",
                "article": "https://en.wikipedia.org/wiki/Uplistsikhe"
            }
        },
        {
            "type": "Feature",
            "geometry": {
                "type": "Point",
                "coordinates": [
                    44.754166666,
                    41.700277777
                ]
            },
            "properties": {
                "name": "Turtle Lake",
                "article": "https://en.wikipedia.org/wiki/Turtle_Lake_(Tbilisi)"
            }
        },
        {
            "type": "Feature",
            "geometry": {
                "type": "Point",
                "coordinates": [
                    45.80472222,
                    42.96305556
                ]
            },
            "properties": {
                "name": "Battle for Height 776",
                "article": "https://en.wikipedia.org/wiki/Battle_for_Height_776"
            }
        },
        {
            "type": "Feature",
            "geometry": {
                "type": "Point",
                "coordinates": [
                    42.4995726,
                    41.674958
                ]
            },
            "properties": {
                "name": "Mtsvane Tba",
                "article": null
            }
        },
        {
            "type": "Feature",
            "geometry": {
                "type": "Point",
                "coordinates": [
                    45.380788,
                    41.937338
                ]
            },
            "properties": {
                "name": "Ikalto monastery",
                "article": "https://en.wikipedia.org/wiki/Ikalto_Monastery"
            }
        },
        {
            "type": "Feature",
            "geometry": {
                "type": "Point",
                "coordinates": [
                    43.179166666,
                    42.769166666
                ]
            },
            "properties": {
                "name": "Q1752204",
                "article": null
            }
        },
        {
            "type": "Feature",
            "geometry": {
                "type": "Point",
                "coordinates": [
                    44.798261,
                    41.698464
                ]
            },
            "properties": {
                "name": "Rustaveli Avenue",
                "article": "https://en.wikipedia.org/wiki/Rustaveli_Avenue"
            }
        },
        {
            "type": "Feature",
            "geometry": {
                "type": "Point",
                "coordinates": [
                    41.666666666,
                    42.15
                ]
            },
            "properties": {
                "name": "Occupation of Poti",
                "article": "https://en.wikipedia.org/wiki/Occupation_of_Poti"
            }
        },
        {
            "type": "Feature",
            "geometry": {
                "type": "Point",
                "coordinates": [
                    43.9661,
                    42.2331
                ]
            },
            "properties": {
                "name": "Battle of Tskhinvali",
                "article": "https://en.wikipedia.org/wiki/Battle_of_Tskhinvali"
            }
        },
        {
            "type": "Feature",
            "geometry": {
                "type": "Point",
                "coordinates": [
                    44.554722222,
                    42.571111111
                ]
            },
            "properties": {
                "name": "Mount Khabarjina",
                "article": "https://en.wikipedia.org/wiki/Mount_Khabarjina"
            }
        },
        {
            "type": "Feature",
            "geometry": {
                "type": "Point",
                "coordinates": [
                    44.211,
                    41.743111111
                ]
            },
            "properties": {
                "name": "Kldekari",
                "article": "https://en.wikipedia.org/wiki/Kldekari_(mountain)"
            }
        },
        {
            "type": "Feature",
            "geometry": {
                "type": "Point",
                "coordinates": [
                    42.202777777,
                    42.204166666
                ]
            },
            "properties": {
                "name": "Abasha",
                "article": "https://en.wikipedia.org/wiki/Abasha"
            }
        },
        {
            "type": "Feature",
            "geometry": {
                "type": "Point",
                "coordinates": [
                    42.977222222,
                    42.183333333
                ]
            },
            "properties": {
                "name": "Terjola",
                "article": "https://en.wikipedia.org/wiki/Terjola"
            }
        },
        {
            "type": "Feature",
            "geometry": {
                "type": "Point",
                "coordinates": [
                    43.893055555,
                    42.021388888
                ]
            },
            "properties": {
                "name": "Kareli",
                "article": "https://en.wikipedia.org/wiki/Kareli,_Georgia"
            }
        },
        {
            "type": "Feature",
            "geometry": {
                "type": "Point",
                "coordinates": [
                    41.9,
                    42.316666666
                ]
            },
            "properties": {
                "name": "Khobi",
                "article": "https://en.wikipedia.org/wiki/Khobi"
            }
        },
        {
            "type": "Feature",
            "geometry": {
                "type": "Point",
                "coordinates": [
                    43.752083333,
                    42.470333333
                ]
            },
            "properties": {
                "name": "Ertso Lake",
                "article": "https://en.wikipedia.org/wiki/Ertso_Lake"
            }
        },
        {
            "type": "Feature",
            "geometry": {
                "type": "Point",
                "coordinates": [
                    43.636944444,
                    42.556944444
                ]
            },
            "properties": {
                "name": "Q2062800",
                "article": null
            }
        },
        {
            "type": "Feature",
            "geometry": {
                "type": "Point",
                "coordinates": [
                    41.75,
                    43.083333333
                ]
            },
            "properties": {
                "name": "Battle of the Kodori Valley",
                "article": "https://en.wikipedia.org/wiki/Battle_of_the_Kodori_Valley"
            }
        },
        {
            "type": "Feature",
            "geometry": {
                "type": "Point",
                "coordinates": [
                    44.73465,
                    41.74408
                ]
            },
            "properties": {
                "name": "Lisi Lake",
                "article": "https://en.wikipedia.org/wiki/Lisi_Lake"
            }
        },
        {
            "type": "Feature",
            "geometry": {
                "type": "Point",
                "coordinates": [
                    42.993055555,
                    43.031388888
                ]
            },
            "properties": {
                "name": "Tetnuldi",
                "article": "https://en.wikipedia.org/wiki/Tetnuldi"
            }
        },
        {
            "type": "Feature",
            "geometry": {
                "type": "Point",
                "coordinates": [
                    42.19388889,
                    42.35722222
                ]
            },
            "properties": {
                "name": "Nokalakevi",
                "article": "https://en.wikipedia.org/wiki/Nokalakevi"
            }
        },
        {
            "type": "Feature",
            "geometry": {
                "type": "Point",
                "coordinates": [
                    44.317222222,
                    42.479444444
                ]
            },
            "properties": {
                "name": "Qeli Lake",
                "article": "https://en.wikipedia.org/wiki/Keli_Lake"
            }
        },
        {
            "type": "Feature",
            "geometry": {
                "type": "Point",
                "coordinates": [
                    44.315077777,
                    42.479972222
                ]
            },
            "properties": {
                "name": "Qeli Lake",
                "article": "https://en.wikipedia.org/wiki/Keli_Lake"
            }
        },
        {
            "type": "Feature",
            "geometry": {
                "type": "Point",
                "coordinates": [
                    41.298333333,
                    43.095
                ]
            },
            "properties": {
                "name": "Lake Amtkeli",
                "article": "https://en.wikipedia.org/wiki/Lake_Amtkeli"
            }
        },
        {
            "type": "Feature",
            "geometry": {
                "type": "Point",
                "coordinates": [
                    40.808055555,
                    43.094444444
                ]
            },
            "properties": {
                "name": "Mount Iverian",
                "article": "https://en.wikipedia.org/wiki/Iverian_Mountain"
            }
        },
        {
            "type": "Feature",
            "geometry": {
                "type": "Point",
                "coordinates": [
                    41.741666666,
                    42.8175
                ]
            },
            "properties": {
                "name": "Lashkendar",
                "article": "https://en.wikipedia.org/wiki/Lashkendar"
            }
        },
        {
            "type": "Feature",
            "geometry": {
                "type": "Point",
                "coordinates": [
                    44.6795,
                    42.0377
                ]
            },
            "properties": {
                "name": "Bazaleti Lake",
                "article": "https://en.wikipedia.org/wiki/Bazaleti_Lake"
            }
        },
        {
            "type": "Feature",
            "geometry": {
                "type": "Point",
                "coordinates": [
                    40.216667,
                    43.333333
                ]
            },
            "properties": {
                "name": "Battle of Gagra",
                "article": "https://en.wikipedia.org/wiki/Battle_of_Gagra"
            }
        },
        {
            "type": "Feature",
            "geometry": {
                "type": "Point",
                "coordinates": [
                    43.709166666,
                    41.618055555
                ]
            },
            "properties": {
                "name": "Shavnabada (Samsari)",
                "article": "https://en.wikipedia.org/wiki/Shavnabada_(Samsari)"
            }
        },
        {
            "type": "Feature",
            "geometry": {
                "type": "Point",
                "coordinates": [
                    43.645833333,
                    41.438055555
                ]
            },
            "properties": {
                "name": "Didi Abuli",
                "article": "https://en.wikipedia.org/wiki/Didi_Abuli"
            }
        },
        {
            "type": "Feature",
            "geometry": {
                "type": "Point",
                "coordinates": [
                    41.19065,
                    43.2927416
                ]
            },
            "properties": {
                "name": "Khimsa",
                "article": null
            }
        },
        {
            "type": "Feature",
            "geometry": {
                "type": "Point",
                "coordinates": [
                    45.21975,
                    41.429305555
                ]
            },
            "properties": {
                "name": "Jandari Lake",
                "article": "https://en.wikipedia.org/wiki/Jandari_Lake"
            }
        },
        {
            "type": "Feature",
            "geometry": {
                "type": "Point",
                "coordinates": [
                    43.547777777,
                    41.256944444
                ]
            },
            "properties": {
                "name": "Khanchali Lake",
                "article": "https://en.wikipedia.org/wiki/Khanchali_Lake"
            }
        },
        {
            "type": "Feature",
            "geometry": {
                "type": "Point",
                "coordinates": [
                    43.783055555,
                    41.179444444
                ]
            },
            "properties": {
                "name": "Madatapa Lake",
                "article": "https://en.wikipedia.org/wiki/Madatapa_Lake"
            }
        },
        {
            "type": "Feature",
            "geometry": {
                "type": "Point",
                "coordinates": [
                    43.741388888,
                    41.305277777
                ]
            },
            "properties": {
                "name": "Saghamo Lake",
                "article": "https://en.wikipedia.org/wiki/Saghamo_Lake"
            }
        },
        {
            "type": "Feature",
            "geometry": {
                "type": "Point",
                "coordinates": [
                    44.343611111,
                    42.414722222
                ]
            },
            "properties": {
                "name": "Tsiteli Khati",
                "article": "https://en.wikipedia.org/wiki/Tsiteli_Khati"
            }
        },
        {
            "type": "Feature",
            "geometry": {
                "type": "Point",
                "coordinates": [
                    44.343888888,
                    42.415
                ]
            },
            "properties": {
                "name": "Tsiteli Khati",
                "article": "https://en.wikipedia.org/wiki/Tsiteli_Khati"
            }
        },
        {
            "type": "Feature",
            "geometry": {
                "type": "Point",
                "coordinates": [
                    40.411944444,
                    43.350833333
                ]
            },
            "properties": {
                "name": "Blue Lake",
                "article": null
            }
        },
        {
            "type": "Feature",
            "geometry": {
                "type": "Point",
                "coordinates": [
                    44.25,
                    42.45
                ]
            },
            "properties": {
                "name": "Keli Highland",
                "article": "https://en.wikipedia.org/wiki/Keli_Highland"
            }
        },
        {
            "type": "Feature",
            "geometry": {
                "type": "Point",
                "coordinates": [
                    44.36333333,
                    42.52111111
                ]
            },
            "properties": {
                "name": "Keli Highland",
                "article": "https://en.wikipedia.org/wiki/Keli_Highland"
            }
        },
        {
            "type": "Feature",
            "geometry": {
                "type": "Point",
                "coordinates": [
                    40.319444444,
                    43.173611111
                ]
            },
            "properties": {
                "name": "Q3651465",
                "article": null
            }
        },
        {
            "type": "Feature",
            "geometry": {
                "type": "Point",
                "coordinates": [
                    40.502777777,
                    43.475
                ]
            },
            "properties": {
                "name": "Lake Smaller Ritsa",
                "article": "https://en.wikipedia.org/wiki/Lake_Smaller_Ritsa"
            }
        },
        {
            "type": "Feature",
            "geometry": {
                "type": "Point",
                "coordinates": [
                    43.95416667,
                    41.16555556
                ]
            },
            "properties": {
                "name": "Mount Leyli",
                "article": "https://en.wikipedia.org/wiki/Mount_Leyli"
            }
        },
        {
            "type": "Feature",
            "geometry": {
                "type": "Point",
                "coordinates": [
                    43.767638888,
                    41.896416666
                ]
            },
            "properties": {
                "name": "Bateti Lake",
                "article": "https://en.wikipedia.org/wiki/Bateti_Lake"
            }
        },
        {
            "type": "Feature",
            "geometry": {
                "type": "Point",
                "coordinates": [
                    43.6708,
                    41.5356
                ]
            },
            "properties": {
                "name": "Mount Samsari",
                "article": "https://en.wikipedia.org/wiki/Mount_Samsari"
            }
        },
        {
            "type": "Feature",
            "geometry": {
                "type": "Point",
                "coordinates": [
                    44.225352777,
                    42.610741666
                ]
            },
            "properties": {
                "name": "Zilgakhokhi",
                "article": null
            }
        },
        {
            "type": "Feature",
            "geometry": {
                "type": "Point",
                "coordinates": [
                    40.6488,
                    43.1009
                ]
            },
            "properties": {
                "name": "Q4054140",
                "article": null
            }
        },
        {
            "type": "Feature",
            "geometry": {
                "type": "Point",
                "coordinates": [
                    41.771811111,
                    42.861658333
                ]
            },
            "properties": {
                "name": "Akarmara",
                "article": null
            }
        },
        {
            "type": "Feature",
            "geometry": {
                "type": "Point",
                "coordinates": [
                    41.558444444,
                    42.804172222
                ]
            },
            "properties": {
                "name": "Q4060176",
                "article": null
            }
        },
        {
            "type": "Feature",
            "geometry": {
                "type": "Point",
                "coordinates": [
                    40.317536111,
                    43.229247222
                ]
            },
            "properties": {
                "name": "Q4060548",
                "article": null
            }
        },
        {
            "type": "Feature",
            "geometry": {
                "type": "Point",
                "coordinates": [
                    40.555675,
                    43.139058333
                ]
            },
            "properties": {
                "name": "Q4068323",
                "article": null
            }
        },
        {
            "type": "Feature",
            "geometry": {
                "type": "Point",
                "coordinates": [
                    41.4425,
                    42.742886111
                ]
            },
            "properties": {
                "name": "Q4068427",
                "article": null
            }
        },
        {
            "type": "Feature",
            "geometry": {
                "type": "Point",
                "coordinates": [
                    44.3584,
                    42.525525
                ]
            },
            "properties": {
                "name": "Q4070962",
                "article": null
            }
        },
        {
            "type": "Feature",
            "geometry": {
                "type": "Point",
                "coordinates": [
                    42.993444444,
                    41.643430555
                ]
            },
            "properties": {
                "name": "Battle of Akhaltsikhe",
                "article": "https://en.wikipedia.org/wiki/Battle_of_Akhaltsikhe_(1853)"
            }
        },
        {
            "type": "Feature",
            "geometry": {
                "type": "Point",
                "coordinates": [
                    40.271622222,
                    43.275741666
                ]
            },
            "properties": {
                "name": "Q4073322",
                "article": null
            }
        },
        {
            "type": "Feature",
            "geometry": {
                "type": "Point",
                "coordinates": [
                    40.957486111,
                    43.008508333
                ]
            },
            "properties": {
                "name": "Q4073329",
                "article": null
            }
        },
        {
            "type": "Feature",
            "geometry": {
                "type": "Point",
                "coordinates": [
                    41.632866666,
                    42.68025
                ]
            },
            "properties": {
                "name": "Q4073346",
                "article": null
            }
        },
        {
            "type": "Feature",
            "geometry": {
                "type": "Point",
                "coordinates": [
                    40.581597,
                    43.418024
                ]
            },
            "properties": {
                "name": "Mta Achibakhi",
                "article": "https://en.wikipedia.org/wiki/Achibakh_Mountain"
            }
        },
        {
            "type": "Feature",
            "geometry": {
                "type": "Point",
                "coordinates": [
                    40.56278,
                    43.13
                ]
            },
            "properties": {
                "name": "Q4073489",
                "article": null
            }
        },
        {
            "type": "Feature",
            "geometry": {
                "type": "Point",
                "coordinates": [
                    40.301111111,
                    43.231944444
                ]
            },
            "properties": {
                "name": "Q4074801",
                "article": null
            }
        },
        {
            "type": "Feature",
            "geometry": {
                "type": "Point",
                "coordinates": [
                    40.12,
                    43.359166666
                ]
            },
            "properties": {
                "name": "Bagryphsh",
                "article": null
            }
        },
        {
            "type": "Feature",
            "geometry": {
                "type": "Point",
                "coordinates": [
                    43.525,
                    41.7542
                ]
            },
            "properties": {
                "name": "Bakuriani railway station",
                "article": null
            }
        },
        {
            "type": "Feature",
            "geometry": {
                "type": "Point",
                "coordinates": [
                    45.220555555,
                    42.420833333
                ]
            },
            "properties": {
                "name": "Didi Borbalo",
                "article": null
            }
        },
        {
            "type": "Feature",
            "geometry": {
                "type": "Point",
                "coordinates": [
                    41.524444444,
                    42.768055555
                ]
            },
            "properties": {
                "name": "Q4079068",
                "article": null
            }
        },
        {
            "type": "Feature",
            "geometry": {
                "type": "Point",
                "coordinates": [
                    40.344891666,
                    43.225730555
                ]
            },
            "properties": {
                "name": "Bzypta railway station",
                "article": null
            }
        },
        {
            "type": "Feature",
            "geometry": {
                "type": "Point",
                "coordinates": [
                    40.483691666,
                    43.212430555
                ]
            },
            "properties": {
                "name": "Q4087694",
                "article": null
            }
        },
        {
            "type": "Feature",
            "geometry": {
                "type": "Point",
                "coordinates": [
                    42.898523,
                    41.638243
                ]
            },
            "properties": {
                "name": "Vale",
                "article": null
            }
        },
        {
            "type": "Feature",
            "geometry": {
                "type": "Point",
                "coordinates": [
                    40.28402,
                    43.262448
                ]
            },
            "properties": {
                "name": "Gagra",
                "article": "https://en.wikipedia.org/wiki/Gagra_railway_station"
            }
        },
        {
            "type": "Feature",
            "geometry": {
                "type": "Point",
                "coordinates": [
                    41.724891666,
                    42.627730555
                ]
            },
            "properties": {
                "name": "Gali railway station",
                "article": null
            }
        },
        {
            "type": "Feature",
            "geometry": {
                "type": "Point",
                "coordinates": [
                    40.874722222,
                    43.071111111
                ]
            },
            "properties": {
                "name": "Q4151218",
                "article": null
            }
        },
        {
            "type": "Feature",
            "geometry": {
                "type": "Point",
                "coordinates": [
                    40.616272222,
                    43.107466666
                ]
            },
            "properties": {
                "name": "Gudauta railway station",
                "article": null
            }
        },
        {
            "type": "Feature",
            "geometry": {
                "type": "Point",
                "coordinates": [
                    40.616111111,
                    43.1075
                ]
            },
            "properties": {
                "name": "Q4151635",
                "article": null
            }
        },
        {
            "type": "Feature",
            "geometry": {
                "type": "Point",
                "coordinates": [
                    41.099488888,
                    42.922302777
                ]
            },
            "properties": {
                "name": "Q4151861",
                "article": null
            }
        },
        {
            "type": "Feature",
            "geometry": {
                "type": "Point",
                "coordinates": [
                    41.021391666,
                    43.007027777
                ]
            },
            "properties": {
                "name": "Guma station",
                "article": null
            }
        },
        {
            "type": "Feature",
            "geometry": {
                "type": "Point",
                "coordinates": [
                    41.601666666,
                    42.848888888
                ]
            },
            "properties": {
                "name": "Q4152210",
                "article": null
            }
        },
        {
            "type": "Feature",
            "geometry": {
                "type": "Point",
                "coordinates": [
                    41.859166666,
                    42.510277777
                ]
            },
            "properties": {
                "name": "Jvari railway station",
                "article": null
            }
        },
        {
            "type": "Feature",
            "geometry": {
                "type": "Point",
                "coordinates": [
                    40.911944444,
                    43.035555555
                ]
            },
            "properties": {
                "name": "Q4160851",
                "article": null
            }
        },
        {
            "type": "Feature",
            "geometry": {
                "type": "Point",
                "coordinates": [
                    41.140333333,
                    42.874025
                ]
            },
            "properties": {
                "name": "Dranda railway station",
                "article": null
            }
        },
        {
            "type": "Feature",
            "geometry": {
                "type": "Point",
                "coordinates": [
                    41.859166666,
                    42.510277777
                ]
            },
            "properties": {
                "name": "Zugdidi railway station",
                "article": null
            }
        },
        {
            "type": "Feature",
            "geometry": {
                "type": "Point",
                "coordinates": [
                    40.419461111,
                    43.221263888
                ]
            },
            "properties": {
                "name": "Q4209214",
                "article": null
            }
        },
        {
            "type": "Feature",
            "geometry": {
                "type": "Point",
                "coordinates": [
                    41.15935,
                    42.848866666
                ]
            },
            "properties": {
                "name": "Q4226203",
                "article": null
            }
        },
        {
            "type": "Feature",
            "geometry": {
                "type": "Point",
                "coordinates": [
                    44.842777777,
                    41.584722222
                ]
            },
            "properties": {
                "name": "Kumisi lake",
                "article": "https://en.wikipedia.org/wiki/Kumisi_Lake"
            }
        },
        {
            "type": "Feature",
            "geometry": {
                "type": "Point",
                "coordinates": [
                    41.277255555,
                    42.800413888
                ]
            },
            "properties": {
                "name": "Q4250837",
                "article": null
            }
        },
        {
            "type": "Feature",
            "geometry": {
                "type": "Point",
                "coordinates": [
                    41.061444444,
                    42.977986111
                ]
            },
            "properties": {
                "name": "Kyalasur",
                "article": null
            }
        },
        {
            "type": "Feature",
            "geometry": {
                "type": "Point",
                "coordinates": [
                    40.789722222,
                    43.083611111
                ]
            },
            "properties": {
                "name": "Q4254319",
                "article": null
            }
        },
        {
            "type": "Feature",
            "geometry": {
                "type": "Point",
                "coordinates": [
                    41.6964,
                    41.6774
                ]
            },
            "properties": {
                "name": "Makhinjauri railway station",
                "article": null
            }
        },
        {
            "type": "Feature",
            "geometry": {
                "type": "Point",
                "coordinates": [
                    40.535577777,
                    43.172552777
                ]
            },
            "properties": {
                "name": "Mchishta",
                "article": null
            }
        },
        {
            "type": "Feature",
            "geometry": {
                "type": "Point",
                "coordinates": [
                    41.802333333,
                    41.932472222
                ]
            },
            "properties": {
                "name": "Natanebi",
                "article": null
            }
        },
        {
            "type": "Feature",
            "geometry": {
                "type": "Point",
                "coordinates": [
                    44.854,
                    41.686
                ]
            },
            "properties": {
                "name": "Naftlugi",
                "article": null
            }
        },
        {
            "type": "Feature",
            "geometry": {
                "type": "Point",
                "coordinates": [
                    43.97,
                    42.190833333
                ]
            },
            "properties": {
                "name": "Q4320072",
                "article": null
            }
        },
        {
            "type": "Feature",
            "geometry": {
                "type": "Point",
                "coordinates": [
                    40.871527777,
                    43.075233333
                ]
            },
            "properties": {
                "name": "New Athos",
                "article": null
            }
        },
        {
            "type": "Feature",
            "geometry": {
                "type": "Point",
                "coordinates": [
                    42.005388888,
                    41.927944444
                ]
            },
            "properties": {
                "name": "Ozurgeti",
                "article": null
            }
        },
        {
            "type": "Feature",
            "geometry": {
                "type": "Point",
                "coordinates": [
                    41.53,
                    42.702777777
                ]
            },
            "properties": {
                "name": "Q4340583",
                "article": null
            }
        },
        {
            "type": "Feature",
            "geometry": {
                "type": "Point",
                "coordinates": [
                    41.47543,
                    42.715292
                ]
            },
            "properties": {
                "name": "Ochamchira railway station",
                "article": null
            }
        },
        {
            "type": "Feature",
            "geometry": {
                "type": "Point",
                "coordinates": [
                    43.471,
                    41.7791
                ]
            },
            "properties": {
                "name": "Patara-Tsemi",
                "article": null
            }
        },
        {
            "type": "Feature",
            "geometry": {
                "type": "Point",
                "coordinates": [
                    44.8078,
                    41.2452
                ]
            },
            "properties": {
                "name": "Sadakhlo",
                "article": null
            }
        },
        {
            "type": "Feature",
            "geometry": {
                "type": "Point",
                "coordinates": [
                    43.399722222,
                    42.335
                ]
            },
            "properties": {
                "name": "Q4409596",
                "article": null
            }
        },
        {
            "type": "Feature",
            "geometry": {
                "type": "Point",
                "coordinates": [
                    42.066944444,
                    42.2675
                ]
            },
            "properties": {
                "name": "Q4416080",
                "article": null
            }
        },
        {
            "type": "Feature",
            "geometry": {
                "type": "Point",
                "coordinates": [
                    43.561388888,
                    42.016388888
                ]
            },
            "properties": {
                "name": "Q4446430",
                "article": null
            }
        },
        {
            "type": "Feature",
            "geometry": {
                "type": "Point",
                "coordinates": [
                    40.995908333,
                    43.007186111
                ]
            },
            "properties": {
                "name": "Sukhumi railway station",
                "article": "https://en.wikipedia.org/wiki/Sukhumi_railway_station"
            }
        },
        {
            "type": "Feature",
            "geometry": {
                "type": "Point",
                "coordinates": [
                    41.78375,
                    42.545833333
                ]
            },
            "properties": {
                "name": "Q4449637",
                "article": null
            }
        },
        {
            "type": "Feature",
            "geometry": {
                "type": "Point",
                "coordinates": [
                    41.349005555,
                    42.785225
                ]
            },
            "properties": {
                "name": "Tamysh",
                "article": null
            }
        },
        {
            "type": "Feature",
            "geometry": {
                "type": "Point",
                "coordinates": [
                    41.674058333,
                    42.844430555
                ]
            },
            "properties": {
                "name": "Tkvarcheli railway station",
                "article": null
            }
        },
        {
            "type": "Feature",
            "geometry": {
                "type": "Point",
                "coordinates": [
                    40.505,
                    43.206388888
                ]
            },
            "properties": {
                "name": "Q4502091",
                "article": null
            }
        },
        {
            "type": "Feature",
            "geometry": {
                "type": "Point",
                "coordinates": [
                    43.479444444,
                    41.798888888
                ]
            },
            "properties": {
                "name": "Tsagveri (station)",
                "article": null
            }
        },
        {
            "type": "Feature",
            "geometry": {
                "type": "Point",
                "coordinates": [
                    41.7994,
                    42.4465
                ]
            },
            "properties": {
                "name": "Tsaishi railway station",
                "article": null
            }
        },
        {
            "type": "Feature",
            "geometry": {
                "type": "Point",
                "coordinates": [
                    40.093888,
                    43.373103
                ]
            },
            "properties": {
                "name": "Tsandryphsh",
                "article": null
            }
        },
        {
            "type": "Feature",
            "geometry": {
                "type": "Point",
                "coordinates": [
                    44.247030555,
                    42.503075
                ]
            },
            "properties": {
                "name": "Lake Tsilgidzuar",
                "article": null
            }
        },
        {
            "type": "Feature",
            "geometry": {
                "type": "Point",
                "coordinates": [
                    46.1152,
                    41.4604
                ]
            },
            "properties": {
                "name": "Tsiteli-Tskaro",
                "article": null
            }
        },
        {
            "type": "Feature",
            "geometry": {
                "type": "Point",
                "coordinates": [
                    44.334544444,
                    42.413508333
                ]
            },
            "properties": {
                "name": "Q4505925",
                "article": null
            }
        },
        {
            "type": "Feature",
            "geometry": {
                "type": "Point",
                "coordinates": [
                    43.894788888,
                    42.198255555
                ]
            },
            "properties": {
                "name": "Q4506167",
                "article": null
            }
        },
        {
            "type": "Feature",
            "geometry": {
                "type": "Point",
                "coordinates": [
                    42.6005,
                    42.3136
                ]
            },
            "properties": {
                "name": "Tsqaltubo railway station",
                "article": null
            }
        },
        {
            "type": "Feature",
            "geometry": {
                "type": "Point",
                "coordinates": [
                    43.961233333,
                    42.228627777
                ]
            },
            "properties": {
                "name": "Tskhinvali railway station",
                "article": "https://en.wikipedia.org/wiki/Tskhinvali_railway_station"
            }
        },
        {
            "type": "Feature",
            "geometry": {
                "type": "Point",
                "coordinates": [
                    40.170555555,
                    43.338055555
                ]
            },
            "properties": {
                "name": "Q4515706",
                "article": null
            }
        },
        {
            "type": "Feature",
            "geometry": {
                "type": "Point",
                "coordinates": [
                    41.676944444,
                    42.656944444
                ]
            },
            "properties": {
                "name": "Q4523531",
                "article": null
            }
        },
        {
            "type": "Feature",
            "geometry": {
                "type": "Point",
                "coordinates": [
                    40.896388888,
                    43.051666666
                ]
            },
            "properties": {
                "name": "Q4524670",
                "article": null
            }
        },
        {
            "type": "Feature",
            "geometry": {
                "type": "Point",
                "coordinates": [
                    43.470555555,
                    42.696111111
                ]
            },
            "properties": {
                "name": "Shoda",
                "article": null
            }
        },
        {
            "type": "Feature",
            "geometry": {
                "type": "Point",
                "coordinates": [
                    40.935102777,
                    43.023827777
                ]
            },
            "properties": {
                "name": "Eshera railway station",
                "article": null
            }
        },
        {
            "type": "Feature",
            "geometry": {
                "type": "Point",
                "coordinates": [
                    44.75502,
                    41.72511
                ]
            },
            "properties": {
                "name": "Alexander Kazbegi Avenue",
                "article": "https://en.wikipedia.org/wiki/Alexander_Kazbegi_Avenue"
            }
        },
        {
            "type": "Feature",
            "geometry": {
                "type": "Point",
                "coordinates": [
                    43.48944444,
                    41.94722222
                ]
            },
            "properties": {
                "name": "Battle of Tashiskari",
                "article": "https://en.wikipedia.org/wiki/Battle_of_Tashiskari"
            }
        },
        {
            "type": "Feature",
            "geometry": {
                "type": "Point",
                "coordinates": [
                    43.77444444,
                    41.22027778
                ]
            },
            "properties": {
                "name": "Biketnoe Lake",
                "article": "https://en.wikipedia.org/wiki/Biketi_Lake"
            }
        },
        {
            "type": "Feature",
            "geometry": {
                "type": "Point",
                "coordinates": [
                    44.79611111,
                    41.71027778
                ]
            },
            "properties": {
                "name": "Davit Aghmashenebeli Avenue",
                "article": "https://en.wikipedia.org/wiki/David_Agmashenebeli_Avenue"
            }
        },
        {
            "type": "Feature",
            "geometry": {
                "type": "Point",
                "coordinates": [
                    44.786111111,
                    41.708333333
                ]
            },
            "properties": {
                "name": "Grato Passage",
                "article": "https://en.wikipedia.org/wiki/Grato_Passage"
            }
        },
        {
            "type": "Feature",
            "geometry": {
                "type": "Point",
                "coordinates": [
                    42.713333333,
                    42.500833333
                ]
            },
            "properties": {
                "name": "Khvamli",
                "article": "https://en.wikipedia.org/wiki/Khvamli"
            }
        },
        {
            "type": "Feature",
            "geometry": {
                "type": "Point",
                "coordinates": [
                    42.24291,
                    42.78412
                ]
            },
            "properties": {
                "name": "Tobavarchkhili Lake",
                "article": null
            }
        },
        {
            "type": "Feature",
            "geometry": {
                "type": "Point",
                "coordinates": [
                    43.006666666,
                    43.032222222
                ]
            },
            "properties": {
                "name": "Mount Adishi",
                "article": "https://en.wikipedia.org/wiki/Mount_Adishi"
            }
        },
        {
            "type": "Feature",
            "geometry": {
                "type": "Point",
                "coordinates": [
                    43.9225,
                    41.261944444
                ]
            },
            "properties": {
                "name": "Mount Yemlikli",
                "article": "https://en.wikipedia.org/wiki/Mount_Yemlikli"
            }
        },
        {
            "type": "Feature",
            "geometry": {
                "type": "Point",
                "coordinates": [
                    42.702777777,
                    42.419722222
                ]
            },
            "properties": {
                "name": "Namakhvani Hydro Power Plant",
                "article": "https://en.wikipedia.org/wiki/Namakhvani_Hydro_Power_Plant"
            }
        },
        {
            "type": "Feature",
            "geometry": {
                "type": "Point",
                "coordinates": [
                    42.793333333,
                    42.515277777
                ]
            },
            "properties": {
                "name": "Tvishi Hydro Power Plant",
                "article": "https://en.wikipedia.org/wiki/Tvishi_Hydro_Power_Plant"
            }
        },
        {
            "type": "Feature",
            "geometry": {
                "type": "Point",
                "coordinates": [
                    44.793304,
                    41.702298
                ]
            },
            "properties": {
                "name": "Zarya Vostoka building",
                "article": "https://en.wikipedia.org/wiki/Zarya_Vostoka_building"
            }
        },
        {
            "type": "Feature",
            "geometry": {
                "type": "Point",
                "coordinates": [
                    44.76430556,
                    41.71019444
                ]
            },
            "properties": {
                "name": "Ilia Chavchavadze Avenue",
                "article": "https://en.wikipedia.org/wiki/Ilia_Chavchavadze_Avenue"
            }
        },
        {
            "type": "Feature",
            "geometry": {
                "type": "Point",
                "coordinates": [
                    43.589583333,
                    41.266944444
                ]
            },
            "properties": {
                "name": "Ninotsminda",
                "article": "https://en.wikipedia.org/wiki/Ninotsminda"
            }
        },
        {
            "type": "Feature",
            "geometry": {
                "type": "Point",
                "coordinates": [
                    44.770277777,
                    42.53
                ]
            },
            "properties": {
                "name": "Chaukhi",
                "article": null
            }
        },
        {
            "type": "Feature",
            "geometry": {
                "type": "Point",
                "coordinates": [
                    44.420555555,
                    42.463888888
                ]
            },
            "properties": {
                "name": "Meketi",
                "article": null
            }
        },
        {
            "type": "Feature",
            "geometry": {
                "type": "Point",
                "coordinates": [
                    42.663611111,
                    41.840833333
                ]
            },
            "properties": {
                "name": "Mepisckaro",
                "article": null
            }
        },
        {
            "type": "Feature",
            "geometry": {
                "type": "Point",
                "coordinates": [
                    44.378055555,
                    42.502777777
                ]
            },
            "properties": {
                "name": "Patara Mepiskalo",
                "article": null
            }
        },
        {
            "type": "Feature",
            "geometry": {
                "type": "Point",
                "coordinates": [
                    42.24291,
                    42.78412
                ]
            },
            "properties": {
                "name": "Tobavarchkhili Lake",
                "article": null
            }
        },
        {
            "type": "Feature",
            "geometry": {
                "type": "Point",
                "coordinates": [
                    44.185555555,
                    42.453611111
                ]
            },
            "properties": {
                "name": "Mangaavtsagi",
                "article": null
            }
        },
        {
            "type": "Feature",
            "geometry": {
                "type": "Point",
                "coordinates": [
                    42.556666666,
                    42.920555555
                ]
            },
            "properties": {
                "name": "Laila Peak",
                "article": "https://en.wikipedia.org/wiki/Laila_Peak_(Caucasus)"
            }
        },
        {
            "type": "Feature",
            "geometry": {
                "type": "Point",
                "coordinates": [
                    40.2847819,
                    43.5076371
                ]
            },
            "properties": {
                "name": "Akh-Ag",
                "article": null
            }
        },
        {
            "type": "Feature",
            "geometry": {
                "type": "Point",
                "coordinates": [
                    40.209725,
                    43.442933
                ]
            },
            "properties": {
                "name": "Achmarda",
                "article": null
            }
        },
        {
            "type": "Feature",
            "geometry": {
                "type": "Point",
                "coordinates": [
                    40.15583333,
                    43.46305556
                ]
            },
            "properties": {
                "name": "Bagnarges",
                "article": null
            }
        },
        {
            "type": "Feature",
            "geometry": {
                "type": "Point",
                "coordinates": [
                    40.29444444,
                    43.35
                ]
            },
            "properties": {
                "name": "Gagrska",
                "article": null
            }
        },
        {
            "type": "Feature",
            "geometry": {
                "type": "Point",
                "coordinates": [
                    44.51194444,
                    42.67305556
                ]
            },
            "properties": {
                "name": "Mount Stepan Bandera",
                "article": null
            }
        },
        {
            "type": "Feature",
            "geometry": {
                "type": "Point",
                "coordinates": [
                    40.241666666,
                    43.554166666
                ]
            },
            "properties": {
                "name": "Kozirka",
                "article": null
            }
        },
        {
            "type": "Feature",
            "geometry": {
                "type": "Point",
                "coordinates": [
                    44.142222222,
                    42.368333333
                ]
            },
            "properties": {
                "name": "Sidamonisjvari",
                "article": null
            }
        },
        {
            "type": "Feature",
            "geometry": {
                "type": "Point",
                "coordinates": [
                    44.691,
                    41.641
                ]
            },
            "properties": {
                "name": "Agarani Fortress",
                "article": "https://en.wikipedia.org/wiki/Agarani_Fortress"
            }
        },
        {
            "type": "Feature",
            "geometry": {
                "type": "Point",
                "coordinates": [
                    44.691944444,
                    41.640277777
                ]
            },
            "properties": {
                "name": "Q12861431",
                "article": null
            }
        },
        {
            "type": "Feature",
            "geometry": {
                "type": "Point",
                "coordinates": [
                    44.738055555,
                    42.675
                ]
            },
            "properties": {
                "name": "Q12861470",
                "article": null
            }
        },
        {
            "type": "Feature",
            "geometry": {
                "type": "Point",
                "coordinates": [
                    45.272777777,
                    42.473333333
                ]
            },
            "properties": {
                "name": "Amgha",
                "article": null
            }
        },
        {
            "type": "Feature",
            "geometry": {
                "type": "Point",
                "coordinates": [
                    40.676388888,
                    43.467222222
                ]
            },
            "properties": {
                "name": "Anchkho",
                "article": null
            }
        },
        {
            "type": "Feature",
            "geometry": {
                "type": "Point",
                "coordinates": [
                    44.9225,
                    42.597777777
                ]
            },
            "properties": {
                "name": "Arkhoti",
                "article": null
            }
        },
        {
            "type": "Feature",
            "geometry": {
                "type": "Point",
                "coordinates": [
                    41.280277777,
                    42.9925
                ]
            },
            "properties": {
                "name": "Apiancha",
                "article": null
            }
        },
        {
            "type": "Feature",
            "geometry": {
                "type": "Point",
                "coordinates": [
                    40.578333333,
                    43.511388888
                ]
            },
            "properties": {
                "name": "Atsetuka",
                "article": null
            }
        },
        {
            "type": "Feature",
            "geometry": {
                "type": "Point",
                "coordinates": [
                    40.284444444,
                    43.5075
                ]
            },
            "properties": {
                "name": "Akhagi",
                "article": null
            }
        },
        {
            "type": "Feature",
            "geometry": {
                "type": "Point",
                "coordinates": [
                    43.818611111,
                    42.3875
                ]
            },
            "properties": {
                "name": "Bilurta",
                "article": null
            }
        },
        {
            "type": "Feature",
            "geometry": {
                "type": "Point",
                "coordinates": [
                    40.755277777,
                    43.295555555
                ]
            },
            "properties": {
                "name": "Turkuli Kudi",
                "article": null
            }
        },
        {
            "type": "Feature",
            "geometry": {
                "type": "Point",
                "coordinates": [
                    42.80615,
                    43.10152
                ]
            },
            "properties": {
                "name": "Banguriani",
                "article": null
            }
        },
        {
            "type": "Feature",
            "geometry": {
                "type": "Point",
                "coordinates": [
                    43.685555555,
                    41.201666666
                ]
            },
            "properties": {
                "name": "Bughdasheni Lake",
                "article": "https://en.wikipedia.org/wiki/Bughdasheni_Lake"
            }
        },
        {
            "type": "Feature",
            "geometry": {
                "type": "Point",
                "coordinates": [
                    41.542222222,
                    42.454166666
                ]
            },
            "properties": {
                "name": "Q12862933",
                "article": null
            }
        },
        {
            "type": "Feature",
            "geometry": {
                "type": "Point",
                "coordinates": [
                    45.111666666,
                    42.279166666
                ]
            },
            "properties": {
                "name": "Q12863038",
                "article": null
            }
        },
        {
            "type": "Feature",
            "geometry": {
                "type": "Point",
                "coordinates": [
                    43.684444444,
                    41.46325
                ]
            },
            "properties": {
                "name": "Godorebi",
                "article": null
            }
        },
        {
            "type": "Feature",
            "geometry": {
                "type": "Point",
                "coordinates": [
                    44.786944444,
                    42.3
                ]
            },
            "properties": {
                "name": "Q12863331",
                "article": null
            }
        },
        {
            "type": "Feature",
            "geometry": {
                "type": "Point",
                "coordinates": [
                    44.448888888,
                    41.559444444
                ]
            },
            "properties": {
                "name": "Gomeri",
                "article": null
            }
        },
        {
            "type": "Feature",
            "geometry": {
                "type": "Point",
                "coordinates": [
                    42.525,
                    41.804722222
                ]
            },
            "properties": {
                "name": "Q12863342",
                "article": null
            }
        },
        {
            "type": "Feature",
            "geometry": {
                "type": "Point",
                "coordinates": [
                    45.0414,
                    42.6364
                ]
            },
            "properties": {
                "name": "Kamgismagali",
                "article": null
            }
        },
        {
            "type": "Feature",
            "geometry": {
                "type": "Point",
                "coordinates": [
                    44.898055555,
                    42.186388888
                ]
            },
            "properties": {
                "name": "Q12863370",
                "article": null
            }
        },
        {
            "type": "Feature",
            "geometry": {
                "type": "Point",
                "coordinates": [
                    40.838888888,
                    43.207777777
                ]
            },
            "properties": {
                "name": "Gumishkha",
                "article": null
            }
        },
        {
            "type": "Feature",
            "geometry": {
                "type": "Point",
                "coordinates": [
                    43.056666666,
                    42.858888888
                ]
            },
            "properties": {
                "name": "Dadiashi",
                "article": null
            }
        },
        {
            "type": "Feature",
            "geometry": {
                "type": "Point",
                "coordinates": [
                    43.396666666,
                    41.925
                ]
            },
            "properties": {
                "name": "Q12863660",
                "article": null
            }
        },
        {
            "type": "Feature",
            "geometry": {
                "type": "Point",
                "coordinates": [
                    43.860486,
                    42.04685
                ]
            },
            "properties": {
                "name": "Dedoplis Mindori",
                "article": "https://en.wikipedia.org/wiki/Dedoplis_Mindori"
            }
        },
        {
            "type": "Feature",
            "geometry": {
                "type": "Point",
                "coordinates": [
                    43.289166666,
                    42.431111111
                ]
            },
            "properties": {
                "name": "Q12863680",
                "article": null
            }
        },
        {
            "type": "Feature",
            "geometry": {
                "type": "Point",
                "coordinates": [
                    45.276944444,
                    41.586111111
                ]
            },
            "properties": {
                "name": "Demur-Dagi",
                "article": null
            }
        },
        {
            "type": "Feature",
            "geometry": {
                "type": "Point",
                "coordinates": [
                    41.773888888,
                    42.963611111
                ]
            },
            "properties": {
                "name": "Q12863707",
                "article": null
            }
        },
        {
            "type": "Feature",
            "geometry": {
                "type": "Point",
                "coordinates": [
                    44.6577,
                    41.8037
                ]
            },
            "properties": {
                "name": "Didgori",
                "article": null
            }
        },
        {
            "type": "Feature",
            "geometry": {
                "type": "Point",
                "coordinates": [
                    42.19225,
                    42.83664
                ]
            },
            "properties": {
                "name": "Didghalidudi",
                "article": null
            }
        },
        {
            "type": "Feature",
            "geometry": {
                "type": "Point",
                "coordinates": [
                    44.3425,
                    41.336388888
                ]
            },
            "properties": {
                "name": "Dmanisis Nakalakari",
                "article": null
            }
        },
        {
            "type": "Feature",
            "geometry": {
                "type": "Point",
                "coordinates": [
                    43.633888888,
                    42.660277777
                ]
            },
            "properties": {
                "name": "Q12863883",
                "article": null
            }
        },
        {
            "type": "Feature",
            "geometry": {
                "type": "Point",
                "coordinates": [
                    45.81017,
                    41.97373
                ]
            },
            "properties": {
                "name": "Dolochopi basilica",
                "article": "https://en.wikipedia.org/wiki/Dolochopi_basilica"
            }
        },
        {
            "type": "Feature",
            "geometry": {
                "type": "Point",
                "coordinates": [
                    43.393055555,
                    42.876666666
                ]
            },
            "properties": {
                "name": "Q12863984",
                "article": null
            }
        },
        {
            "type": "Feature",
            "geometry": {
                "type": "Point",
                "coordinates": [
                    43.442222222,
                    41.356944444
                ]
            },
            "properties": {
                "name": "Q12864391",
                "article": null
            }
        },
        {
            "type": "Feature",
            "geometry": {
                "type": "Point",
                "coordinates": [
                    43.271666666,
                    42.439444444
                ]
            },
            "properties": {
                "name": "Q12864442",
                "article": null
            }
        },
        {
            "type": "Feature",
            "geometry": {
                "type": "Point",
                "coordinates": [
                    44.804059,
                    41.694968
                ]
            },
            "properties": {
                "name": "Vertskhli street, Tbilisi",
                "article": null
            }
        },
        {
            "type": "Feature",
            "geometry": {
                "type": "Point",
                "coordinates": [
                    46.636388888,
                    41.265833333
                ]
            },
            "properties": {
                "name": "Q12864765",
                "article": null
            }
        },
        {
            "type": "Feature",
            "geometry": {
                "type": "Point",
                "coordinates": [
                    42.398055555,
                    41.801111111
                ]
            },
            "properties": {
                "name": "Q12864780",
                "article": null
            }
        },
        {
            "type": "Feature",
            "geometry": {
                "type": "Point",
                "coordinates": [
                    42.2087,
                    41.7832
                ]
            },
            "properties": {
                "name": "Taginauri",
                "article": null
            }
        },
        {
            "type": "Feature",
            "geometry": {
                "type": "Point",
                "coordinates": [
                    43.778055555,
                    41.371111111
                ]
            },
            "properties": {
                "name": "Q12864876",
                "article": null
            }
        },
        {
            "type": "Feature",
            "geometry": {
                "type": "Point",
                "coordinates": [
                    43.0593,
                    42.6807
                ]
            },
            "properties": {
                "name": "Tarigoni",
                "article": null
            }
        },
        {
            "type": "Feature",
            "geometry": {
                "type": "Point",
                "coordinates": [
                    42.377,
                    42.9758
                ]
            },
            "properties": {
                "name": "Tekrashdudi",
                "article": null
            }
        },
        {
            "type": "Feature",
            "geometry": {
                "type": "Point",
                "coordinates": [
                    43.476111111,
                    41.835
                ]
            },
            "properties": {
                "name": "Q12865113",
                "article": null
            }
        },
        {
            "type": "Feature",
            "geometry": {
                "type": "Point",
                "coordinates": [
                    42.195833333,
                    42.819166666
                ]
            },
            "properties": {
                "name": "Q12865153",
                "article": null
            }
        },
        {
            "type": "Feature",
            "geometry": {
                "type": "Point",
                "coordinates": [
                    45.064722222,
                    41.8925
                ]
            },
            "properties": {
                "name": "Ikvlivi",
                "article": null
            }
        },
        {
            "type": "Feature",
            "geometry": {
                "type": "Point",
                "coordinates": [
                    44.989166666,
                    42.483888888
                ]
            },
            "properties": {
                "name": "Karatisjvari",
                "article": null
            }
        },
        {
            "type": "Feature",
            "geometry": {
                "type": "Point",
                "coordinates": [
                    43.194722222,
                    42.705
                ]
            },
            "properties": {
                "name": "Q12865611",
                "article": null
            }
        },
        {
            "type": "Feature",
            "geometry": {
                "type": "Point",
                "coordinates": [
                    43.018333333,
                    41.375277777
                ]
            },
            "properties": {
                "name": "Q12865642",
                "article": null
            }
        },
        {
            "type": "Feature",
            "geometry": {
                "type": "Point",
                "coordinates": [
                    43.630277777,
                    42.655833333
                ]
            },
            "properties": {
                "name": "Q12865644",
                "article": null
            }
        },