{
    "type": "FeatureCollection",
    "features": [
        {
            "type": "Feature",
            "geometry": {
                "type": "Point",
                "coordinates": [
                    19.925,
                    39.641666666
                ]
            },
            "properties": {
                "name": "Vido",
                "article": "https://en.wikipedia.org/wiki/Vido"
            }
        },
        {
            "type": "Feature",
            "geometry": {
                "type": "Point",
                "coordinates": [
                    22.35,
                    40.06
                ]
            },
            "properties": {
                "name": "Mount Olympus",
                "article": "https://en.wikipedia.org/wiki/Mount_Olympus"
            }
        },
        {
            "type": "Feature",
            "geometry": {
                "type": "Point",
                "coordinates": [
                    23.7,
                    37.933333333
                ]
            },
            "properties": {
                "name": "Battle of Phaleron",
                "article": "https://en.wikipedia.org/wiki/Battle_of_Phaleron"
            }
        },
        {
            "type": "Feature",
            "geometry": {
                "type": "Point",
                "coordinates": [
                    22.583333333,
                    38.483333333
                ]
            },
            "properties": {
                "name": "Battle of Arachova",
                "article": "https://en.wikipedia.org/wiki/Battle_of_Arachova"
            }
        },
        {
            "type": "Feature",
            "geometry": {
                "type": "Point",
                "coordinates": [
                    24.770713888,
                    35.226388888
                ]
            },
            "properties": {
                "name": "Mount Ida",
                "article": "https://en.wikipedia.org/wiki/Mount_Ida_(Crete)"
            }
        },
        {
            "type": "Feature",
            "geometry": {
                "type": "Point",
                "coordinates": [
                    22.9625,
                    36.4875
                ]
            },
            "properties": {
                "name": "Elafonisos",
                "article": "https://en.wikipedia.org/wiki/Elafonisos"
            }
        },
        {
            "type": "Feature",
            "geometry": {
                "type": "Point",
                "coordinates": [
                    22.927222222,
                    37.938611111
                ]
            },
            "properties": {
                "name": "Corinth",
                "article": "https://en.wikipedia.org/wiki/Corinth"
            }
        },
        {
            "type": "Feature",
            "geometry": {
                "type": "Point",
                "coordinates": [
                    22.6167,
                    38.533
                ]
            },
            "properties": {
                "name": "Mount Parnassus",
                "article": "https://en.wikipedia.org/wiki/Mount_Parnassus"
            }
        },
        {
            "type": "Feature",
            "geometry": {
                "type": "Point",
                "coordinates": [
                    19.87,
                    39.6
                ]
            },
            "properties": {
                "name": "Corfu",
                "article": "https://en.wikipedia.org/wiki/Corfu"
            }
        },
        {
            "type": "Feature",
            "geometry": {
                "type": "Point",
                "coordinates": [
                    25.27122,
                    37.39121
                ]
            },
            "properties": {
                "name": "Delos",
                "article": "https://en.wikipedia.org/wiki/Delos"
            }
        },
        {
            "type": "Feature",
            "geometry": {
                "type": "Point",
                "coordinates": [
                    25.27122,
                    37.39121
                ]
            },
            "properties": {
                "name": "Delos",
                "article": "https://en.wikipedia.org/wiki/Delos"
            }
        },
        {
            "type": "Feature",
            "geometry": {
                "type": "Point",
                "coordinates": [
                    22.957728,
                    38.534199
                ]
            },
            "properties": {
                "name": "Battle of Tegyra",
                "article": "https://en.wikipedia.org/wiki/Battle_of_Tegyra"
            }
        },
        {
            "type": "Feature",
            "geometry": {
                "type": "Point",
                "coordinates": [
                    24.933333333,
                    37.833333333
                ]
            },
            "properties": {
                "name": "Andros",
                "article": "https://en.wikipedia.org/wiki/Andros"
            }
        },
        {
            "type": "Feature",
            "geometry": {
                "type": "Point",
                "coordinates": [
                    21.665725,
                    36.930136
                ]
            },
            "properties": {
                "name": "Battle of Sphacteria",
                "article": "https://en.wikipedia.org/wiki/Battle_of_Sphacteria"
            }
        },
        {
            "type": "Feature",
            "geometry": {
                "type": "Point",
                "coordinates": [
                    22.413061,
                    39.638493
                ]
            },
            "properties": {
                "name": "Larissa",
                "article": "https://en.wikipedia.org/wiki/Larissa"
            }
        },
        {
            "type": "Feature",
            "geometry": {
                "type": "Point",
                "coordinates": [
                    20.5525,
                    38.265
                ]
            },
            "properties": {
                "name": "Kefalonia",
                "article": "https://en.wikipedia.org/wiki/Cephalonia"
            }
        },
        {
            "type": "Feature",
            "geometry": {
                "type": "Point",
                "coordinates": [
                    27.461388888,
                    36.368055555
                ]
            },
            "properties": {
                "name": "Antitilos",
                "article": null
            }
        },
        {
            "type": "Feature",
            "geometry": {
                "type": "Point",
                "coordinates": [
                    21.78896,
                    40.30069
                ]
            },
            "properties": {
                "name": "Kozani",
                "article": "https://en.wikipedia.org/wiki/Kozani"
            }
        },
        {
            "type": "Feature",
            "geometry": {
                "type": "Point",
                "coordinates": [
                    23.885983,
                    40.393962
                ]
            },
            "properties": {
                "name": "Acanthus",
                "article": "https://en.wikipedia.org/wiki/Akanthos_(Greece)"
            }
        },
        {
            "type": "Feature",
            "geometry": {
                "type": "Point",
                "coordinates": [
                    24.016666666,
                    35.516666666
                ]
            },
            "properties": {
                "name": "Chania",
                "article": "https://en.wikipedia.org/wiki/Chania"
            }
        },
        {
            "type": "Feature",
            "geometry": {
                "type": "Point",
                "coordinates": [
                    20.852222222,
                    39.663611111
                ]
            },
            "properties": {
                "name": "Ioannina",
                "article": "https://en.wikipedia.org/wiki/Ioannina"
            }
        },
        {
            "type": "Feature",
            "geometry": {
                "type": "Point",
                "coordinates": [
                    23.3423,
                    37.9949
                ]
            },
            "properties": {
                "name": "Megara",
                "article": "https://en.wikipedia.org/wiki/Megara"
            }
        },
        {
            "type": "Feature",
            "geometry": {
                "type": "Point",
                "coordinates": [
                    26.863611111,
                    35.436666666
                ]
            },
            "properties": {
                "name": "Armathia",
                "article": "https://en.wikipedia.org/wiki/Armathia"
            }
        },
        {
            "type": "Feature",
            "geometry": {
                "type": "Point",
                "coordinates": [
                    27.110277777,
                    36.815277777
                ]
            },
            "properties": {
                "name": "Kos",
                "article": "https://en.wikipedia.org/wiki/Kos"
            }
        },
        {
            "type": "Feature",
            "geometry": {
                "type": "Point",
                "coordinates": [
                    21.705027777,
                    36.77175
                ]
            },
            "properties": {
                "name": "Sapientza",
                "article": "https://en.wikipedia.org/wiki/Sapientza"
            }
        },
        {
            "type": "Feature",
            "geometry": {
                "type": "Point",
                "coordinates": [
                    24.40687,
                    40.93959
                ]
            },
            "properties": {
                "name": "Kavala",
                "article": "https://en.wikipedia.org/wiki/Kavala"
            }
        },
        {
            "type": "Feature",
            "geometry": {
                "type": "Point",
                "coordinates": [
                    20.666666666,
                    38.416666666
                ]
            },
            "properties": {
                "name": "Ithaca",
                "article": "https://en.wikipedia.org/wiki/Ithaca_(island)"
            }
        },
        {
            "type": "Feature",
            "geometry": {
                "type": "Point",
                "coordinates": [
                    25.466666666,
                    37.083333333
                ]
            },
            "properties": {
                "name": "Naxos Island",
                "article": "https://en.wikipedia.org/wiki/Naxos"
            }
        },
        {
            "type": "Feature",
            "geometry": {
                "type": "Point",
                "coordinates": [
                    25.150833333,
                    35.209805555
                ]
            },
            "properties": {
                "name": "Vathypetro Minoan villa",
                "article": "https://en.wikipedia.org/wiki/Vathypetro"
            }
        },
        {
            "type": "Feature",
            "geometry": {
                "type": "Point",
                "coordinates": [
                    19.921388888,
                    39.623888888
                ]
            },
            "properties": {
                "name": "Corfu",
                "article": "https://en.wikipedia.org/wiki/Corfu_(city)"
            }
        },
        {
            "type": "Feature",
            "geometry": {
                "type": "Point",
                "coordinates": [
                    21.268761111,
                    40.518130555
                ]
            },
            "properties": {
                "name": "Kastoria",
                "article": "https://en.wikipedia.org/wiki/Kastoria"
            }
        },
        {
            "type": "Feature",
            "geometry": {
                "type": "Point",
                "coordinates": [
                    23.55,
                    41.083333333
                ]
            },
            "properties": {
                "name": "Serres",
                "article": "https://en.wikipedia.org/wiki/Serres"
            }
        },
        {
            "type": "Feature",
            "geometry": {
                "type": "Point",
                "coordinates": [
                    22.9975,
                    36.2575
                ]
            },
            "properties": {
                "name": "Kythira",
                "article": "https://en.wikipedia.org/wiki/Kythira"
            }
        },
        {
            "type": "Feature",
            "geometry": {
                "type": "Point",
                "coordinates": [
                    21.768333333,
                    39.555
                ]
            },
            "properties": {
                "name": "Trikala",
                "article": "https://en.wikipedia.org/wiki/Trikala"
            }
        },
        {
            "type": "Feature",
            "geometry": {
                "type": "Point",
                "coordinates": [
                    23.4725,
                    37.335
                ]
            },
            "properties": {
                "name": "Hydra",
                "article": "https://en.wikipedia.org/wiki/Hydra_(island)"
            }
        },
        {
            "type": "Feature",
            "geometry": {
                "type": "Point",
                "coordinates": [
                    25.4,
                    41.116666666
                ]
            },
            "properties": {
                "name": "Komotini",
                "article": "https://en.wikipedia.org/wiki/Komotini"
            }
        },
        {
            "type": "Feature",
            "geometry": {
                "type": "Point",
                "coordinates": [
                    24.525,
                    38.8725
                ]
            },
            "properties": {
                "name": "Skyros",
                "article": "https://en.wikipedia.org/wiki/Skyros"
            }
        },
        {
            "type": "Feature",
            "geometry": {
                "type": "Point",
                "coordinates": [
                    20.9875,
                    39.165
                ]
            },
            "properties": {
                "name": "Arta",
                "article": "https://en.wikipedia.org/wiki/Arta,_Greece"
            }
        },
        {
            "type": "Feature",
            "geometry": {
                "type": "Point",
                "coordinates": [
                    25.8875,
                    36.840277777
                ]
            },
            "properties": {
                "name": "Amorgos",
                "article": "https://en.wikipedia.org/wiki/Amorgos"
            }
        },
        {
            "type": "Feature",
            "geometry": {
                "type": "Point",
                "coordinates": [
                    26.166666666,
                    37.583333333
                ]
            },
            "properties": {
                "name": "Icaria",
                "article": "https://en.wikipedia.org/wiki/Icaria"
            }
        },
        {
            "type": "Feature",
            "geometry": {
                "type": "Point",
                "coordinates": [
                    22.05,
                    40.8
                ]
            },
            "properties": {
                "name": "Edessa",
                "article": "https://en.wikipedia.org/wiki/Edessa,_Greece"
            }
        },
        {
            "type": "Feature",
            "geometry": {
                "type": "Point",
                "coordinates": [
                    24.883333333,
                    41.133333333
                ]
            },
            "properties": {
                "name": "Xanthi",
                "article": "https://en.wikipedia.org/wiki/Xanthi"
            }
        },
        {
            "type": "Feature",
            "geometry": {
                "type": "Point",
                "coordinates": [
                    22.5084,
                    40.2711
                ]
            },
            "properties": {
                "name": "Katerini",
                "article": "https://en.wikipedia.org/wiki/Katerini"
            }
        },
        {
            "type": "Feature",
            "geometry": {
                "type": "Point",
                "coordinates": [
                    22.875,
                    38.436111111
                ]
            },
            "properties": {
                "name": "Livadeia",
                "article": "https://en.wikipedia.org/wiki/Livadeia"
            }
        },
        {
            "type": "Feature",
            "geometry": {
                "type": "Point",
                "coordinates": [
                    24.9,
                    37.45
                ]
            },
            "properties": {
                "name": "Syros",
                "article": "https://en.wikipedia.org/wiki/Syros"
            }
        },
        {
            "type": "Feature",
            "geometry": {
                "type": "Point",
                "coordinates": [
                    25.166666666,
                    37.533333333
                ]
            },
            "properties": {
                "name": "Tinos",
                "article": "https://en.wikipedia.org/wiki/Tinos"
            }
        },
        {
            "type": "Feature",
            "geometry": {
                "type": "Point",
                "coordinates": [
                    25.717268,
                    35.18916
                ]
            },
            "properties": {
                "name": "Agios Nikolaos",
                "article": "https://en.wikipedia.org/wiki/Agios_Nikolaos,_Crete"
            }
        },
        {
            "type": "Feature",
            "geometry": {
                "type": "Point",
                "coordinates": [
                    23.7,
                    39.116667
                ]
            },
            "properties": {
                "name": "Skopelos",
                "article": "https://en.wikipedia.org/wiki/Skopelos"
            }
        },
        {
            "type": "Feature",
            "geometry": {
                "type": "Point",
                "coordinates": [
                    24.7167,
                    36.9667
                ]
            },
            "properties": {
                "name": "Sifnos",
                "article": "https://en.wikipedia.org/wiki/Sifnos"
            }
        },
        {
            "type": "Feature",
            "geometry": {
                "type": "Point",
                "coordinates": [
                    29.585,
                    36.145
                ]
            },
            "properties": {
                "name": "Kastellorizo",
                "article": "https://en.wikipedia.org/wiki/Kastellorizo"
            }
        },
        {
            "type": "Feature",
            "geometry": {
                "type": "Point",
                "coordinates": [
                    23.317777777,
                    38.320833333
                ]
            },
            "properties": {
                "name": "Thebes",
                "article": "https://en.wikipedia.org/wiki/Thebes,_Greece"
            }
        },
        {
            "type": "Feature",
            "geometry": {
                "type": "Point",
                "coordinates": [
                    19.396111111,
                    39.850833333
                ]
            },
            "properties": {
                "name": "Othonoi",
                "article": "https://en.wikipedia.org/wiki/Othonoi"
            }
        },
        {
            "type": "Feature",
            "geometry": {
                "type": "Point",
                "coordinates": [
                    19.39722,
                    39.85111
                ]
            },
            "properties": {
                "name": "Othonoi",
                "article": "https://en.wikipedia.org/wiki/Othonoi"
            }
        },
        {
            "type": "Feature",
            "geometry": {
                "type": "Point",
                "coordinates": [
                    26.261388888,
                    35.098055555
                ]
            },
            "properties": {
                "name": "Zakros",
                "article": "https://en.wikipedia.org/wiki/Zakros"
            }
        },
        {
            "type": "Feature",
            "geometry": {
                "type": "Point",
                "coordinates": [
                    26.28,
                    39.21
                ]
            },
            "properties": {
                "name": "Lesbos",
                "article": "https://en.wikipedia.org/wiki/Lesbos"
            }
        },
        {
            "type": "Feature",
            "geometry": {
                "type": "Point",
                "coordinates": [
                    25.4325,
                    36.415
                ]
            },
            "properties": {
                "name": "Santorini",
                "article": "https://en.wikipedia.org/wiki/Santorini"
            }
        },
        {
            "type": "Feature",
            "geometry": {
                "type": "Point",
                "coordinates": [
                    24.327222222,
                    40.158333333
                ]
            },
            "properties": {
                "name": "Mount Athos",
                "article": "https://en.wikipedia.org/wiki/Mount_Athos"
            }
        },
        {
            "type": "Feature",
            "geometry": {
                "type": "Point",
                "coordinates": [
                    22.536944444,
                    38.795833333
                ]
            },
            "properties": {
                "name": "Battle of Thermopylae",
                "article": "https://en.wikipedia.org/wiki/Battle_of_Thermopylae"
            }
        },
        {
            "type": "Feature",
            "geometry": {
                "type": "Point",
                "coordinates": [
                    23.467222222,
                    40.681944444
                ]
            },
            "properties": {
                "name": "Lake Volvi",
                "article": "https://en.wikipedia.org/wiki/Lake_Volvi"
            }
        },
        {
            "type": "Feature",
            "geometry": {
                "type": "Point",
                "coordinates": [
                    22.283333333,
                    38.816666666
                ]
            },
            "properties": {
                "name": "Mount Oeta",
                "article": "https://en.wikipedia.org/wiki/Mount_Oeta"
            }
        },
        {
            "type": "Feature",
            "geometry": {
                "type": "Point",
                "coordinates": [
                    22.122222222,
                    40.644166666
                ]
            },
            "properties": {
                "name": "Mieza",
                "article": "https://en.wikipedia.org/wiki/Mieza_(Macedonia)"
            }
        },
        {
            "type": "Feature",
            "geometry": {
                "type": "Point",
                "coordinates": [
                    21.733333333,
                    38.25
                ]
            },
            "properties": {
                "name": "Patras",
                "article": "https://en.wikipedia.org/wiki/Patras"
            }
        },
        {
            "type": "Feature",
            "geometry": {
                "type": "Point",
                "coordinates": [
                    20.926111111,
                    40.089722222
                ]
            },
            "properties": {
                "name": "Smolikas",
                "article": "https://en.wikipedia.org/wiki/Smolikas"
            }
        },
        {
            "type": "Feature",
            "geometry": {
                "type": "Point",
                "coordinates": [
                    21.649444444,
                    37.486111111
                ]
            },
            "properties": {
                "name": "Zacharo",
                "article": "https://en.wikipedia.org/wiki/Zacharo"
            }
        },
        {
            "type": "Feature",
            "geometry": {
                "type": "Point",
                "coordinates": [
                    24.86555556,
                    37.77416667
                ]
            },
            "properties": {
                "name": "Zagora",
                "article": null
            }
        },
        {
            "type": "Feature",
            "geometry": {
                "type": "Point",
                "coordinates": [
                    20.75,
                    37.8
                ]
            },
            "properties": {
                "name": "Zakynthos",
                "article": "https://en.wikipedia.org/wiki/Zakynthos"
            }
        },
        {
            "type": "Feature",
            "geometry": {
                "type": "Point",
                "coordinates": [
                    22.505555555,
                    38.483055555
                ]
            },
            "properties": {
                "name": "Castalian Spring",
                "article": "https://en.wikipedia.org/wiki/Castalian_Spring"
            }
        },
        {
            "type": "Feature",
            "geometry": {
                "type": "Point",
                "coordinates": [
                    24.061111111,
                    35.5
                ]
            },
            "properties": {
                "name": "Battle of Crete",
                "article": "https://en.wikipedia.org/wiki/Battle_of_Crete"
            }
        },
        {
            "type": "Feature",
            "geometry": {
                "type": "Point",
                "coordinates": [
                    26.8333,
                    37.75
                ]
            },
            "properties": {
                "name": "Samos",
                "article": "https://en.wikipedia.org/wiki/Samos"
            }
        },
        {
            "type": "Feature",
            "geometry": {
                "type": "Point",
                "coordinates": [
                    22.75,
                    41.216666666
                ]
            },
            "properties": {
                "name": "Dojran Lake",
                "article": "https://en.wikipedia.org/wiki/Doiran_Lake"
            }
        },
        {
            "type": "Feature",
            "geometry": {
                "type": "Point",
                "coordinates": [
                    26.016666666,
                    38.4
                ]
            },
            "properties": {
                "name": "Chios",
                "article": "https://en.wikipedia.org/wiki/Chios"
            }
        },
        {
            "type": "Feature",
            "geometry": {
                "type": "Point",
                "coordinates": [
                    25.134444444,
                    35.340277777
                ]
            },
            "properties": {
                "name": "Heraklion",
                "article": "https://en.wikipedia.org/wiki/Heraklion"
            }
        },
        {
            "type": "Feature",
            "geometry": {
                "type": "Point",
                "coordinates": [
                    22.111111111,
                    37.037777777
                ]
            },
            "properties": {
                "name": "Kalamata",
                "article": "https://en.wikipedia.org/wiki/Kalamata"
            }
        },
        {
            "type": "Feature",
            "geometry": {
                "type": "Point",
                "coordinates": [
                    24.0,
                    38.5
                ]
            },
            "properties": {
                "name": "Euboea",
                "article": "https://en.wikipedia.org/wiki/Euboea"
            }
        },
        {
            "type": "Feature",
            "geometry": {
                "type": "Point",
                "coordinates": [
                    24.975539,
                    40.932628
                ]
            },
            "properties": {
                "name": "Abdera",
                "article": "https://en.wikipedia.org/wiki/Avdira"
            }
        },
        {
            "type": "Feature",
            "geometry": {
                "type": "Point",
                "coordinates": [
                    24.98305556,
                    40.95
                ]
            },
            "properties": {
                "name": "Abdera",
                "article": "https://en.wikipedia.org/wiki/Avdira"
            }
        },
        {
            "type": "Feature",
            "geometry": {
                "type": "Point",
                "coordinates": [
                    28.216666666,
                    36.433333333
                ]
            },
            "properties": {
                "name": "Rhodes",
                "article": "https://en.wikipedia.org/wiki/Rhodes_(city)"
            }
        },
        {
            "type": "Feature",
            "geometry": {
                "type": "Point",
                "coordinates": [
                    26.5536,
                    39.1047
                ]
            },
            "properties": {
                "name": "Mytilene",
                "article": "https://en.wikipedia.org/wiki/Mytilene"
            }
        },
        {
            "type": "Feature",
            "geometry": {
                "type": "Point",
                "coordinates": [
                    22.729166666,
                    37.633333333
                ]
            },
            "properties": {
                "name": "Argos",
                "article": "https://en.wikipedia.org/wiki/Argos,_Peloponnese"
            }
        },
        {
            "type": "Feature",
            "geometry": {
                "type": "Point",
                "coordinates": [
                    26.541666666,
                    37.325
                ]
            },
            "properties": {
                "name": "Patmos",
                "article": "https://en.wikipedia.org/wiki/Patmos"
            }
        },
        {
            "type": "Feature",
            "geometry": {
                "type": "Point",
                "coordinates": [
                    20.643889,
                    38.717778
                ]
            },
            "properties": {
                "name": "Lefkada",
                "article": "https://en.wikipedia.org/wiki/Lefkada"
            }
        },
        {
            "type": "Feature",
            "geometry": {
                "type": "Point",
                "coordinates": [
                    25.333333333,
                    37.45
                ]
            },
            "properties": {
                "name": "Mykonos",
                "article": "https://en.wikipedia.org/wiki/Mykonos"
            }
        },
        {
            "type": "Feature",
            "geometry": {
                "type": "Point",
                "coordinates": [
                    25.866666666,
                    40.85
                ]
            },
            "properties": {
                "name": "Alexandroupolis",
                "article": "https://en.wikipedia.org/wiki/Alexandroupolis"
            }
        },
        {
            "type": "Feature",
            "geometry": {
                "type": "Point",
                "coordinates": [
                    23.49,
                    37.73
                ]
            },
            "properties": {
                "name": "Aegina",
                "article": "https://en.wikipedia.org/wiki/Aegina"
            }
        },
        {
            "type": "Feature",
            "geometry": {
                "type": "Point",
                "coordinates": [
                    25.25,
                    39.916666666
                ]
            },
            "properties": {
                "name": "Lemnos",
                "article": "https://en.wikipedia.org/wiki/Lemnos"
            }
        },
        {
            "type": "Feature",
            "geometry": {
                "type": "Point",
                "coordinates": [
                    22.431111111,
                    38.897222222
                ]
            },
            "properties": {
                "name": "Lamia",
                "article": "https://en.wikipedia.org/wiki/Lamia_(city)"
            }
        },
        {
            "type": "Feature",
            "geometry": {
                "type": "Point",
                "coordinates": [
                    23.708059,
                    37.992359
                ]
            },
            "properties": {
                "name": "Platonic Academy",
                "article": "https://en.wikipedia.org/wiki/Platonic_Academy"
            }
        },
        {
            "type": "Feature",
            "geometry": {
                "type": "Point",
                "coordinates": [
                    22.375,
                    37.508333333
                ]
            },
            "properties": {
                "name": "Tripoli",
                "article": "https://en.wikipedia.org/wiki/Tripoli,_Greece"
            }
        },
        {
            "type": "Feature",
            "geometry": {
                "type": "Point",
                "coordinates": [
                    22.535785,
                    38.797617
                ]
            },
            "properties": {
                "name": "Thermopylae",
                "article": "https://en.wikipedia.org/wiki/Thermopylae"
            }
        },
        {
            "type": "Feature",
            "geometry": {
                "type": "Point",
                "coordinates": [
                    21.63,
                    37.63786111
                ]
            },
            "properties": {
                "name": "Temple of Zeus in Olympia",
                "article": "https://en.wikipedia.org/wiki/Temple_of_Zeus,_Olympia"
            }
        },
        {
            "type": "Feature",
            "geometry": {
                "type": "Point",
                "coordinates": [
                    22.9425,
                    39.361111111
                ]
            },
            "properties": {
                "name": "Volos",
                "article": "https://en.wikipedia.org/wiki/Volos"
            }
        },
        {
            "type": "Feature",
            "geometry": {
                "type": "Point",
                "coordinates": [
                    23.595,
                    38.4625
                ]
            },
            "properties": {
                "name": "Chalkida",
                "article": "https://en.wikipedia.org/wiki/Chalcis"
            }
        },
        {
            "type": "Feature",
            "geometry": {
                "type": "Point",
                "coordinates": [
                    23.60284,
                    38.46354
                ]
            },
            "properties": {
                "name": "Chalkida",
                "article": "https://en.wikipedia.org/wiki/Chalcis"
            }
        },
        {
            "type": "Feature",
            "geometry": {
                "type": "Point",
                "coordinates": [
                    23.78305556,
                    40.09666667
                ]
            },
            "properties": {
                "name": "Neos Marmaras",
                "article": "https://en.wikipedia.org/wiki/Neos_Marmaras"
            }
        },
        {
            "type": "Feature",
            "geometry": {
                "type": "Point",
                "coordinates": [
                    22.8475,
                    38.495
                ]
            },
            "properties": {
                "name": "Battle of Chaeronea",
                "article": "https://en.wikipedia.org/wiki/Battle_of_Chaeronea_(338_BC)"
            }
        },
        {
            "type": "Feature",
            "geometry": {
                "type": "Point",
                "coordinates": [
                    24.473888888,
                    35.368888888
                ]
            },
            "properties": {
                "name": "Rethymno",
                "article": "https://en.wikipedia.org/wiki/Rethymno"
            }
        },
        {
            "type": "Feature",
            "geometry": {
                "type": "Point",
                "coordinates": [
                    25.183333333,
                    37.05
                ]
            },
            "properties": {
                "name": "Paros",
                "article": "https://en.wikipedia.org/wiki/Paros"
            }
        },
        {
            "type": "Feature",
            "geometry": {
                "type": "Point",
                "coordinates": [
                    22.201944444,
                    40.520277777
                ]
            },
            "properties": {
                "name": "Veria",
                "article": "https://en.wikipedia.org/wiki/Veria"
            }
        },
        {
            "type": "Feature",
            "geometry": {
                "type": "Point",
                "coordinates": [
                    22.8,
                    37.565833333
                ]
            },
            "properties": {
                "name": "Nauplion",
                "article": "https://en.wikipedia.org/wiki/Nafplio"
            }
        },
        {
            "type": "Feature",
            "geometry": {
                "type": "Point",
                "coordinates": [
                    22.8,
                    37.565833333
                ]
            },
            "properties": {
                "name": "Nauplion",
                "article": "https://en.wikipedia.org/wiki/Nafplio"
            }
        },
        {
            "type": "Feature",
            "geometry": {
                "type": "Point",
                "coordinates": [
                    24.016666666,
                    35.516666666
                ]
            },
            "properties": {
                "name": "Chania",
                "article": "https://en.wikipedia.org/wiki/Chania"
            }
        },
        {
            "type": "Feature",
            "geometry": {
                "type": "Point",
                "coordinates": [
                    20.852222222,
                    39.663611111
                ]
            },
            "properties": {
                "name": "Ioannina",
                "article": "https://en.wikipedia.org/wiki/Ioannina"
            }
        },
        {
            "type": "Feature",
            "geometry": {
                "type": "Point",
                "coordinates": [
                    23.3423,
                    37.9949
                ]
            },
            "properties": {
                "name": "Megara",
                "article": "https://en.wikipedia.org/wiki/Megara"
            }
        },
        {
            "type": "Feature",
            "geometry": {
                "type": "Point",
                "coordinates": [
                    26.863611111,
                    35.436666666
                ]
            },
            "properties": {
                "name": "Armathia",
                "article": "https://en.wikipedia.org/wiki/Armathia"
            }
        },
        {
            "type": "Feature",
            "geometry": {
                "type": "Point",
                "coordinates": [
                    27.110277777,
                    36.815277777
                ]
            },
            "properties": {
                "name": "Kos",
                "article": "https://en.wikipedia.org/wiki/Kos"
            }
        },
        {
            "type": "Feature",
            "geometry": {
                "type": "Point",
                "coordinates": [
                    21.705027777,
                    36.77175
                ]
            },
            "properties": {
                "name": "Sapientza",
                "article": "https://en.wikipedia.org/wiki/Sapientza"
            }
        },
        {
            "type": "Feature",
            "geometry": {
                "type": "Point",
                "coordinates": [
                    24.40687,
                    40.93959
                ]
            },
            "properties": {
                "name": "Kavala",
                "article": "https://en.wikipedia.org/wiki/Kavala"
            }
        },
        {
            "type": "Feature",
            "geometry": {
                "type": "Point",
                "coordinates": [
                    20.666666666,
                    38.416666666
                ]
            },
            "properties": {
                "name": "Ithaca",
                "article": "https://en.wikipedia.org/wiki/Ithaca_(island)"
            }
        },
        {
            "type": "Feature",
            "geometry": {
                "type": "Point",
                "coordinates": [
                    25.466666666,
                    37.083333333
                ]
            },
            "properties": {
                "name": "Naxos Island",
                "article": "https://en.wikipedia.org/wiki/Naxos"
            }
        },
        {
            "type": "Feature",
            "geometry": {
                "type": "Point",
                "coordinates": [
                    24.975539,
                    40.932628
                ]
            },
            "properties": {
                "name": "Abdera",
                "article": "https://en.wikipedia.org/wiki/Avdira"
            }
        },
        {
            "type": "Feature",
            "geometry": {
                "type": "Point",
                "coordinates": [
                    24.98305556,
                    40.95
                ]
            },
            "properties": {
                "name": "Abdera",
                "article": "https://en.wikipedia.org/wiki/Avdira"
            }
        },
        {
            "type": "Feature",
            "geometry": {
                "type": "Point",
                "coordinates": [
                    28.216666666,
                    36.433333333
                ]
            },
            "properties": {
                "name": "Rhodes",
                "article": "https://en.wikipedia.org/wiki/Rhodes_(city)"
            }
        },
        {
            "type": "Feature",
            "geometry": {
                "type": "Point",
                "coordinates": [
                    26.5536,
                    39.1047
                ]
            },
            "properties": {
                "name": "Mytilene",
                "article": "https://en.wikipedia.org/wiki/Mytilene"
            }
        },
        {
            "type": "Feature",
            "geometry": {
                "type": "Point",
                "coordinates": [
                    22.729166666,
                    37.633333333
                ]
            },
            "properties": {
                "name": "Argos",
                "article": "https://en.wikipedia.org/wiki/Argos,_Peloponnese"
            }
        },
        {
            "type": "Feature",
            "geometry": {
                "type": "Point",
                "coordinates": [
                    26.541666666,
                    37.325
                ]
            },
            "properties": {
                "name": "Patmos",
                "article": "https://en.wikipedia.org/wiki/Patmos"
            }
        },
        {
            "type": "Feature",
            "geometry": {
                "type": "Point",
                "coordinates": [
                    20.643889,
                    38.717778
                ]
            },
            "properties": {
                "name": "Lefkada",
                "article": "https://en.wikipedia.org/wiki/Lefkada"
            }
        },
        {
            "type": "Feature",
            "geometry": {
                "type": "Point",
                "coordinates": [
                    25.333333333,
                    37.45
                ]
            },
            "properties": {
                "name": "Mykonos",
                "article": "https://en.wikipedia.org/wiki/Mykonos"
            }
        },
        {
            "type": "Feature",
            "geometry": {
                "type": "Point",
                "coordinates": [
                    25.866666666,
                    40.85
                ]
            },
            "properties": {
                "name": "Alexandroupolis",
                "article": "https://en.wikipedia.org/wiki/Alexandroupolis"
            }
        },
        {
            "type": "Feature",
            "geometry": {
                "type": "Point",
                "coordinates": [
                    23.49,
                    37.73
                ]
            },
            "properties": {
                "name": "Aegina",
                "article": "https://en.wikipedia.org/wiki/Aegina"
            }
        },
        {
            "type": "Feature",
            "geometry": {
                "type": "Point",
                "coordinates": [
                    25.25,
                    39.916666666
                ]
            },
            "properties": {
                "name": "Lemnos",
                "article": "https://en.wikipedia.org/wiki/Lemnos"
            }
        },
        {
            "type": "Feature",
            "geometry": {
                "type": "Point",
                "coordinates": [
                    22.431111111,
                    38.897222222
                ]
            },
            "properties": {
                "name": "Lamia",
                "article": "https://en.wikipedia.org/wiki/Lamia_(city)"
            }
        },
        {
            "type": "Feature",
            "geometry": {
                "type": "Point",
                "coordinates": [
                    23.708059,
                    37.992359
                ]
            },
            "properties": {
                "name": "Platonic Academy",
                "article": "https://en.wikipedia.org/wiki/Platonic_Academy"
            }
        },
        {
            "type": "Feature",
            "geometry": {
                "type": "Point",
                "coordinates": [
                    22.375,
                    37.508333333
                ]
            },
            "properties": {
                "name": "Tripoli",
                "article": "https://en.wikipedia.org/wiki/Tripoli,_Greece"
            }
        },
        {
            "type": "Feature",
            "geometry": {
                "type": "Point",
                "coordinates": [
                    22.535785,
                    38.797617
                ]
            },
            "properties": {
                "name": "Thermopylae",
                "article": "https://en.wikipedia.org/wiki/Thermopylae"
            }
        },
        {
            "type": "Feature",
            "geometry": {
                "type": "Point",
                "coordinates": [
                    21.63,
                    37.63786111
                ]
            },
            "properties": {
                "name": "Temple of Zeus in Olympia",
                "article": "https://en.wikipedia.org/wiki/Temple_of_Zeus,_Olympia"
            }
        },
        {
            "type": "Feature",
            "geometry": {
                "type": "Point",
                "coordinates": [
                    22.9425,
                    39.361111111
                ]
            },
            "properties": {
                "name": "Volos",
                "article": "https://en.wikipedia.org/wiki/Volos"
            }
        },
        {
            "type": "Feature",
            "geometry": {
                "type": "Point",
                "coordinates": [
                    23.595,
                    38.4625
                ]
            },
            "properties": {
                "name": "Chalkida",
                "article": "https://en.wikipedia.org/wiki/Chalcis"
            }
        },
        {
            "type": "Feature",
            "geometry": {
                "type": "Point",
                "coordinates": [
                    23.60284,
                    38.46354
                ]
            },
            "properties": {
                "name": "Chalkida",
                "article": "https://en.wikipedia.org/wiki/Chalcis"
            }
        },
        {
            "type": "Feature",
            "geometry": {
                "type": "Point",
                "coordinates": [
                    23.78305556,
                    40.09666667
                ]
            },
            "properties": {
                "name": "Neos Marmaras",
                "article": "https://en.wikipedia.org/wiki/Neos_Marmaras"
            }
        },
        {
            "type": "Feature",
            "geometry": {
                "type": "Point",
                "coordinates": [
                    22.8475,
                    38.495
                ]
            },
            "properties": {
                "name": "Battle of Chaeronea",
                "article": "https://en.wikipedia.org/wiki/Battle_of_Chaeronea_(338_BC)"
            }
        },
        {
            "type": "Feature",
            "geometry": {
                "type": "Point",
                "coordinates": [
                    24.473888888,
                    35.368888888
                ]
            },
            "properties": {
                "name": "Rethymno",
                "article": "https://en.wikipedia.org/wiki/Rethymno"
            }
        },
        {
            "type": "Feature",
            "geometry": {
                "type": "Point",
                "coordinates": [
                    25.183333333,
                    37.05
                ]
            },
            "properties": {
                "name": "Paros",
                "article": "https://en.wikipedia.org/wiki/Paros"
            }
        },
        {
            "type": "Feature",
            "geometry": {
                "type": "Point",
                "coordinates": [
                    22.201944444,
                    40.520277777
                ]
            },
            "properties": {
                "name": "Veria",
                "article": "https://en.wikipedia.org/wiki/Veria"
            }
        },
        {
            "type": "Feature",
            "geometry": {
                "type": "Point",
                "coordinates": [
                    22.8,
                    37.565833333
                ]
            },
            "properties": {
                "name": "Nauplion",
                "article": "https://en.wikipedia.org/wiki/Nafplio"
            }
        },
        {
            "type": "Feature",
            "geometry": {
                "type": "Point",
                "coordinates": [
                    22.8,
                    37.565833333
                ]
            },
            "properties": {
                "name": "Nauplion",
                "article": "https://en.wikipedia.org/wiki/Nafplio"
            }
        },
        {
            "type": "Feature",
            "geometry": {
                "type": "Point",
                "coordinates": [
                    23.485277777,
                    37.938055555
                ]
            },
            "properties": {
                "name": "Salamis Island",
                "article": "https://en.wikipedia.org/wiki/Salamis_Island"
            }
        },
        {
            "type": "Feature",
            "geometry": {
                "type": "Point",
                "coordinates": [
                    25.5875,
                    40.45
                ]
            },
            "properties": {
                "name": "Samothrace",
                "article": "https://en.wikipedia.org/wiki/Samothrace"
            }
        },
        {
            "type": "Feature",
            "geometry": {
                "type": "Point",
                "coordinates": [
                    22.38333333,
                    39.3
                ]
            },
            "properties": {
                "name": "Battle of Pharsalus",
                "article": "https://en.wikipedia.org/wiki/Battle_of_Pharsalus"
            }
        },
        {
            "type": "Feature",
            "geometry": {
                "type": "Point",
                "coordinates": [
                    24.416666666,
                    36.733333333
                ]
            },
            "properties": {
                "name": "Milos",
                "article": "https://en.wikipedia.org/wiki/Milos"
            }
        },
        {
            "type": "Feature",
            "geometry": {
                "type": "Point",
                "coordinates": [
                    24.661111111,
                    40.694166666
                ]
            },
            "properties": {
                "name": "Thasos",
                "article": "https://en.wikipedia.org/wiki/Thasos"
            }
        },
        {
            "type": "Feature",
            "geometry": {
                "type": "Point",
                "coordinates": [
                    22.416666666,
                    37.166666666
                ]
            },
            "properties": {
                "name": "Battle of Sellasia",
                "article": "https://en.wikipedia.org/wiki/Battle_of_Sellasia"
            }
        },
        {
            "type": "Feature",
            "geometry": {
                "type": "Point",
                "coordinates": [
                    23.73333333,
                    37.93333333
                ]
            },
            "properties": {
                "name": "Agios Dimitrios",
                "article": "https://en.wikipedia.org/wiki/Agios_Dimitrios"
            }
        },
        {
            "type": "Feature",
            "geometry": {
                "type": "Point",
                "coordinates": [
                    21.05,
                    40.9
                ]
            },
            "properties": {
                "name": "Lake Prespa",
                "article": "https://en.wikipedia.org/wiki/Lake_Prespa"
            }
        },
        {
            "type": "Feature",
            "geometry": {
                "type": "Point",
                "coordinates": [
                    23.318,
                    38.24
                ]
            },
            "properties": {
                "name": "Battle of Plataea",
                "article": "https://en.wikipedia.org/wiki/Battle_of_Plataea"
            }
        },
        {
            "type": "Feature",
            "geometry": {
                "type": "Point",
                "coordinates": [
                    27.133333333,
                    35.583333333
                ]
            },
            "properties": {
                "name": "Karpathos",
                "article": "https://en.wikipedia.org/wiki/Karpathos"
            }
        },
        {
            "type": "Feature",
            "geometry": {
                "type": "Point",
                "coordinates": [
                    23.54527778,
                    38.04138889
                ]
            },
            "properties": {
                "name": "Elefsina",
                "article": "https://en.wikipedia.org/wiki/Elefsina"
            }
        },
        {
            "type": "Feature",
            "geometry": {
                "type": "Point",
                "coordinates": [
                    22.884225,
                    37.934142
                ]
            },
            "properties": {
                "name": "Battle of Lechaeum",
                "article": "https://en.wikipedia.org/wiki/Battle_of_Lechaeum"
            }
        },
        {
            "type": "Feature",
            "geometry": {
                "type": "Point",
                "coordinates": [
                    21.789166666,
                    40.760555555
                ]
            },
            "properties": {
                "name": "Lake Vegoritida",
                "article": "https://en.wikipedia.org/wiki/Lake_Vegoritida"
            }
        },
        {
            "type": "Feature",
            "geometry": {
                "type": "Point",
                "coordinates": [
                    25.4625,
                    35.283611111
                ]
            },
            "properties": {
                "name": "Malia",
                "article": "https://en.wikipedia.org/wiki/Malia,_Crete"
            }
        },
        {
            "type": "Feature",
            "geometry": {
                "type": "Point",
                "coordinates": [
                    25.272,
                    37.395
                ]
            },
            "properties": {
                "name": "Cynthus",
                "article": "https://en.wikipedia.org/wiki/Cynthus"
            }
        },
        {
            "type": "Feature",
            "geometry": {
                "type": "Point",
                "coordinates": [
                    22.917,
                    38.587
                ]
            },
            "properties": {
                "name": "Abae",
                "article": "https://en.wikipedia.org/wiki/Abae"
            }
        },
        {
            "type": "Feature",
            "geometry": {
                "type": "Point",
                "coordinates": [
                    22.895780555,
                    38.637072222
                ]
            },
            "properties": {
                "name": "Abae",
                "article": "https://en.wikipedia.org/wiki/Abae"
            }
        },
        {
            "type": "Feature",
            "geometry": {
                "type": "Point",
                "coordinates": [
                    20.707,
                    38.55
                ]
            },
            "properties": {
                "name": "Arkoudi",
                "article": "https://en.wikipedia.org/wiki/Arkoudi"
            }
        },
        {
            "type": "Feature",
            "geometry": {
                "type": "Point",
                "coordinates": [
                    22.9726,
                    37.926208333
                ]
            },
            "properties": {
                "name": "Hexamilion wall",
                "article": "https://en.wikipedia.org/wiki/Hexamilion_wall"
            }
        },
        {
            "type": "Feature",
            "geometry": {
                "type": "Point",
                "coordinates": [
                    23.8022,
                    38.40097
                ]
            },
            "properties": {
                "name": "Eretria",
                "article": "https://en.wikipedia.org/wiki/Eretria"
            }
        },
        {
            "type": "Feature",
            "geometry": {
                "type": "Point",
                "coordinates": [
                    19.865,
                    39.748055555
                ]
            },
            "properties": {
                "name": "Mount Pantokrator",
                "article": "https://en.wikipedia.org/wiki/Mount_Pantokrator"
            }
        },
        {
            "type": "Feature",
            "geometry": {
                "type": "Point",
                "coordinates": [
                    24.28638889,
                    41.01305556
                ]
            },
            "properties": {
                "name": "Battle of Philippi",
                "article": "https://en.wikipedia.org/wiki/Battle_of_Philippi"
            }
        },
        {
            "type": "Feature",
            "geometry": {
                "type": "Point",
                "coordinates": [
                    21.7243,
                    38.3556
                ]
            },
            "properties": {
                "name": "Macynia",
                "article": "https://en.wikipedia.org/wiki/Macynia"
            }
        },
        {
            "type": "Feature",
            "geometry": {
                "type": "Point",
                "coordinates": [
                    24.05361111,
                    37.73805556
                ]
            },
            "properties": {
                "name": "Thoricus",
                "article": "https://en.wikipedia.org/wiki/Thorikos"
            }
        },
        {
            "type": "Feature",
            "geometry": {
                "type": "Point",
                "coordinates": [
                    25.605,
                    36.915
                ]
            },
            "properties": {
                "name": "Glaros",
                "article": "https://en.wikipedia.org/wiki/Glaros"
            }
        },
        {
            "type": "Feature",
            "geometry": {
                "type": "Point",
                "coordinates": [
                    23.08694444,
                    38.37777778
                ]
            },
            "properties": {
                "name": "Haliartos",
                "article": "https://en.wikipedia.org/wiki/Haliartus"
            }
        },
        {
            "type": "Feature",
            "geometry": {
                "type": "Point",
                "coordinates": [
                    23.14,
                    37.2575
                ]
            },
            "properties": {
                "name": "Spetses",
                "article": "https://en.wikipedia.org/wiki/Spetses"
            }
        },
        {
            "type": "Feature",
            "geometry": {
                "type": "Point",
                "coordinates": [
                    22.711145,
                    37.984104
                ]
            },
            "properties": {
                "name": "Sicyon",
                "article": "https://en.wikipedia.org/wiki/Sicyon"
            }
        },
        {
            "type": "Feature",
            "geometry": {
                "type": "Point",
                "coordinates": [
                    23.09536,
                    38.67221
                ]
            },
            "properties": {
                "name": "Atalanti Island",
                "article": "https://en.wikipedia.org/wiki/Atalanti_Island"
            }
        },
        {
            "type": "Feature",
            "geometry": {
                "type": "Point",
                "coordinates": [
                    23.09583333,
                    38.67222222
                ]
            },
            "properties": {
                "name": "Atalanti Island",
                "article": "https://en.wikipedia.org/wiki/Atalanti_Island"
            }
        },
        {
            "type": "Feature",
            "geometry": {
                "type": "Point",
                "coordinates": [
                    21.1,
                    40.766111111
                ]
            },
            "properties": {
                "name": "Small Prespa Lake",
                "article": "https://en.wikipedia.org/wiki/Small_Prespa_Lake"
            }
        },
        {
            "type": "Feature",
            "geometry": {
                "type": "Point",
                "coordinates": [
                    24.284576,
                    41.012072
                ]
            },
            "properties": {
                "name": "Philippi",
                "article": "https://en.wikipedia.org/wiki/Philippi"
            }
        },
        {
            "type": "Feature",
            "geometry": {
                "type": "Point",
                "coordinates": [
                    20.673759,
                    39.145572
                ]
            },
            "properties": {
                "name": "Kassope",
                "article": "https://en.wikipedia.org/wiki/Cassope"
            }
        },
        {
            "type": "Feature",
            "geometry": {
                "type": "Point",
                "coordinates": [
                    20.787778,
                    39.546389
                ]
            },
            "properties": {
                "name": "Dodona",
                "article": "https://en.wikipedia.org/wiki/Dodona"
            }
        },
        {
            "type": "Feature",
            "geometry": {
                "type": "Point",
                "coordinates": [
                    23.7249,
                    37.9715
                ]
            },
            "properties": {
                "name": "Temple of Athena Nike",
                "article": "https://en.wikipedia.org/wiki/Temple_of_Athena_Nike"
            }
        },
        {
            "type": "Feature",
            "geometry": {
                "type": "Point",
                "coordinates": [
                    24.961111111,
                    36.95
                ]
            },
            "properties": {
                "name": "Strongyli",
                "article": null
            }
        },
        {
            "type": "Feature",
            "geometry": {
                "type": "Point",
                "coordinates": [
                    23.6944,
                    38.2501
                ]
            },
            "properties": {
                "name": "Avlonas",
                "article": "https://en.wikipedia.org/wiki/Avlonas,_Attica"
            }
        },
        {
            "type": "Feature",
            "geometry": {
                "type": "Point",
                "coordinates": [
                    22.5667,
                    39.4167
                ]
            },
            "properties": {
                "name": "Battle of Cynoscephalae",
                "article": "https://en.wikipedia.org/wiki/Battle_of_Cynoscephalae"
            }
        },
        {
            "type": "Feature",
            "geometry": {
                "type": "Point",
                "coordinates": [
                    21.816666666,
                    38.95
                ]
            },
            "properties": {
                "name": "Tymfristos",
                "article": "https://en.wikipedia.org/wiki/Tymfristos"
            }
        },
        {
            "type": "Feature",
            "geometry": {
                "type": "Point",
                "coordinates": [
                    26.969167,
                    37.463611
                ]
            },
            "properties": {
                "name": "Agathonisi",
                "article": "https://en.wikipedia.org/wiki/Agathonisi"
            }
        },
        {
            "type": "Feature",
            "geometry": {
                "type": "Point",
                "coordinates": [
                    24.32583333,
                    37.66888889
                ]
            },
            "properties": {
                "name": "Agia Irini",
                "article": null
            }
        },
        {
            "type": "Feature",
            "geometry": {
                "type": "Point",
                "coordinates": [
                    24.325986,
                    37.669097
                ]
            },
            "properties": {
                "name": "Agia Irini",
                "article": null
            }
        },
        {
            "type": "Feature",
            "geometry": {
                "type": "Point",
                "coordinates": [
                    23.82083333,
                    38.00527778
                ]
            },
            "properties": {
                "name": "Agia Paraskevi Attica",
                "article": "https://en.wikipedia.org/wiki/Agia_Paraskevi"
            }
        },
        {
            "type": "Feature",
            "geometry": {
                "type": "Point",
                "coordinates": [
                    24.79277778,
                    35.05916667
                ]
            },
            "properties": {
                "name": "Hagia Triada",
                "article": "https://en.wikipedia.org/wiki/Hagia_Triada"
            }
        },
        {
            "type": "Feature",
            "geometry": {
                "type": "Point",
                "coordinates": [
                    20.885,
                    39.6625
                ]
            },
            "properties": {
                "name": "Lake Pamvotida",
                "article": "https://en.wikipedia.org/wiki/Lake_Pamvotida"
            }
        },
        {
            "type": "Feature",
            "geometry": {
                "type": "Point",
                "coordinates": [
                    26.294444444,
                    41.028888888
                ]
            },
            "properties": {
                "name": "Tychero",
                "article": "https://en.wikipedia.org/wiki/Tychero"
            }
        },
        {
            "type": "Feature",
            "geometry": {
                "type": "Point",
                "coordinates": [
                    21.8275,
                    38.391666666
                ]
            },
            "properties": {
                "name": "Nafpaktos",
                "article": "https://en.wikipedia.org/wiki/Nafpaktos"
            }
        },
        {
            "type": "Feature",
            "geometry": {
                "type": "Point",
                "coordinates": [
                    22.5333,
                    38.8
                ]
            },
            "properties": {
                "name": "Battle of Thermopylae",
                "article": "https://en.wikipedia.org/wiki/Battle_of_Thermopylae_(191_BC)"
            }
        },
        {
            "type": "Feature",
            "geometry": {
                "type": "Point",
                "coordinates": [
                    24.76083333,
                    35.01333333
                ]
            },
            "properties": {
                "name": "Kommos",
                "article": "https://en.wikipedia.org/wiki/Kommos_(Crete)"
            }
        },
        {
            "type": "Feature",
            "geometry": {
                "type": "Point",
                "coordinates": [
                    22.133333333,
                    37.4
                ]
            },
            "properties": {
                "name": "Megalopoli",
                "article": "https://en.wikipedia.org/wiki/Megalopolis,_Greece"
            }
        },
        {
            "type": "Feature",
            "geometry": {
                "type": "Point",
                "coordinates": [
                    19.926111111,
                    39.606388888
                ]
            },
            "properties": {
                "name": "Mon Repos",
                "article": "https://en.wikipedia.org/wiki/Mon_Repos,_Corfu"
            }
        },
        {
            "type": "Feature",
            "geometry": {
                "type": "Point",
                "coordinates": [
                    22.66611111,
                    36.8525
                ]
            },
            "properties": {
                "name": "Skala",
                "article": "https://en.wikipedia.org/wiki/Skala,_Laconia"
            }
        },
        {
            "type": "Feature",
            "geometry": {
                "type": "Point",
                "coordinates": [
                    26.677222222,
                    36.346944444
                ]
            },
            "properties": {
                "name": "Syrna",
                "article": "https://en.wikipedia.org/wiki/Syrna_(island)"
            }
        },
        {
            "type": "Feature",
            "geometry": {
                "type": "Point",
                "coordinates": [
                    23.7320995,
                    37.9824687
                ]
            },
            "properties": {
                "name": "German Archaeological Institute at Athens",
                "article": "https://en.wikipedia.org/wiki/German_Archaeological_Institute_at_Athens"
            }
        },
        {
            "type": "Feature",
            "geometry": {
                "type": "Point",
                "coordinates": [
                    22.5474,
                    37.4864
                ]
            },
            "properties": {
                "name": "Parthenio",
                "article": "https://en.wikipedia.org/wiki/Mount_Parthenion"
            }
        },
        {
            "type": "Feature",
            "geometry": {
                "type": "Point",
                "coordinates": [
                    21.55,
                    37.05
                ]
            },
            "properties": {
                "name": "Proti",
                "article": "https://en.wikipedia.org/wiki/Proti_Island"
            }
        },
        {
            "type": "Feature",
            "geometry": {
                "type": "Point",
                "coordinates": [
                    26.88555556,
                    37.67194444
                ]
            },
            "properties": {
                "name": "Heraion of Samos",
                "article": "https://en.wikipedia.org/wiki/Heraion_of_Samos"
            }
        },
        {
            "type": "Feature",
            "geometry": {
                "type": "Point",
                "coordinates": [
                    23.71666667,
                    37.96666667
                ]
            },
            "properties": {
                "name": "Classical Athens",
                "article": "https://en.wikipedia.org/wiki/Classical_Athens"
            }
        },
        {
            "type": "Feature",
            "geometry": {
                "type": "Point",
                "coordinates": [
                    25.33777778,
                    35.20888889
                ]
            },
            "properties": {
                "name": "Kastelli",
                "article": "https://en.wikipedia.org/wiki/Kastelli,_Heraklion"
            }
        },
        {
            "type": "Feature",
            "geometry": {
                "type": "Point",
                "coordinates": [
                    23.79416667,
                    40.59083333
                ]
            },
            "properties": {
                "name": "Stageira",
                "article": "https://en.wikipedia.org/wiki/Stagira_(ancient_city)"
            }
        },
        {
            "type": "Feature",
            "geometry": {
                "type": "Point",
                "coordinates": [
                    20.4,
                    39.283333333
                ]
            },
            "properties": {
                "name": "Parga",
                "article": "https://en.wikipedia.org/wiki/Parga"
            }
        },
        {
            "type": "Feature",
            "geometry": {
                "type": "Point",
                "coordinates": [
                    26.9825,
                    37.7475
                ]
            },
            "properties": {
                "name": "Vathy",
                "article": "https://en.wikipedia.org/wiki/Vathy,_Samos"
            }
        },
        {
            "type": "Feature",
            "geometry": {
                "type": "Point",
                "coordinates": [
                    24.275555555,
                    35.330833333
                ]
            },
            "properties": {
                "name": "Kournas",
                "article": "https://en.wikipedia.org/wiki/Lake_Kournas"
            }
        },
        {
            "type": "Feature",
            "geometry": {
                "type": "Point",
                "coordinates": [
                    25.218777,
                    35.447088
                ]
            },
            "properties": {
                "name": "Dia",
                "article": "https://en.wikipedia.org/wiki/Dia_(island)"
            }
        },
        {
            "type": "Feature",
            "geometry": {
                "type": "Point",
                "coordinates": [
                    22.80919444,
                    38.28219444
                ]
            },
            "properties": {
                "name": "Boulis",
                "article": "https://en.wikipedia.org/wiki/Bulis_(Phocis)"
            }
        },
        {
            "type": "Feature",
            "geometry": {
                "type": "Point",
                "coordinates": [
                    24.88713889,
                    35.24869444
                ]
            },
            "properties": {
                "name": "Zominthos",
                "article": "https://en.wikipedia.org/wiki/Zominthos"
            }
        },
        {
            "type": "Feature",
            "geometry": {
                "type": "Point",
                "coordinates": [
                    22.1422,
                    37.4011
                ]
            },
            "properties": {
                "name": "Battle of Megalopolis",
                "article": "https://en.wikipedia.org/wiki/Battle_of_Megalopolis"
            }
        },
        {
            "type": "Feature",
            "geometry": {
                "type": "Point",
                "coordinates": [
                    22.864,
                    38.501
                ]
            },
            "properties": {
                "name": "Battle of Chaeronea",
                "article": "https://en.wikipedia.org/wiki/Battle_of_Chaeronea_(86_BC)"
            }
        },
        {
            "type": "Feature",
            "geometry": {
                "type": "Point",
                "coordinates": [
                    22.4,
                    37.6
                ]
            },
            "properties": {
                "name": "Battle of Mantinea",
                "article": "https://en.wikipedia.org/wiki/Battle_of_Mantinea_(362_BC)"
            }
        },
        {
            "type": "Feature",
            "geometry": {
                "type": "Point",
                "coordinates": [
                    23.074444444,
                    37.597777777
                ]
            },
            "properties": {
                "name": "Epidaurus",
                "article": "https://en.wikipedia.org/wiki/Epidaurus"
            }
        },
        {
            "type": "Feature",
            "geometry": {
                "type": "Point",
                "coordinates": [
                    23.726527777,
                    37.972083333
                ]
            },
            "properties": {
                "name": "Erechtheion",
                "article": "https://en.wikipedia.org/wiki/Erechtheion"
            }
        },
        {
            "type": "Feature",
            "geometry": {
                "type": "Point",
                "coordinates": [
                    24.814267,
                    35.05123
                ]
            },
            "properties": {
                "name": "Phaistos",
                "article": "https://en.wikipedia.org/wiki/Phaistos"
            }
        },
        {
            "type": "Feature",
            "geometry": {
                "type": "Point",
                "coordinates": [
                    20.383,
                    39.784
                ]
            },
            "properties": {
                "name": "Mourgana",
                "article": "https://en.wikipedia.org/wiki/Mourgana"
            }
        },
        {
            "type": "Feature",
            "geometry": {
                "type": "Point",
                "coordinates": [
                    23.7866,
                    35.2412
                ]
            },
            "properties": {
                "name": "Lissos",
                "article": "https://en.wikipedia.org/wiki/Lissus_(Crete)"
            }
        },
        {
            "type": "Feature",
            "geometry": {
                "type": "Point",
                "coordinates": [
                    24.9725,
                    41.27583333
                ]
            },
            "properties": {
                "name": "Echinos",
                "article": "https://en.wikipedia.org/wiki/Echinos"
            }
        },
        {
            "type": "Feature",
            "geometry": {
                "type": "Point",
                "coordinates": [
                    22.884225,
                    37.934142
                ]
            },
            "properties": {
                "name": "Battle of Lechaeum",
                "article": "https://en.wikipedia.org/wiki/Battle_of_Lechaeum"
            }
        },
        {
            "type": "Feature",
            "geometry": {
                "type": "Point",
                "coordinates": [
                    21.789166666,
                    40.760555555
                ]
            },
            "properties": {
                "name": "Lake Vegoritida",
                "article": "https://en.wikipedia.org/wiki/Lake_Vegoritida"
            }
        },
        {
            "type": "Feature",
            "geometry": {
                "type": "Point",
                "coordinates": [
                    25.4625,
                    35.283611111
                ]
            },
            "properties": {
                "name": "Malia",
                "article": "https://en.wikipedia.org/wiki/Malia,_Crete"
            }
        },
        {
            "type": "Feature",
            "geometry": {
                "type": "Point",
                "coordinates": [
                    25.272,
                    37.395
                ]
            },
            "properties": {
                "name": "Cynthus",
                "article": "https://en.wikipedia.org/wiki/Cynthus"
            }
        },
        {
            "type": "Feature",
            "geometry": {
                "type": "Point",
                "coordinates": [
                    22.917,
                    38.587
                ]
            },
            "properties": {
                "name": "Abae",
                "article": "https://en.wikipedia.org/wiki/Abae"
            }
        },
        {
            "type": "Feature",
            "geometry": {
                "type": "Point",
                "coordinates": [
                    22.895780555,
                    38.637072222
                ]
            },
            "properties": {
                "name": "Abae",
                "article": "https://en.wikipedia.org/wiki/Abae"
            }
        },
        {
            "type": "Feature",
            "geometry": {
                "type": "Point",
                "coordinates": [
                    20.707,
                    38.55
                ]
            },
            "properties": {
                "name": "Arkoudi",
                "article": "https://en.wikipedia.org/wiki/Arkoudi"
            }
        },
        {
            "type": "Feature",
            "geometry": {
                "type": "Point",
                "coordinates": [
                    22.9726,
                    37.926208333
                ]
            },
            "properties": {
                "name": "Hexamilion wall",
                "article": "https://en.wikipedia.org/wiki/Hexamilion_wall"
            }
        },
        {
            "type": "Feature",
            "geometry": {
                "type": "Point",
                "coordinates": [
                    23.8022,
                    38.40097
                ]
            },
            "properties": {
                "name": "Eretria",
                "article": "https://en.wikipedia.org/wiki/Eretria"
            }
        },
        {
            "type": "Feature",
            "geometry": {
                "type": "Point",
                "coordinates": [
                    19.865,
                    39.748055555
                ]
            },
            "properties": {
                "name": "Mount Pantokrator",
                "article": "https://en.wikipedia.org/wiki/Mount_Pantokrator"
            }
        },
        {
            "type": "Feature",
            "geometry": {
                "type": "Point",
                "coordinates": [
                    24.28638889,
                    41.01305556
                ]
            },
            "properties": {
                "name": "Battle of Philippi",
                "article": "https://en.wikipedia.org/wiki/Battle_of_Philippi"
            }
        },
        {
            "type": "Feature",
            "geometry": {
                "type": "Point",
                "coordinates": [
                    21.7243,
                    38.3556
                ]
            },
            "properties": {
                "name": "Macynia",
                "article": "https://en.wikipedia.org/wiki/Macynia"
            }
        },
        {
            "type": "Feature",
            "geometry": {
                "type": "Point",
                "coordinates": [
                    24.05361111,
                    37.73805556
                ]
            },
            "properties": {
                "name": "Thoricus",
                "article": "https://en.wikipedia.org/wiki/Thorikos"
            }
        },
        {
            "type": "Feature",
            "geometry": {
                "type": "Point",
                "coordinates": [
                    25.605,
                    36.915
                ]
            },
            "properties": {
                "name": "Glaros",
                "article": "https://en.wikipedia.org/wiki/Glaros"
            }
        },
        {
            "type": "Feature",
            "geometry": {
                "type": "Point",
                "coordinates": [
                    23.08694444,
                    38.37777778
                ]
            },
            "properties": {
                "name": "Haliartos",
                "article": "https://en.wikipedia.org/wiki/Haliartus"
            }
        },
        {
            "type": "Feature",
            "geometry": {
                "type": "Point",
                "coordinates": [
                    23.14,
                    37.2575
                ]
            },
            "properties": {
                "name": "Spetses",
                "article": "https://en.wikipedia.org/wiki/Spetses"
            }
        },
        {
            "type": "Feature",
            "geometry": {
                "type": "Point",
                "coordinates": [
                    22.711145,
                    37.984104
                ]
            },
            "properties": {
                "name": "Sicyon",
                "article": "https://en.wikipedia.org/wiki/Sicyon"
            }
        },
        {
            "type": "Feature",
            "geometry": {
                "type": "Point",
                "coordinates": [
                    23.09536,
                    38.67221
                ]
            },
            "properties": {
                "name": "Atalanti Island",
                "article": "https://en.wikipedia.org/wiki/Atalanti_Island"
            }
        },
        {
            "type": "Feature",
            "geometry": {
                "type": "Point",
                "coordinates": [
                    23.09583333,
                    38.67222222
                ]
            },
            "properties": {
                "name": "Atalanti Island",
                "article": "https://en.wikipedia.org/wiki/Atalanti_Island"
            }
        },
        {
            "type": "Feature",
            "geometry": {
                "type": "Point",
                "coordinates": [
                    21.1,
                    40.766111111
                ]
            },
            "properties": {
                "name": "Small Prespa Lake",
                "article": "https://en.wikipedia.org/wiki/Small_Prespa_Lake"
            }
        },
        {
            "type": "Feature",
            "geometry": {
                "type": "Point",
                "coordinates": [
                    24.284576,
                    41.012072
                ]
            },
            "properties": {
                "name": "Philippi",
                "article": "https://en.wikipedia.org/wiki/Philippi"
            }
        },
        {
            "type": "Feature",
            "geometry": {
                "type": "Point",
                "coordinates": [
                    20.673759,
                    39.145572
                ]
            },
            "properties": {
                "name": "Kassope",
                "article": "https://en.wikipedia.org/wiki/Cassope"
            }
        },
        {
            "type": "Feature",
            "geometry": {
                "type": "Point",
                "coordinates": [
                    20.787778,
                    39.546389
                ]
            },
            "properties": {
                "name": "Dodona",
                "article": "https://en.wikipedia.org/wiki/Dodona"
            }
        },
        {
            "type": "Feature",
            "geometry": {
                "type": "Point",
                "coordinates": [
                    23.7249,
                    37.9715
                ]
            },
            "properties": {
                "name": "Temple of Athena Nike",
                "article": "https://en.wikipedia.org/wiki/Temple_of_Athena_Nike"
            }
        },
        {
            "type": "Feature",
            "geometry": {
                "type": "Point",
                "coordinates": [
                    24.961111111,
                    36.95
                ]
            },
            "properties": {
                "name": "Strongyli",
                "article": null
            }
        },
        {
            "type": "Feature",
            "geometry": {
                "type": "Point",
                "coordinates": [
                    23.6944,
                    38.2501
                ]
            },
            "properties": {
                "name": "Avlonas",
                "article": "https://en.wikipedia.org/wiki/Avlonas,_Attica"
            }
        },
        {
            "type": "Feature",
            "geometry": {
                "type": "Point",
                "coordinates": [
                    22.5667,
                    39.4167
                ]
            },
            "properties": {
                "name": "Battle of Cynoscephalae",
                "article": "https://en.wikipedia.org/wiki/Battle_of_Cynoscephalae"
            }
        },
        {
            "type": "Feature",
            "geometry": {
                "type": "Point",
                "coordinates": [
                    21.816666666,
                    38.95
                ]
            },
            "properties": {
                "name": "Tymfristos",
                "article": "https://en.wikipedia.org/wiki/Tymfristos"
            }
        },
        {
            "type": "Feature",
            "geometry": {
                "type": "Point",
                "coordinates": [
                    26.969167,
                    37.463611
                ]
            },
            "properties": {
                "name": "Agathonisi",
                "article": "https://en.wikipedia.org/wiki/Agathonisi"
            }
        },
        {
            "type": "Feature",
            "geometry": {
                "type": "Point",
                "coordinates": [
                    24.32583333,
                    37.66888889
                ]
            },
            "properties": {
                "name": "Agia Irini",
                "article": null
            }
        },
        {
            "type": "Feature",
            "geometry": {
                "type": "Point",
                "coordinates": [
                    24.325986,
                    37.669097
                ]
            },
            "properties": {
                "name": "Agia Irini",
                "article": null
            }
        },
        {
            "type": "Feature",
            "geometry": {
                "type": "Point",
                "coordinates": [
                    23.82083333,
                    38.00527778
                ]
            },
            "properties": {
                "name": "Agia Paraskevi Attica",
                "article": "https://en.wikipedia.org/wiki/Agia_Paraskevi"
            }
        },
        {
            "type": "Feature",
            "geometry": {
                "type": "Point",
                "coordinates": [
                    24.79277778,
                    35.05916667
                ]
            },
            "properties": {
                "name": "Hagia Triada",
                "article": "https://en.wikipedia.org/wiki/Hagia_Triada"
            }
        },
        {
            "type": "Feature",
            "geometry": {
                "type": "Point",
                "coordinates": [
                    22.880191666,
                    37.905344444
                ]
            },
            "properties": {
                "name": "Battle of Corinth",
                "article": "https://en.wikipedia.org/wiki/Battle_of_Corinth_(146_BC)"
            }
        },
        {
            "type": "Feature",
            "geometry": {
                "type": "Point",
                "coordinates": [
                    22.108611,
                    38.030833
                ]
            },
            "properties": {
                "name": "Kalavryta",
                "article": "https://en.wikipedia.org/wiki/Kalavryta"
            }
        },
        {
            "type": "Feature",
            "geometry": {
                "type": "Point",
                "coordinates": [
                    23.533333333,
                    37.754277777
                ]
            },
            "properties": {
                "name": "Temple of Aphaea",
                "article": "https://en.wikipedia.org/wiki/Temple_of_Aphaia"
            }
        },
        {
            "type": "Feature",
            "geometry": {
                "type": "Point",
                "coordinates": [
                    25.333333333,
                    36.433333333
                ]
            },
            "properties": {
                "name": "Therasia",
                "article": "https://en.wikipedia.org/wiki/Therasia"
            }
        },
        {
            "type": "Feature",
            "geometry": {
                "type": "Point",
                "coordinates": [
                    25.338888888,
                    36.435277777
                ]
            },
            "properties": {
                "name": "Therasia",
                "article": "https://en.wikipedia.org/wiki/Therasia"
            }
        },
        {
            "type": "Feature",
            "geometry": {
                "type": "Point",
                "coordinates": [
                    25.095833333,
                    37.048055555
                ]
            },
            "properties": {
                "name": "Saliagos",
                "article": "https://en.wikipedia.org/wiki/Saliagos"
            }
        },
        {
            "type": "Feature",
            "geometry": {
                "type": "Point",
                "coordinates": [
                    21.925,
                    37.186111111
                ]
            },
            "properties": {
                "name": "Ithome",
                "article": "https://en.wikipedia.org/wiki/Ithome"
            }
        },
        {
            "type": "Feature",
            "geometry": {
                "type": "Point",
                "coordinates": [
                    21.925,
                    37.186111111
                ]
            },
            "properties": {
                "name": "Ithome",
                "article": "https://en.wikipedia.org/wiki/Ithome"
            }
        },
        {
            "type": "Feature",
            "geometry": {
                "type": "Point",
                "coordinates": [
                    21.8297,
                    38.3914
                ]
            },
            "properties": {
                "name": "Battle of Naupactus",
                "article": "https://en.wikipedia.org/wiki/Battle_of_Naupactus"
            }
        },
        {
            "type": "Feature",
            "geometry": {
                "type": "Point",
                "coordinates": [
                    23.079166666,
                    37.596111111
                ]
            },
            "properties": {
                "name": "Ancient Theatre of Epidaurus",
                "article": "https://en.wikipedia.org/wiki/Ancient_Theatre_of_Epidaurus"
            }
        },
        {
            "type": "Feature",
            "geometry": {
                "type": "Point",
                "coordinates": [
                    20.814,
                    38.486
                ]
            },
            "properties": {
                "name": "Atokos",
                "article": "https://en.wikipedia.org/wiki/Atokos"
            }
        },
        {
            "type": "Feature",
            "geometry": {
                "type": "Point",
                "coordinates": [
                    25.431667,
                    36.42
                ]
            },
            "properties": {
                "name": "Fira",
                "article": "https://en.wikipedia.org/wiki/Fira"
            }
        },
        {
            "type": "Feature",
            "geometry": {
                "type": "Point",
                "coordinates": [
                    21.149835,
                    38.949996
                ]
            },
            "properties": {
                "name": "Battle of Olpae",
                "article": "https://en.wikipedia.org/wiki/Battle_of_Olpae"
            }
        },
        {
            "type": "Feature",
            "geometry": {
                "type": "Point",
                "coordinates": [
                    23.87916667,
                    38.1875
                ]
            },
            "properties": {
                "name": "Aphidna",
                "article": "https://en.wikipedia.org/wiki/Aphidna"
            }
        },
        {
            "type": "Feature",
            "geometry": {
                "type": "Point",
                "coordinates": [
                    24.12,
                    37.7
                ]
            },