{
    "type": "FeatureCollection",
    "features": [
        {
            "type": "Feature",
            "geometry": {
                "type": "Point",
                "coordinates": [
                    48.4725,
                    29.975277777
                ]
            },
            "properties": {
                "name": "First Battle of al-Faw",
                "article": "https://en.wikipedia.org/wiki/First_Battle_of_al-Faw"
            }
        },
        {
            "type": "Feature",
            "geometry": {
                "type": "Point",
                "coordinates": [
                    43.116666666,
                    36.366666666
                ]
            },
            "properties": {
                "name": "Mosul",
                "article": "https://en.wikipedia.org/wiki/Mosul"
            }
        },
        {
            "type": "Feature",
            "geometry": {
                "type": "Point",
                "coordinates": [
                    44.009444444,
                    36.191111111
                ]
            },
            "properties": {
                "name": "Erbil",
                "article": "https://en.wikipedia.org/wiki/Erbil"
            }
        },
        {
            "type": "Feature",
            "geometry": {
                "type": "Point",
                "coordinates": [
                    42.983333333,
                    36.85
                ]
            },
            "properties": {
                "name": "Duhok",
                "article": "https://en.wikipedia.org/wiki/Duhok"
            }
        },
        {
            "type": "Feature",
            "geometry": {
                "type": "Point",
                "coordinates": [
                    43.683333333,
                    34.6
                ]
            },
            "properties": {
                "name": "Tikrit",
                "article": "https://en.wikipedia.org/wiki/Tikrit"
            }
        },
        {
            "type": "Feature",
            "geometry": {
                "type": "Point",
                "coordinates": [
                    43.26944444,
                    35.49583333
                ]
            },
            "properties": {
                "name": "Kar-Tukulti-Ninurta",
                "article": "https://en.wikipedia.org/wiki/Kar-Tukulti-Ninurta"
            }
        },
        {
            "type": "Feature",
            "geometry": {
                "type": "Point",
                "coordinates": [
                    44.27888889,
                    36.78166667
                ]
            },
            "properties": {
                "name": "Zawi Chemi",
                "article": null
            }
        },
        {
            "type": "Feature",
            "geometry": {
                "type": "Point",
                "coordinates": [
                    42.681911111,
                    37.143611111
                ]
            },
            "properties": {
                "name": "Zakho",
                "article": "https://en.wikipedia.org/wiki/Zakho"
            }
        },
        {
            "type": "Feature",
            "geometry": {
                "type": "Point",
                "coordinates": [
                    44.339621,
                    32.028951
                ]
            },
            "properties": {
                "name": "Najaf",
                "article": "https://en.wikipedia.org/wiki/Najaf"
            }
        },
        {
            "type": "Feature",
            "geometry": {
                "type": "Point",
                "coordinates": [
                    45.6374,
                    31.3259
                ]
            },
            "properties": {
                "name": "Uruk",
                "article": "https://en.wikipedia.org/wiki/Uruk"
            }
        },
        {
            "type": "Feature",
            "geometry": {
                "type": "Point",
                "coordinates": [
                    43.88568,
                    34.1959
                ]
            },
            "properties": {
                "name": "Samarra",
                "article": "https://en.wikipedia.org/wiki/Samarra"
            }
        },
        {
            "type": "Feature",
            "geometry": {
                "type": "Point",
                "coordinates": [
                    44.4,
                    35.466666666
                ]
            },
            "properties": {
                "name": "Kirkuk",
                "article": "https://en.wikipedia.org/wiki/Kirkuk"
            }
        },
        {
            "type": "Feature",
            "geometry": {
                "type": "Point",
                "coordinates": [
                    43.25,
                    36.36
                ]
            },
            "properties": {
                "name": "Battle of Gaugamela",
                "article": "https://en.wikipedia.org/wiki/Battle_of_Gaugamela"
            }
        },
        {
            "type": "Feature",
            "geometry": {
                "type": "Point",
                "coordinates": [
                    43.58333333,
                    35.78333333
                ]
            },
            "properties": {
                "name": "Makhmur",
                "article": "https://en.wikipedia.org/wiki/Makhmur,_Iraq"
            }
        },
        {
            "type": "Feature",
            "geometry": {
                "type": "Point",
                "coordinates": [
                    44.4,
                    32.03
                ]
            },
            "properties": {
                "name": "Kufa",
                "article": "https://en.wikipedia.org/wiki/Kufa"
            }
        },
        {
            "type": "Feature",
            "geometry": {
                "type": "Point",
                "coordinates": [
                    45.230833333,
                    32.126111111
                ]
            },
            "properties": {
                "name": "Nippur",
                "article": "https://en.wikipedia.org/wiki/Nippur"
            }
        },
        {
            "type": "Feature",
            "geometry": {
                "type": "Point",
                "coordinates": [
                    43.783333333,
                    33.35
                ]
            },
            "properties": {
                "name": "Fallujah",
                "article": "https://en.wikipedia.org/wiki/Fallujah"
            }
        },
        {
            "type": "Feature",
            "geometry": {
                "type": "Point",
                "coordinates": [
                    45.433333333,
                    35.55
                ]
            },
            "properties": {
                "name": "Sulaymaniyah",
                "article": "https://en.wikipedia.org/wiki/Sulaymaniyah"
            }
        },
        {
            "type": "Feature",
            "geometry": {
                "type": "Point",
                "coordinates": [
                    44.580833,
                    33.093611
                ]
            },
            "properties": {
                "name": "Ctesiphon",
                "article": "https://en.wikipedia.org/wiki/Ctesiphon"
            }
        },
        {
            "type": "Feature",
            "geometry": {
                "type": "Point",
                "coordinates": [
                    43.299166666,
                    33.425833333
                ]
            },
            "properties": {
                "name": "Ramadi",
                "article": "https://en.wikipedia.org/wiki/Ramadi"
            }
        },
        {
            "type": "Feature",
            "geometry": {
                "type": "Point",
                "coordinates": [
                    45.083333,
                    32.266667
                ]
            },
            "properties": {
                "name": "Abu Salabikh",
                "article": "https://en.wikipedia.org/wiki/Abu_Salabikh"
            }
        },
        {
            "type": "Feature",
            "geometry": {
                "type": "Point",
                "coordinates": [
                    42.5167,
                    36.1333
                ]
            },
            "properties": {
                "name": "Tell al-Rimah",
                "article": "https://en.wikipedia.org/wiki/Tell_al-Rimah"
            }
        },
        {
            "type": "Feature",
            "geometry": {
                "type": "Point",
                "coordinates": [
                    44.033333333,
                    32.616666666
                ]
            },
            "properties": {
                "name": "Karbala",
                "article": "https://en.wikipedia.org/wiki/Karbala"
            }
        },
        {
            "type": "Feature",
            "geometry": {
                "type": "Point",
                "coordinates": [
                    43.2625,
                    35.456666666
                ]
            },
            "properties": {
                "name": "Assur",
                "article": "https://en.wikipedia.org/wiki/Assur"
            }
        },
        {
            "type": "Feature",
            "geometry": {
                "type": "Point",
                "coordinates": [
                    45.99583,
                    30.81583
                ]
            },
            "properties": {
                "name": "Eridu",
                "article": "https://en.wikipedia.org/wiki/Eridu"
            }
        },
        {
            "type": "Feature",
            "geometry": {
                "type": "Point",
                "coordinates": [
                    47.708055555,
                    30.389166666
                ]
            },
            "properties": {
                "name": "Az Zubayr",
                "article": "https://en.wikipedia.org/wiki/Az_Zubayr"
            }
        },
        {
            "type": "Feature",
            "geometry": {
                "type": "Point",
                "coordinates": [
                    43.328888888,
                    36.098055555
                ]
            },
            "properties": {
                "name": "Nimrud",
                "article": "https://en.wikipedia.org/wiki/Nimrud"
            }
        },
        {
            "type": "Feature",
            "geometry": {
                "type": "Point",
                "coordinates": [
                    44.433333333,
                    32.483333333
                ]
            },
            "properties": {
                "name": "Hillah",
                "article": "https://en.wikipedia.org/wiki/Hillah"
            }
        },
        {
            "type": "Feature",
            "geometry": {
                "type": "Point",
                "coordinates": [
                    45.8498,
                    31.2833
                ]
            },
            "properties": {
                "name": "Larsa",
                "article": "https://en.wikipedia.org/wiki/Larsa"
            }
        },
        {
            "type": "Feature",
            "geometry": {
                "type": "Point",
                "coordinates": [
                    45.853611111,
                    31.285833333
                ]
            },
            "properties": {
                "name": "Larsa",
                "article": "https://en.wikipedia.org/wiki/Larsa"
            }
        },
        {
            "type": "Feature",
            "geometry": {
                "type": "Point",
                "coordinates": [
                    43.22931,
                    36.50953
                ]
            },
            "properties": {
                "name": "Dur-Sharrukin",
                "article": "https://en.wikipedia.org/wiki/Dur-Sharrukin"
            }
        },
        {
            "type": "Feature",
            "geometry": {
                "type": "Point",
                "coordinates": [
                    45.931388888,
                    33.123611111
                ]
            },
            "properties": {
                "name": "Der",
                "article": "https://en.wikipedia.org/wiki/Der_(Sumer)"
            }
        },
        {
            "type": "Feature",
            "geometry": {
                "type": "Point",
                "coordinates": [
                    44.643611111,
                    33.744722222
                ]
            },
            "properties": {
                "name": "Baqubah",
                "article": "https://en.wikipedia.org/wiki/Baqubah"
            }
        },
        {
            "type": "Feature",
            "geometry": {
                "type": "Point",
                "coordinates": [
                    44.420833333,
                    32.536388888
                ]
            },
            "properties": {
                "name": "Etemenanki",
                "article": "https://en.wikipedia.org/wiki/Etemenanki"
            }
        },
        {
            "type": "Feature",
            "geometry": {
                "type": "Point",
                "coordinates": [
                    44.39,
                    31.98
                ]
            },
            "properties": {
                "name": "Al-Hirah",
                "article": "https://en.wikipedia.org/wiki/Al-Hira"
            }
        },
        {
            "type": "Feature",
            "geometry": {
                "type": "Point",
                "coordinates": [
                    45.818888888,
                    32.514722222
                ]
            },
            "properties": {
                "name": "Kut",
                "article": "https://en.wikipedia.org/wiki/Kut"
            }
        },
        {
            "type": "Feature",
            "geometry": {
                "type": "Point",
                "coordinates": [
                    43.71583333,
                    33.37861111
                ]
            },
            "properties": {
                "name": "Nehardea",
                "article": "https://en.wikipedia.org/wiki/Nehardea"
            }
        },
        {
            "type": "Feature",
            "geometry": {
                "type": "Point",
                "coordinates": [
                    44.779444,
                    32.717778
                ]
            },
            "properties": {
                "name": "Jemdet Nasr",
                "article": "https://en.wikipedia.org/wiki/Jemdet_Nasr"
            }
        },
        {
            "type": "Feature",
            "geometry": {
                "type": "Point",
                "coordinates": [
                    45.966667,
                    31.95
                ]
            },
            "properties": {
                "name": "Adab",
                "article": "https://en.wikipedia.org/wiki/Adab_(city)"
            }
        },
        {
            "type": "Feature",
            "geometry": {
                "type": "Point",
                "coordinates": [
                    47.15,
                    31.833333333
                ]
            },
            "properties": {
                "name": "Amarah",
                "article": "https://en.wikipedia.org/wiki/Amarah"
            }
        },
        {
            "type": "Feature",
            "geometry": {
                "type": "Point",
                "coordinates": [
                    44.75,
                    33.75
                ]
            },
            "properties": {
                "name": "Eshnunna",
                "article": "https://en.wikipedia.org/wiki/Eshnunna"
            }
        },
        {
            "type": "Feature",
            "geometry": {
                "type": "Point",
                "coordinates": [
                    45.509761111,
                    31.777363888
                ]
            },
            "properties": {
                "name": "Shuruppak",
                "article": "https://en.wikipedia.org/wiki/Shuruppak"
            }
        },
        {
            "type": "Feature",
            "geometry": {
                "type": "Point",
                "coordinates": [
                    43.487,
                    37.0919
                ]
            },
            "properties": {
                "name": "Amedi",
                "article": "https://en.wikipedia.org/wiki/Amedi"
            }
        },
        {
            "type": "Feature",
            "geometry": {
                "type": "Point",
                "coordinates": [
                    42.718333333,
                    35.588055555
                ]
            },
            "properties": {
                "name": "Hatra",
                "article": "https://en.wikipedia.org/wiki/Hatra"
            }
        },
        {
            "type": "Feature",
            "geometry": {
                "type": "Point",
                "coordinates": [
                    45.28520718,
                    31.93351249
                ]
            },
            "properties": {
                "name": "Isin",
                "article": "https://en.wikipedia.org/wiki/Isin"
            }
        },
        {
            "type": "Feature",
            "geometry": {
                "type": "Point",
                "coordinates": [
                    44.247622222,
                    35.302494444
                ]
            },
            "properties": {
                "name": "Nuzi",
                "article": "https://en.wikipedia.org/wiki/Nuzi"
            }
        },
        {
            "type": "Feature",
            "geometry": {
                "type": "Point",
                "coordinates": [
                    44.247622222,
                    35.302494444
                ]
            },
            "properties": {
                "name": "Nuzi",
                "article": "https://en.wikipedia.org/wiki/Nuzi"
            }
        },
        {
            "type": "Feature",
            "geometry": {
                "type": "Point",
                "coordinates": [
                    43.87985,
                    34.206195
                ]
            },
            "properties": {
                "name": "Great Mosque of Samarra",
                "article": "https://en.wikipedia.org/wiki/Great_Mosque_of_Samarra"
            }
        },
        {
            "type": "Feature",
            "geometry": {
                "type": "Point",
                "coordinates": [
                    45.983333333,
                    35.183333333
                ]
            },
            "properties": {
                "name": "Halabja",
                "article": "https://en.wikipedia.org/wiki/Halabja"
            }
        },
        {
            "type": "Feature",
            "geometry": {
                "type": "Point",
                "coordinates": [
                    43.25,
                    36.483
                ]
            },
            "properties": {
                "name": "Tepe Gawra",
                "article": "https://en.wikipedia.org/wiki/Tepe_Gawra"
            }
        },
        {
            "type": "Feature",
            "geometry": {
                "type": "Point",
                "coordinates": [
                    43.258288,
                    35.458557
                ]
            },
            "properties": {
                "name": "Temple of Anu-Adad",
                "article": null
            }
        },
        {
            "type": "Feature",
            "geometry": {
                "type": "Point",
                "coordinates": [
                    43.866666666,
                    34.216666666
                ]
            },
            "properties": {
                "name": "Apamea",
                "article": "https://en.wikipedia.org/wiki/Apamea_(Babylonia)"
            }
        },
        {
            "type": "Feature",
            "geometry": {
                "type": "Point",
                "coordinates": [
                    47.5,
                    30.31
                ]
            },
            "properties": {
                "name": "Al-Ubulla",
                "article": "https://en.wikipedia.org/wiki/Al-Ubulla"
            }
        },
        {
            "type": "Feature",
            "geometry": {
                "type": "Point",
                "coordinates": [
                    44.252153,
                    33.058829
                ]
            },
            "properties": {
                "name": "Sippar",
                "article": "https://en.wikipedia.org/wiki/Sippar"
            }
        },
        {
            "type": "Feature",
            "geometry": {
                "type": "Point",
                "coordinates": [
                    44.25,
                    33.06667
                ]
            },
            "properties": {
                "name": "Sippar",
                "article": "https://en.wikipedia.org/wiki/Sippar"
            }
        },
        {
            "type": "Feature",
            "geometry": {
                "type": "Point",
                "coordinates": [
                    44.20229,
                    33.35372
                ]
            },
            "properties": {
                "name": "Dur-Kurigalzu",
                "article": "https://en.wikipedia.org/wiki/Dur-Kurigalzu"
            }
        },
        {
            "type": "Feature",
            "geometry": {
                "type": "Point",
                "coordinates": [
                    43.3179,
                    37.1095
                ]
            },
            "properties": {
                "name": "Araden",
                "article": "https://en.wikipedia.org/wiki/Araden"
            }
        },
        {
            "type": "Feature",
            "geometry": {
                "type": "Point",
                "coordinates": [
                    44.341688888,
                    32.391997222
                ]
            },
            "properties": {
                "name": "Borsippa",
                "article": "https://en.wikipedia.org/wiki/Borsippa"
            }
        },
        {
            "type": "Feature",
            "geometry": {
                "type": "Point",
                "coordinates": [
                    44.341688888,
                    32.391997222
                ]
            },
            "properties": {
                "name": "Borsippa",
                "article": "https://en.wikipedia.org/wiki/Borsippa"
            }
        },
        {
            "type": "Feature",
            "geometry": {
                "type": "Point",
                "coordinates": [
                    44.38333333,
                    35.45
                ]
            },
            "properties": {
                "name": "Arrapha",
                "article": "https://en.wikipedia.org/wiki/Arrapha"
            }
        },
        {
            "type": "Feature",
            "geometry": {
                "type": "Point",
                "coordinates": [
                    44.924722222,
                    31.989166666
                ]
            },
            "properties": {
                "name": "Al Diwaniyah",
                "article": "https://en.wikipedia.org/wiki/Al_Diwaniyah"
            }
        },
        {
            "type": "Feature",
            "geometry": {
                "type": "Point",
                "coordinates": [
                    45.636111,
                    31.322222
                ]
            },
            "properties": {
                "name": "Eanna",
                "article": "https://en.wikipedia.org/wiki/Eanna"
            }
        },
        {
            "type": "Feature",
            "geometry": {
                "type": "Point",
                "coordinates": [
                    46.26666667,
                    31.05
                ]
            },
            "properties": {
                "name": "Battle of Nasiriyah",
                "article": "https://en.wikipedia.org/wiki/Battle_of_Nasiriyah"
            }
        },
        {
            "type": "Feature",
            "geometry": {
                "type": "Point",
                "coordinates": [
                    45.8877,
                    31.6674
                ]
            },
            "properties": {
                "name": "Umma",
                "article": "https://en.wikipedia.org/wiki/Umma"
            }
        },
        {
            "type": "Feature",
            "geometry": {
                "type": "Point",
                "coordinates": [
                    45.283333333,
                    31.316666666
                ]
            },
            "properties": {
                "name": "Samawah",
                "article": "https://en.wikipedia.org/wiki/Samawah"
            }
        },
        {
            "type": "Feature",
            "geometry": {
                "type": "Point",
                "coordinates": [
                    44.316667,
                    33.783333
                ]
            },
            "properties": {
                "name": "Ukbara",
                "article": "https://en.wikipedia.org/wiki/Ukbara"
            }
        },
        {
            "type": "Feature",
            "geometry": {
                "type": "Point",
                "coordinates": [
                    44.234166666,
                    33.509166666
                ]
            },
            "properties": {
                "name": "Taji",
                "article": "https://en.wikipedia.org/wiki/Taji,_Iraq"
            }
        },
        {
            "type": "Feature",
            "geometry": {
                "type": "Point",
                "coordinates": [
                    43.493055555,
                    34.929166666
                ]
            },
            "properties": {
                "name": "Baiji",
                "article": "https://en.wikipedia.org/wiki/Baiji_(city)"
            }
        },
        {
            "type": "Feature",
            "geometry": {
                "type": "Point",
                "coordinates": [
                    47.929444444,
                    30.034166666
                ]
            },
            "properties": {
                "name": "Umm Qasr",
                "article": "https://en.wikipedia.org/wiki/Umm_Qasr"
            }
        },
        {
            "type": "Feature",
            "geometry": {
                "type": "Point",
                "coordinates": [
                    46.15,
                    31.61666667
                ]
            },
            "properties": {
                "name": "Girsu",
                "article": "https://en.wikipedia.org/wiki/Girsu"
            }
        },
        {
            "type": "Feature",
            "geometry": {
                "type": "Point",
                "coordinates": [
                    44.834166666,
                    35.533333333
                ]
            },
            "properties": {
                "name": "Chamchamal",
                "article": "https://en.wikipedia.org/wiki/Chamchamal"
            }
        },
        {
            "type": "Feature",
            "geometry": {
                "type": "Point",
                "coordinates": [
                    44.2433,
                    36.8006
                ]
            },
            "properties": {
                "name": "Shanidar Cave",
                "article": "https://en.wikipedia.org/wiki/Shanidar_Cave"
            }
        },
        {
            "type": "Feature",
            "geometry": {
                "type": "Point",
                "coordinates": [
                    46.33333333,
                    30.83333333
                ]
            },
            "properties": {
                "name": "Kuara",
                "article": "https://en.wikipedia.org/wiki/Tell_al-Lahm"
            }
        },
        {
            "type": "Feature",
            "geometry": {
                "type": "Point",
                "coordinates": [
                    43.15,
                    36.366667
                ]
            },
            "properties": {
                "name": "Nineveh",
                "article": "https://en.wikipedia.org/wiki/Nineveh"
            }
        },
        {
            "type": "Feature",
            "geometry": {
                "type": "Point",
                "coordinates": [
                    46.104444,
                    30.962222
                ]
            },
            "properties": {
                "name": "Ur",
                "article": "https://en.wikipedia.org/wiki/Ur"
            }
        },
        {
            "type": "Feature",
            "geometry": {
                "type": "Point",
                "coordinates": [
                    46.2575,
                    31.043888888
                ]
            },
            "properties": {
                "name": "Nasiriyah",
                "article": "https://en.wikipedia.org/wiki/Nasiriyah"
            }
        },
        {
            "type": "Feature",
            "geometry": {
                "type": "Point",
                "coordinates": [
                    41.876388888,
                    36.320833333
                ]
            },
            "properties": {
                "name": "Sinjar",
                "article": "https://en.wikipedia.org/wiki/Sinjar"
            }
        },
        {
            "type": "Feature",
            "geometry": {
                "type": "Point",
                "coordinates": [
                    42.453611111,
                    36.374166666
                ]
            },
            "properties": {
                "name": "Battle of Tal Afar",
                "article": "https://en.wikipedia.org/wiki/Battle_of_Tal_Afar_(2005)"
            }
        },
        {
            "type": "Feature",
            "geometry": {
                "type": "Point",
                "coordinates": [
                    42.449722222,
                    36.379166666
                ]
            },
            "properties": {
                "name": "Tal Afar",
                "article": "https://en.wikipedia.org/wiki/Tal_Afar"
            }
        },
        {
            "type": "Feature",
            "geometry": {
                "type": "Point",
                "coordinates": [
                    44.930291666,
                    35.555797222
                ]
            },
            "properties": {
                "name": "Jarmo",
                "article": "https://en.wikipedia.org/wiki/Jarmo"
            }
        },
        {
            "type": "Feature",
            "geometry": {
                "type": "Point",
                "coordinates": [
                    45.383333333,
                    34.333333333
                ]
            },
            "properties": {
                "name": "Khanaqin",
                "article": "https://en.wikipedia.org/wiki/Khanaqin"
            }
        },
        {
            "type": "Feature",
            "geometry": {
                "type": "Point",
                "coordinates": [
                    45.390555555,
                    34.348333333
                ]
            },
            "properties": {
                "name": "Khanaqin",
                "article": "https://en.wikipedia.org/wiki/Khanaqin"
            }
        },
        {
            "type": "Feature",
            "geometry": {
                "type": "Point",
                "coordinates": [
                    44.6325,
                    34.888055555
                ]
            },
            "properties": {
                "name": "Tuz Khormato",
                "article": "https://en.wikipedia.org/wiki/Tuz_Khurmatu"
            }
        },
        {
            "type": "Feature",
            "geometry": {
                "type": "Point",
                "coordinates": [
                    43.798888888,
                    34.4575
                ]
            },
            "properties": {
                "name": "Ad-Dawr",
                "article": "https://en.wikipedia.org/wiki/Ad-Dawr"
            }
        },
        {
            "type": "Feature",
            "geometry": {
                "type": "Point",
                "coordinates": [
                    40.283333333,
                    33.033333333
                ]
            },
            "properties": {
                "name": "Ar Rutba",
                "article": "https://en.wikipedia.org/wiki/Ar-Rutbah"
            }
        },
        {
            "type": "Feature",
            "geometry": {
                "type": "Point",
                "coordinates": [
                    40.285833333,
                    33.037222222
                ]
            },
            "properties": {
                "name": "Ar Rutba",
                "article": "https://en.wikipedia.org/wiki/Ar-Rutbah"
            }
        },
        {
            "type": "Feature",
            "geometry": {
                "type": "Point",
                "coordinates": [
                    44.145555555,
                    34.014722222
                ]
            },
            "properties": {
                "name": "Balad",
                "article": "https://en.wikipedia.org/wiki/Balad,_Iraq"
            }
        },
        {
            "type": "Feature",
            "geometry": {
                "type": "Point",
                "coordinates": [
                    45.250555555,
                    32.088888888
                ]
            },
            "properties": {
                "name": "Afak",
                "article": "https://en.wikipedia.org/wiki/Afak"
            }
        },
        {
            "type": "Feature",
            "geometry": {
                "type": "Point",
                "coordinates": [
                    44.35,
                    32.9
                ]
            },
            "properties": {
                "name": "Iskandariya",
                "article": "https://en.wikipedia.org/wiki/Iskandariya"
            }
        },
        {
            "type": "Feature",
            "geometry": {
                "type": "Point",
                "coordinates": [
                    44.600833333,
                    31.9625
                ]
            },
            "properties": {
                "name": "Shamia",
                "article": "https://en.wikipedia.org/wiki/Al-Shamiya_(Iraq)"
            }
        },
        {
            "type": "Feature",
            "geometry": {
                "type": "Point",
                "coordinates": [
                    44.771944444,
                    32.061666666
                ]
            },
            "properties": {
                "name": "Shamia",
                "article": "https://en.wikipedia.org/wiki/Al-Shamiya_(Iraq)"
            }
        },
        {
            "type": "Feature",
            "geometry": {
                "type": "Point",
                "coordinates": [
                    44.91861,
                    36.77528
                ]
            },
            "properties": {
                "name": "Cheekha Dar",
                "article": "https://en.wikipedia.org/wiki/Cheekha_Dar"
            }
        },
        {
            "type": "Feature",
            "geometry": {
                "type": "Point",
                "coordinates": [
                    44.61286111,
                    32.76002778
                ]
            },
            "properties": {
                "name": "Kutha",
                "article": "https://en.wikipedia.org/wiki/Kutha"
            }
        },
        {
            "type": "Feature",
            "geometry": {
                "type": "Point",
                "coordinates": [
                    44.61286111,
                    32.76002778
                ]
            },
            "properties": {
                "name": "Kutha",
                "article": "https://en.wikipedia.org/wiki/Kutha"
            }
        },
        {
            "type": "Feature",
            "geometry": {
                "type": "Point",
                "coordinates": [
                    47.8167,
                    30.5
                ]
            },
            "properties": {
                "name": "Battle of the Camel",
                "article": "https://en.wikipedia.org/wiki/Battle_of_the_Camel"
            }
        },
        {
            "type": "Feature",
            "geometry": {
                "type": "Point",
                "coordinates": [
                    43.096666666,
                    36.734166666
                ]
            },
            "properties": {
                "name": "Alqosh",
                "article": "https://en.wikipedia.org/wiki/Alqosh"
            }
        },
        {
            "type": "Feature",
            "geometry": {
                "type": "Point",
                "coordinates": [
                    44.7833,
                    32.0928
                ]
            },
            "properties": {
                "name": "Marad",
                "article": "https://en.wikipedia.org/wiki/Marad"
            }
        },
        {
            "type": "Feature",
            "geometry": {
                "type": "Point",
                "coordinates": [
                    44.5,
                    32.15
                ]
            },
            "properties": {
                "name": "Dilbat",
                "article": "https://en.wikipedia.org/wiki/Dilbat"
            }
        },
        {
            "type": "Feature",
            "geometry": {
                "type": "Point",
                "coordinates": [
                    44.6991,
                    33.1815
                ]
            },
            "properties": {
                "name": "Opis",
                "article": "https://en.wikipedia.org/wiki/Opis"
            }
        },
        {
            "type": "Feature",
            "geometry": {
                "type": "Point",
                "coordinates": [
                    44.75,
                    33.75
                ]
            },
            "properties": {
                "name": "Khafajah",
                "article": "https://en.wikipedia.org/wiki/Khafajah"
            }
        },
        {
            "type": "Feature",
            "geometry": {
                "type": "Point",
                "coordinates": [
                    43.78333333,
                    33.35
                ]
            },
            "properties": {
                "name": "Second Battle of Fallujah",
                "article": "https://en.wikipedia.org/wiki/Second_Battle_of_Fallujah"
            }
        },
        {
            "type": "Feature",
            "geometry": {
                "type": "Point",
                "coordinates": [
                    46.004444444,
                    31.382777777
                ]
            },
            "properties": {
                "name": "Bad-tibira",
                "article": "https://en.wikipedia.org/wiki/Bad-tibira"
            }
        },
        {
            "type": "Feature",
            "geometry": {
                "type": "Point",
                "coordinates": [
                    46.625833333,
                    29.544722222
                ]
            },
            "properties": {
                "name": "Battle of 73 Easting",
                "article": "https://en.wikipedia.org/wiki/Battle_of_73_Easting"
            }
        },
        {
            "type": "Feature",
            "geometry": {
                "type": "Point",
                "coordinates": [
                    46.281722222,
                    32.189111111
                ]
            },
            "properties": {
                "name": "Wasit",
                "article": "https://en.wikipedia.org/wiki/Wasit"
            }
        },
        {
            "type": "Feature",
            "geometry": {
                "type": "Point",
                "coordinates": [
                    44.580722222,
                    33.093722222
                ]
            },
            "properties": {
                "name": "Taq-i Kisra",
                "article": "https://en.wikipedia.org/wiki/Taq_Kasra"
            }
        },
        {
            "type": "Feature",
            "geometry": {
                "type": "Point",
                "coordinates": [
                    43.783333,
                    33.35
                ]
            },
            "properties": {
                "name": "First Battle of Fallujah",
                "article": "https://en.wikipedia.org/wiki/First_Battle_of_Fallujah"
            }
        },
        {
            "type": "Feature",
            "geometry": {
                "type": "Point",
                "coordinates": [
                    45.49888889,
                    33.85638889
                ]
            },
            "properties": {
                "name": "Hamrin",
                "article": "https://en.wikipedia.org/wiki/Hamrin"
            }
        },
        {
            "type": "Feature",
            "geometry": {
                "type": "Point",
                "coordinates": [
                    46.935,
                    30.17416667
                ]
            },
            "properties": {
                "name": "Battle of Medina Ridge",
                "article": "https://en.wikipedia.org/wiki/Battle_of_Medina_Ridge"
            }
        },
        {
            "type": "Feature",
            "geometry": {
                "type": "Point",
                "coordinates": [
                    43.183333333,
                    33.966666666
                ]
            },
            "properties": {
                "name": "Lake Tharthar",
                "article": "https://en.wikipedia.org/wiki/Lake_Tharthar"
            }
        },
        {
            "type": "Feature",
            "geometry": {
                "type": "Point",
                "coordinates": [
                    44.882222222,
                    36.255
                ]
            },
            "properties": {
                "name": "Ranya",
                "article": "https://en.wikipedia.org/wiki/Ranya"
            }
        },
        {
            "type": "Feature",
            "geometry": {
                "type": "Point",
                "coordinates": [
                    43.41666667,
                    36.21666667
                ]
            },
            "properties": {
                "name": "Balawat",
                "article": "https://en.wikipedia.org/wiki/Balawat"
            }
        },
        {
            "type": "Feature",
            "geometry": {
                "type": "Point",
                "coordinates": [
                    44.6833,
                    32.7833
                ]
            },
            "properties": {
                "name": "Tell ‘Uqayr",
                "article": "https://en.wikipedia.org/wiki/Tell_Uqair"
            }
        },
        {
            "type": "Feature",
            "geometry": {
                "type": "Point",
                "coordinates": [
                    42.846388888,
                    36.857777777
                ]
            },
            "properties": {
                "name": "Semel",
                "article": "https://en.wikipedia.org/wiki/Simele"
            }
        },
        {
            "type": "Feature",
            "geometry": {
                "type": "Point",
                "coordinates": [
                    42.95,
                    36.4833
                ]
            },
            "properties": {
                "name": "Tell Arpachiyah",
                "article": "https://en.wikipedia.org/wiki/Tell_Arpachiyah"
            }
        },
        {
            "type": "Feature",
            "geometry": {
                "type": "Point",
                "coordinates": [
                    44.628611111,
                    36.082777777
                ]
            },
            "properties": {
                "name": "Koy Sanjaq",
                "article": "https://en.wikipedia.org/wiki/Koy_Sanjaq"
            }
        },
        {
            "type": "Feature",
            "geometry": {
                "type": "Point",
                "coordinates": [
                    44.62873,
                    36.08289
                ]
            },
            "properties": {
                "name": "Koy Sanjaq",
                "article": "https://en.wikipedia.org/wiki/Koy_Sanjaq"
            }
        },
        {
            "type": "Feature",
            "geometry": {
                "type": "Point",
                "coordinates": [
                    47.7067,
                    31.5422
                ]
            },
            "properties": {
                "name": "Battle of the Marshes",
                "article": "https://en.wikipedia.org/wiki/Battle_of_the_Marshes"
            }
        },
        {
            "type": "Feature",
            "geometry": {
                "type": "Point",
                "coordinates": [
                    44.433333333,
                    33.333333333
                ]
            },
            "properties": {
                "name": "Battle of Baghdad",
                "article": "https://en.wikipedia.org/wiki/Battle_of_Baghdad_(2003)"
            }
        },
        {
            "type": "Feature",
            "geometry": {
                "type": "Point",
                "coordinates": [
                    48.4725,
                    29.975277777
                ]
            },
            "properties": {
                "name": "Battle of Al Faw",
                "article": "https://en.wikipedia.org/wiki/Battle_of_Al_Faw_(2003)"
            }
        },
        {
            "type": "Feature",
            "geometry": {
                "type": "Point",
                "coordinates": [
                    44.333333333,
                    32.0
                ]
            },
            "properties": {
                "name": "Battle of Najaf",
                "article": "https://en.wikipedia.org/wiki/Battle_of_Najaf_(2003)"
            }
        },
        {
            "type": "Feature",
            "geometry": {
                "type": "Point",
                "coordinates": [
                    43.26666667,
                    37.11666667
                ]
            },
            "properties": {
                "name": "Bamarni",
                "article": "https://en.wikipedia.org/wiki/Bamarni"
            }
        },
        {
            "type": "Feature",
            "geometry": {
                "type": "Point",
                "coordinates": [
                    44.34361111,
                    36.39638889
                ]
            },
            "properties": {
                "name": "Shaqlawa",
                "article": "https://en.wikipedia.org/wiki/Shaqlawa"
            }
        },
        {
            "type": "Feature",
            "geometry": {
                "type": "Point",
                "coordinates": [
                    47.936944444,
                    30.028055555
                ]
            },
            "properties": {
                "name": "Battle of Umm Qasr",
                "article": "https://en.wikipedia.org/wiki/Battle_of_Umm_Qasr"
            }
        },
        {
            "type": "Feature",
            "geometry": {
                "type": "Point",
                "coordinates": [
                    46.043333333,
                    32.174166666
                ]
            },
            "properties": {
                "name": "Al-Hay",
                "article": "https://en.wikipedia.org/wiki/Al-Hay"
            }
        },
        {
            "type": "Feature",
            "geometry": {
                "type": "Point",
                "coordinates": [
                    44.936944444,
                    33.978611111
                ]
            },
            "properties": {
                "name": "Muqdadiyah",
                "article": "https://en.wikipedia.org/wiki/Miqdadiyah"
            }
        },
        {
            "type": "Feature",
            "geometry": {
                "type": "Point",
                "coordinates": [
                    41.908333333,
                    34.479166666
                ]
            },
            "properties": {
                "name": "Rawa",
                "article": "https://en.wikipedia.org/wiki/Rawa,_Iraq"
            }
        },
        {
            "type": "Feature",
            "geometry": {
                "type": "Point",
                "coordinates": [
                    42.825,
                    33.641666666
                ]
            },
            "properties": {
                "name": "Hīt",
                "article": "https://en.wikipedia.org/wiki/Hit,_Iraq"
            }
        },
        {
            "type": "Feature",
            "geometry": {
                "type": "Point",
                "coordinates": [
                    43.470725,
                    32.296272222
                ]
            },
            "properties": {
                "name": "Lake Habbaniyah",
                "article": "https://en.wikipedia.org/wiki/Lake_Habbaniyah"
            }
        },
        {
            "type": "Feature",
            "geometry": {
                "type": "Point",
                "coordinates": [
                    42.695,
                    37.136111
                ]
            },
            "properties": {
                "name": "Delal Bridge",
                "article": "https://en.wikipedia.org/wiki/Delal_Bridge"
            }
        },
        {
            "type": "Feature",
            "geometry": {
                "type": "Point",
                "coordinates": [
                    47.8,
                    30.5
                ]
            },
            "properties": {
                "name": "Battle of Basra",
                "article": "https://en.wikipedia.org/wiki/Battle_of_Basra_(2003)"
            }
        },
        {
            "type": "Feature",
            "geometry": {
                "type": "Point",
                "coordinates": [
                    45.128611111,
                    36.181111111
                ]
            },
            "properties": {
                "name": "Qaladiza",
                "article": "https://en.wikipedia.org/wiki/Qaladiza"
            }
        },
        {
            "type": "Feature",
            "geometry": {
                "type": "Point",
                "coordinates": [
                    41.981944444,
                    34.368611111
                ]
            },
            "properties": {
                "name": "Anah",
                "article": "https://en.wikipedia.org/wiki/Anah"
            }
        },
        {
            "type": "Feature",
            "geometry": {
                "type": "Point",
                "coordinates": [
                    41.864167,
                    36.3225
                ]
            },
            "properties": {
                "name": "Battle of Singara",
                "article": "https://en.wikipedia.org/wiki/Battle_of_Singara_(344)"
            }
        },
        {
            "type": "Feature",
            "geometry": {
                "type": "Point",
                "coordinates": [
                    47.5,
                    30.766666666
                ]
            },
            "properties": {
                "name": "Lake Hammar",
                "article": "https://en.wikipedia.org/wiki/Lake_Hammar"
            }
        },
        {
            "type": "Feature",
            "geometry": {
                "type": "Point",
                "coordinates": [
                    43.1,
                    36.166667
                ]
            },
            "properties": {
                "name": "Hassuna",
                "article": "https://en.wikipedia.org/wiki/Tell_Hassuna"
            }
        },
        {
            "type": "Feature",
            "geometry": {
                "type": "Point",
                "coordinates": [
                    43.716666666,
                    33.375
                ]
            },
            "properties": {
                "name": "Anbar",
                "article": "https://en.wikipedia.org/wiki/Anbar_(town)"
            }
        },
        {
            "type": "Feature",
            "geometry": {
                "type": "Point",
                "coordinates": [
                    47.8,
                    30.5
                ]
            },
            "properties": {
                "name": "Battle of Basra",
                "article": "https://en.wikipedia.org/wiki/Battle_of_Basra_(2008)"
            }
        },
        {
            "type": "Feature",
            "geometry": {
                "type": "Point",
                "coordinates": [
                    44.034166666,
                    32.616111111
                ]
            },
            "properties": {
                "name": "Battle of the Karbala Gap",
                "article": "https://en.wikipedia.org/wiki/Battle_of_the_Karbala_Gap_(2003)"
            }
        },
        {
            "type": "Feature",
            "geometry": {
                "type": "Point",
                "coordinates": [
                    44.31444444,
                    31.99583333
                ]
            },
            "properties": {
                "name": "Battle of Najaf",
                "article": "https://en.wikipedia.org/wiki/Battle_of_Najaf_(2004)"
            }
        },
        {
            "type": "Feature",
            "geometry": {
                "type": "Point",
                "coordinates": [
                    43.3,
                    33.416666666
                ]
            },
            "properties": {
                "name": "Battle of Ramadi",
                "article": "https://en.wikipedia.org/wiki/Battle_of_Ramadi_(2006)"
            }
        },
        {
            "type": "Feature",
            "geometry": {
                "type": "Point",
                "coordinates": [
                    41.6,
                    34.433333
                ]
            },
            "properties": {
                "name": "Haradum",
                "article": "https://en.wikipedia.org/wiki/Haradum"
            }
        },
        {
            "type": "Feature",
            "geometry": {
                "type": "Point",
                "coordinates": [
                    44.5843,
                    33.3031
                ]
            },
            "properties": {
                "name": "Tell Ishchali",
                "article": "https://en.wikipedia.org/wiki/Tell_Ishchali"
            }
        },
        {
            "type": "Feature",
            "geometry": {
                "type": "Point",
                "coordinates": [
                    45.289011554,
                    32.058151512
                ]
            },
            "properties": {
                "name": "Puzrish-Dagan",
                "article": "https://en.wikipedia.org/wiki/Puzrish-Dagan"
            }
        },
        {
            "type": "Feature",
            "geometry": {
                "type": "Point",
                "coordinates": [
                    45.006846,
                    35.809928
                ]
            },
            "properties": {
                "name": "Qizkapan",
                "article": "https://en.wikipedia.org/wiki/Qyzqapan"
            }
        },
        {
            "type": "Feature",
            "geometry": {
                "type": "Point",
                "coordinates": [
                    44.7,
                    33.181389
                ]
            },
            "properties": {
                "name": "Battle of Opis",
                "article": "https://en.wikipedia.org/wiki/Battle_of_Opis"
            }
        },
        {
            "type": "Feature",
            "geometry": {
                "type": "Point",
                "coordinates": [
                    44.46666667,
                    33.36666667
                ]
            },
            "properties": {
                "name": "Shaduppum",
                "article": "https://en.wikipedia.org/wiki/Shaduppum"
            }
        },
        {
            "type": "Feature",
            "geometry": {
                "type": "Point",
                "coordinates": [
                    43.3478443,
                    36.4333484
                ]
            },
            "properties": {
                "name": "Shibaniba",
                "article": "https://en.wikipedia.org/wiki/Shibaniba"
            }
        },
        {
            "type": "Feature",
            "geometry": {
                "type": "Point",
                "coordinates": [
                    43.55,
                    36.3
                ]
            },
            "properties": {
                "name": "M'lefaat",
                "article": "https://en.wikipedia.org/wiki/M%27lefaat"
            }
        },
        {
            "type": "Feature",
            "geometry": {
                "type": "Point",
                "coordinates": [
                    44.380278,
                    33.323611
                ]
            },
            "properties": {
                "name": "Baghdad railway station",
                "article": "https://en.wikipedia.org/wiki/Baghdad_Central_Station"
            }
        },
        {
            "type": "Feature",
            "geometry": {
                "type": "Point",
                "coordinates": [
                    37.983398,
                    36.765445
                ]
            },
            "properties": {
                "name": "Anthemusias",
                "article": "https://en.wikipedia.org/wiki/Anthemusias"
            }
        },
        {
            "type": "Feature",
            "geometry": {
                "type": "Point",
                "coordinates": [
                    46.54333333,
                    29.16888889
                ]
            },
            "properties": {
                "name": "Battle of Wadi Al-Batin",
                "article": "https://en.wikipedia.org/wiki/Battle_of_Wadi_al-Batin"
            }
        },
        {
            "type": "Feature",
            "geometry": {
                "type": "Point",
                "coordinates": [
                    46.10861111,
                    30.11277778
                ]
            },
            "properties": {
                "name": "Battle of Al Busayyah",
                "article": "https://en.wikipedia.org/wiki/Battle_of_Al_Busayyah"
            }
        },
        {
            "type": "Feature",
            "geometry": {
                "type": "Point",
                "coordinates": [
                    45.036438,
                    33.088406
                ]
            },
            "properties": {
                "name": "Birtha",
                "article": "https://en.wikipedia.org/wiki/Birtha_(Mesopotamia)"
            }
        },
        {
            "type": "Feature",
            "geometry": {
                "type": "Point",
                "coordinates": [
                    43.013249,
                    37.174372
                ]
            },
            "properties": {
                "name": "Batifa",
                "article": "https://en.wikipedia.org/wiki/Batifa"
            }
        },
        {
            "type": "Feature",
            "geometry": {
                "type": "Point",
                "coordinates": [
                    44.887389,
                    36.635781
                ]
            },
            "properties": {
                "name": "Choman",
                "article": "https://en.wikipedia.org/wiki/Choman,_Iraq"
            }
        },
        {
            "type": "Feature",
            "geometry": {
                "type": "Point",
                "coordinates": [
                    45.63652,
                    31.32438
                ]
            },
            "properties": {
                "name": "Hajji Muhammad",
                "article": "https://en.wikipedia.org/wiki/Hadji_Muhammed"
            }
        },
        {
            "type": "Feature",
            "geometry": {
                "type": "Point",
                "coordinates": [
                    43.1167,
                    36.3833
                ]
            },
            "properties": {
                "name": "Tarbisu",
                "article": "https://en.wikipedia.org/wiki/Tarbisu"
            }
        },
        {
            "type": "Feature",
            "geometry": {
                "type": "Point",
                "coordinates": [
                    45.44999,
                    33.88333
                ]
            },
            "properties": {
                "name": "Choga Mami",
                "article": "https://en.wikipedia.org/wiki/Choga_Mami"
            }
        },
        {
            "type": "Feature",
            "geometry": {
                "type": "Point",
                "coordinates": [
                    47.105833333,
                    31.241388888
                ]
            },
            "properties": {
                "name": "Umm al Binni lake",
                "article": "https://en.wikipedia.org/wiki/Umm_al_Binni_lake"
            }
        },
        {
            "type": "Feature",
            "geometry": {
                "type": "Point",
                "coordinates": [
                    44.523,
                    36.5818
                ]
            },
            "properties": {
                "name": "Mount Korek",
                "article": "https://en.wikipedia.org/wiki/Mount_Korek"
            }
        },
        {
            "type": "Feature",
            "geometry": {
                "type": "Point",
                "coordinates": [
                    43.533333333,
                    33.383333333
                ]
            },
            "properties": {
                "name": "Al-Khalidiya",
                "article": "https://en.wikipedia.org/wiki/Al-Khalidiya,_Iraq"
            }
        },
        {
            "type": "Feature",
            "geometry": {
                "type": "Point",
                "coordinates": [
                    43.58722222,
                    36.50338889
                ]
            },
            "properties": {
                "name": "Bardarash",
                "article": "https://en.wikipedia.org/wiki/Bardarash"
            }
        },
        {
            "type": "Feature",
            "geometry": {
                "type": "Point",
                "coordinates": [
                    44.351611111,
                    36.551666666
                ]
            },
            "properties": {
                "name": "Harir",
                "article": "https://en.wikipedia.org/wiki/Harir,_Iraq"
            }
        },
        {
            "type": "Feature",
            "geometry": {
                "type": "Point",
                "coordinates": [
                    43.33333333,
                    37.03333333
                ]
            },
            "properties": {
                "name": "Sarsing",
                "article": "https://en.wikipedia.org/wiki/Sarsing"
            }
        },
        {
            "type": "Feature",
            "geometry": {
                "type": "Point",
                "coordinates": [
                    46.447777777,
                    30.896944444
                ]
            },
            "properties": {
                "name": "Souq al-Shuyukh",
                "article": null
            }
        },
        {
            "type": "Feature",
            "geometry": {
                "type": "Point",
                "coordinates": [
                    44.489166666,
                    31.804166666
                ]
            },
            "properties": {
                "name": "Al-Meshkhab",
                "article": "https://en.wikipedia.org/wiki/Al-Meshkhab"
            }
        },
        {
            "type": "Feature",
            "geometry": {
                "type": "Point",
                "coordinates": [
                    45.1,
                    32.561388888
                ]
            },
            "properties": {
                "name": "Malgium",
                "article": "https://en.wikipedia.org/wiki/Malgium"
            }
        },
        {
            "type": "Feature",
            "geometry": {
                "type": "Point",
                "coordinates": [
                    43.57527778,
                    32.4975
                ]
            },
            "properties": {
                "name": "Al-Aqiser",
                "article": "https://en.wikipedia.org/wiki/Al-Aqiser"
            }
        },
        {
            "type": "Feature",
            "geometry": {
                "type": "Point",
                "coordinates": [
                    44.200555555,
                    36.381388888
                ]
            },
            "properties": {
                "name": "Salah al-Din",
                "article": null
            }
        },
        {
            "type": "Feature",
            "geometry": {
                "type": "Point",
                "coordinates": [
                    46.241666666,
                    31.298611111
                ]
            },
            "properties": {
                "name": "Al Gharraf",
                "article": null
            }
        },
        {
            "type": "Feature",
            "geometry": {
                "type": "Point",
                "coordinates": [
                    44.45,
                    31.8833
                ]
            },
            "properties": {
                "name": "Sura",
                "article": "https://en.wikipedia.org/wiki/Sura_(city)"
            }
        },
        {
            "type": "Feature",
            "geometry": {
                "type": "Point",
                "coordinates": [
                    43.259444444,
                    36.158055555
                ]
            },
            "properties": {
                "name": "Hamam al-Alil",
                "article": "https://en.wikipedia.org/wiki/Hamam_al-Alil"
            }
        },
        {
            "type": "Feature",
            "geometry": {
                "type": "Point",
                "coordinates": [
                    44.933055555,
                    32.1375
                ]
            },
            "properties": {
                "name": "Ad Daghgharah",
                "article": null
            }
        },
        {
            "type": "Feature",
            "geometry": {
                "type": "Point",
                "coordinates": [
                    44.656944444,
                    32.374444444
                ]
            },
            "properties": {
                "name": "Al Hashimiyah",
                "article": "https://en.wikipedia.org/wiki/Al_Hashimiyah,_Iraq"
            }
        },
        {
            "type": "Feature",
            "geometry": {
                "type": "Point",
                "coordinates": [
                    45.203611111,
                    31.528333333
                ]
            },
            "properties": {
                "name": "Al-Rumaitha",
                "article": "https://en.wikipedia.org/wiki/Al-Rumaitha"
            }
        },
        {
            "type": "Feature",
            "geometry": {
                "type": "Point",
                "coordinates": [
                    45.203888888,
                    31.528333333
                ]
            },
            "properties": {
                "name": "Al-Rumaitha",
                "article": "https://en.wikipedia.org/wiki/Al-Rumaitha"
            }
        },
        {
            "type": "Feature",
            "geometry": {
                "type": "Point",
                "coordinates": [
                    44.539166666,
                    30.504444444
                ]
            },
            "properties": {
                "name": "Al Salman",
                "article": null
            }
        },
        {
            "type": "Feature",
            "geometry": {
                "type": "Point",
                "coordinates": [
                    44.646666666,
                    31.583611111
                ]
            },
            "properties": {
                "name": "Ash-Shinafiyah",
                "article": null
            }
        },
        {
            "type": "Feature",
            "geometry": {
                "type": "Point",
                "coordinates": [
                    44.646666666,
                    31.583888888
                ]
            },
            "properties": {
                "name": "Ash-Shinafiyah",
                "article": null
            }
        },
        {
            "type": "Feature",
            "geometry": {
                "type": "Point",
                "coordinates": [
                    44.23333333,
                    33.83333333
                ]
            },
            "properties": {
                "name": "Al-Faris",
                "article": "https://en.wikipedia.org/wiki/Al-Faris"
            }
        },
        {
            "type": "Feature",
            "geometry": {
                "type": "Point",
                "coordinates": [
                    43.908888888,
                    33.399722222
                ]
            },
            "properties": {
                "name": "Al-Karmah",
                "article": "https://en.wikipedia.org/wiki/Al-Karmah"
            }
        },
        {
            "type": "Feature",
            "geometry": {
                "type": "Point",
                "coordinates": [
                    47.784669,
                    30.559923
                ]
            },
            "properties": {
                "name": "Al Maqal Railway Station",
                "article": "https://en.wikipedia.org/wiki/Al_Maqal_railway_station"
            }
        },
        {
            "type": "Feature",
            "geometry": {
                "type": "Point",
                "coordinates": [
                    44.866666666,
                    35.55
                ]
            },
            "properties": {
                "name": "Barda Balka",
                "article": "https://en.wikipedia.org/wiki/Barda_Balka"
            }
        },
        {
            "type": "Feature",
            "geometry": {
                "type": "Point",
                "coordinates": [
                    46.60222222,
                    30.54694444
                ]
            },
            "properties": {
                "name": "Battle for Jalibah Airfield",
                "article": "https://en.wikipedia.org/wiki/Battle_for_Jalibah_Airfield"
            }
        },
        {
            "type": "Feature",
            "geometry": {
                "type": "Point",
                "coordinates": [
                    43.11888889,
                    36.335
                ]
            },
            "properties": {
                "name": "Battle of Mosul",
                "article": "https://en.wikipedia.org/wiki/Battle_of_Mosul_(2004)"
            }
        },
        {
            "type": "Feature",
            "geometry": {
                "type": "Point",
                "coordinates": [
                    43.783333333,
                    33.35
                ]
            },
            "properties": {
                "name": "Battle of Ramadi",
                "article": "https://en.wikipedia.org/wiki/Battle_of_Ramadi_(2004)"
            }
        },
        {
            "type": "Feature",
            "geometry": {
                "type": "Point",
                "coordinates": [
                    47.32166667,
                    30.69805556
                ]
            },
            "properties": {
                "name": "Battle of Rumaila",
                "article": "https://en.wikipedia.org/wiki/Battle_of_Rumaila"
            }
        },
        {
            "type": "Feature",
            "geometry": {
                "type": "Point",
                "coordinates": [
                    45.283333333,
                    31.316666666
                ]
            },
            "properties": {
                "name": "Battle of Samawah",
                "article": "https://en.wikipedia.org/wiki/Battle_of_Samawah"
            }
        },
        {
            "type": "Feature",
            "geometry": {
                "type": "Point",
                "coordinates": [
                    44.3887,
                    36.7343
                ]
            },
            "properties": {
                "name": "Bradost",
                "article": "https://en.wikipedia.org/wiki/Bradost_(mountain)"
            }
        },
        {
            "type": "Feature",
            "geometry": {
                "type": "Point",
                "coordinates": [
                    44.422,
                    33.325
                ]
            },
            "properties": {
                "name": "Capture of Baghdad",
                "article": "https://en.wikipedia.org/wiki/Capture_of_Baghdad_(1624)"
            }
        },
        {
            "type": "Feature",
            "geometry": {
                "type": "Point",
                "coordinates": [
                    42.83555556,
                    37.30611111
                ]
            },
            "properties": {
                "name": "Gir-ē Kumar",
                "article": "https://en.wikipedia.org/wiki/Gir-e_Kumar"
            }
        },
        {
            "type": "Feature",
            "geometry": {
                "type": "Point",
                "coordinates": [
                    43.7739944,
                    35.323249
                ]
            },
            "properties": {
                "name": "Hawija",
                "article": "https://en.wikipedia.org/wiki/Hawija"
            }
        },
        {
            "type": "Feature",
            "geometry": {
                "type": "Point",
                "coordinates": [
                    45.277222,
                    35.482222
                ]
            },
            "properties": {
                "name": "Hazar Merd Cave",
                "article": "https://en.wikipedia.org/wiki/Hazar_Merd_Cave"
            }
        },
        {
            "type": "Feature",
            "geometry": {
                "type": "Point",
                "coordinates": [
                    46.119916666,
                    35.22975
                ]
            },
            "properties": {
                "name": "Byara",
                "article": "https://en.wikipedia.org/wiki/Byara"
            }
        },
        {
            "type": "Feature",
            "geometry": {
                "type": "Point",
                "coordinates": [
                    43.808587,
                    34.241254
                ]
            },
            "properties": {
                "name": "Qasr al-'Ashiq",
                "article": "https://en.wikipedia.org/wiki/Qasr_al-%27Ashiq"
            }
        },
        {
            "type": "Feature",
            "geometry": {
                "type": "Point",
                "coordinates": [
                    44.032303,
                    32.616367
                ]
            },
            "properties": {
                "name": "Q5942573",
                "article": null
            }
        },
        {
            "type": "Feature",
            "geometry": {
                "type": "Point",
                "coordinates": [
                    45.180722222,
                    35.285138888
                ]
            },
            "properties": {
                "name": "Sangaw",
                "article": null
            }
        },
        {
            "type": "Feature",
            "geometry": {
                "type": "Point",
                "coordinates": [
                    44.63585,
                    36.56289
                ]
            },
            "properties": {
                "name": "Q5989292",
                "article": null
            }
        },
        {
            "type": "Feature",
            "geometry": {
                "type": "Point",
                "coordinates": [
                    45.680111111,
                    35.304444444
                ]
            },
            "properties": {
                "name": "Q5990071",
                "article": null
            }
        },
        {
            "type": "Feature",
            "geometry": {
                "type": "Point",
                "coordinates": [
                    46.18111111,
                    35.19138889
                ]
            },
            "properties": {
                "name": "Tawella",
                "article": "https://en.wikipedia.org/wiki/Tawella"
            }
        },
        {
            "type": "Feature",
            "geometry": {
                "type": "Point",
                "coordinates": [
                    43.9,
                    34.1167
                ]
            },
            "properties": {
                "name": "Tell es-Sawwan",
                "article": "https://en.wikipedia.org/wiki/Tell_es-Sawwan"
            }
        },
        {
            "type": "Feature",
            "geometry": {
                "type": "Point",
                "coordinates": [
                    42.5333,
                    36.5667
                ]
            },
            "properties": {
                "name": "Telul eth-Thalathat",
                "article": "https://en.wikipedia.org/wiki/Telul_eth-Thalathat"
            }
        },
        {
            "type": "Feature",
            "geometry": {
                "type": "Point",
                "coordinates": [
                    44.033333,
                    32.6
                ]
            },
            "properties": {
                "name": "Battle of the City Hall",
                "article": "https://en.wikipedia.org/wiki/Defense_of_the_Karbala_City_Hall"
            }
        },
        {
            "type": "Feature",
            "geometry": {
                "type": "Point",
                "coordinates": [
                    43.651111111,
                    37.055
                ]
            },
            "properties": {
                "name": "Deraluk",
                "article": "https://en.wikipedia.org/wiki/Deraluk"
            }
        },
        {
            "type": "Feature",
            "geometry": {
                "type": "Point",
                "coordinates": [
                    44.58556462,
                    35.88886127
                ]
            },
            "properties": {
                "name": "Taqtaq",
                "article": null
            }
        },
        {
            "type": "Feature",
            "geometry": {
                "type": "Point",
                "coordinates": [
                    44.966666666,
                    35.55
                ]
            },
            "properties": {
                "name": "Karim Shahir",
                "article": null
            }
        },
        {
            "type": "Feature",
            "geometry": {
                "type": "Point",
                "coordinates": [
                    43.601068,
                    33.351778
                ]
            },
            "properties": {
                "name": "Q11904567",
                "article": null
            }
        },
        {
            "type": "Feature",
            "geometry": {
                "type": "Point",
                "coordinates": [
                    42.7215,
                    36.958778055
                ]
            },
            "properties": {
                "name": "Mardaman",
                "article": "https://en.wikipedia.org/wiki/Mardaman"
            }
        },
        {
            "type": "Feature",
            "geometry": {
                "type": "Point",
                "coordinates": [
                    42.7215,
                    36.958778055
                ]
            },
            "properties": {
                "name": "Mardaman",
                "article": "https://en.wikipedia.org/wiki/Mardaman"
            }
        },
        {
            "type": "Feature",
            "geometry": {
                "type": "Point",
                "coordinates": [
                    44.420739385,
                    33.305228343
                ]
            },
            "properties": {
                "name": "Abu Nuwas Street",
                "article": null
            }
        },
        {
            "type": "Feature",
            "geometry": {
                "type": "Point",
                "coordinates": [
                    42.300711892,
                    35.504929235
                ]
            },
            "properties": {
                "name": "Umm Dabaghiyah",
                "article": null
            }
        },
        {
            "type": "Feature",
            "geometry": {
                "type": "Point",
                "coordinates": [
                    45.87747295,
                    31.11887202
                ]
            },
            "properties": {
                "name": "Al Batha",
                "article": null
            }
        },
        {
            "type": "Feature",
            "geometry": {
                "type": "Point",
                "coordinates": [
                    44.711029,
                    34.724119
                ]
            },
            "properties": {
                "name": "Q12186515",
                "article": null
            }
        },
        {
            "type": "Feature",
            "geometry": {
                "type": "Point",
                "coordinates": [
                    45.17727,
                    32.75884
                ]
            },
            "properties": {
                "name": "Az Zubaydiyah",
                "article": null
            }
        },
        {
            "type": "Feature",
            "geometry": {
                "type": "Point",
                "coordinates": [
                    44.9210478,
                    32.3259384
                ]
            },
            "properties": {
                "name": "Q12189155",
                "article": null
            }
        },
        {
            "type": "Feature",
            "geometry": {
                "type": "Point",
                "coordinates": [
                    45.12077778,
                    34.19055556
                ]
            },
            "properties": {
                "name": "Al-Sadiyah",
                "article": "https://en.wikipedia.org/wiki/Sadiyah"
            }
        },
        {
            "type": "Feature",
            "geometry": {
                "type": "Point",
                "coordinates": [
                    43.435142,
                    36.982407
                ]
            },
            "properties": {
                "name": "Qopī Qara Dāgh",
                "article": null
            }
        },
        {
            "type": "Feature",
            "geometry": {
                "type": "Point",
                "coordinates": [
                    48.129444444,
                    30.4325
                ]
            },
            "properties": {
                "name": "Q12205387",
                "article": null
            }
        },
        {
            "type": "Feature",
            "geometry": {
                "type": "Point",
                "coordinates": [
                    44.978859,
                    36.68058195
                ]
            },
            "properties": {
                "name": "Raiat",
                "article": null
            }
        },
        {
            "type": "Feature",
            "geometry": {
                "type": "Point",
                "coordinates": [
                    42.63824483,
                    36.770408
                ]
            },
            "properties": {
                "name": "Zummar",
                "article": "https://en.wikipedia.org/wiki/Zummar"
            }
        },
        {
            "type": "Feature",
            "geometry": {
                "type": "Point",
                "coordinates": [
                    44.66671,
                    34.79428
                ]
            },
            "properties": {
                "name": "Sulaiman Bek",
                "article": "https://en.wikipedia.org/wiki/Sulaiman_Bek"
            }
        },
        {
            "type": "Feature",
            "geometry": {
                "type": "Point",
                "coordinates": [
                    44.373115,
                    33.393844
                ]
            },
            "properties": {
                "name": "al-Sitmiyah Street",
                "article": null
            }
        },
        {
            "type": "Feature",
            "geometry": {
                "type": "Point",
                "coordinates": [
                    44.365243,
                    33.376645
                ]
            },
            "properties": {
                "name": "Omar Bin Abdul Aziz Street",
                "article": null
            }
        },
        {
            "type": "Feature",
            "geometry": {
                "type": "Point",
                "coordinates": [
                    43.487756,
                    32.568111
                ]
            },
            "properties": {
                "name": "Ayn al-Tamr",
                "article": "https://en.wikipedia.org/wiki/Ayn_al-Tamr"
            }
        },
        {
            "type": "Feature",
            "geometry": {
                "type": "Point",
                "coordinates": [
                    45.38333333,
                    35.3
                ]
            },
            "properties": {
                "name": "Qaradagh",
                "article": null
            }
        },
        {
            "type": "Feature",
            "geometry": {
                "type": "Point",
                "coordinates": [
                    44.395931867,
                    33.336083739
                ]
            },
            "properties": {
                "name": "Q12234973",
                "article": null
            }
        },
        {
            "type": "Feature",
            "geometry": {
                "type": "Point",
                "coordinates": [
                    47.268684,
                    30.953313
                ]
            },
            "properties": {
                "name": "Al-Midaina",
                "article": "https://en.wikipedia.org/wiki/Al-Midaina"
            }
        },
        {
            "type": "Feature",
            "geometry": {
                "type": "Point",
                "coordinates": [
                    46.036944444,
                    35.299166666
                ]
            },
            "properties": {
                "name": "Q14653839",
                "article": null
            }
        },
        {
            "type": "Feature",
            "geometry": {
                "type": "Point",
                "coordinates": [
                    47.15,
                    31.83333333
                ]
            },
            "properties": {
                "name": "Battle of Amarah",
                "article": "https://en.wikipedia.org/wiki/Battle_of_Amarah"
            }
        },
        {
            "type": "Feature",
            "geometry": {
                "type": "Point",
                "coordinates": [
                    42.83333333,
                    36.51666667
                ]
            },
            "properties": {
                "name": "Qermez Dere",
                "article": "https://en.wikipedia.org/wiki/Qermez_Dere"
            }
        },
        {
            "type": "Feature",
            "geometry": {
                "type": "Point",
                "coordinates": [
                    43.909633333,
                    35.95185
                ]
            },
            "properties": {
                "name": "Tell Baqrta",
                "article": null
            }
        },
        {
            "type": "Feature",
            "geometry": {
                "type": "Point",
                "coordinates": [
                    43.39361111,
                    36.66972222
                ]
            },
            "properties": {
                "name": "Jerwan",
                "article": "https://en.wikipedia.org/wiki/Jerwan"
            }
        },
        {
            "type": "Feature",
            "geometry": {
                "type": "Point",
                "coordinates": [
                    42.44,
                    36.38
                ]
            },
            "properties": {
                "name": "Tell Maghzaliyah",
                "article": "https://en.wikipedia.org/wiki/Tell_Maghzaliyah"
            }
        },
        {
            "type": "Feature",
            "geometry": {
                "type": "Point",
                "coordinates": [
                    43.683333333,
                    34.6025
                ]
            },
            "properties": {
                "name": "First Battle of Tikrit",
                "article": "https://en.wikipedia.org/wiki/First_Battle_of_Tikrit"
            }
        },
        {
            "type": "Feature",
            "geometry": {
                "type": "Point",
                "coordinates": [
                    42.603055555,
                    36.657472222
                ]
            },
            "properties": {
                "name": "Battle of Zumar",
                "article": "https://en.wikipedia.org/wiki/Battle_of_Zumar"
            }
        },
        {
            "type": "Feature",
            "geometry": {
                "type": "Point",
                "coordinates": [
                    42.823055555,
                    36.630277777
                ]
            },
            "properties": {
                "name": "Battle for Mosul Dam",
                "article": "https://en.wikipedia.org/wiki/Battle_for_Mosul_Dam"
            }
        },
        {
            "type": "Feature",
            "geometry": {
                "type": "Point",
                "coordinates": [
                    43.483333333,
                    34.933333333
                ]
            },
            "properties": {
                "name": "Battle of Baiji",
                "article": "https://en.wikipedia.org/wiki/Battle_of_Baiji_(2014%E2%80%932015)"
            }
        },
        {
            "type": "Feature",
            "geometry": {
                "type": "Point",
                "coordinates": [
                    43.683333333,
                    33.396388888
                ]
            },
            "properties": {
                "name": "Siege of Saqlawiyah",
                "article": "https://en.wikipedia.org/wiki/Siege_of_Saqlawiyah"
            }
        },
        {
            "type": "Feature",
            "geometry": {
                "type": "Point",
                "coordinates": [
                    45.0,
                    34.7
                ]
            },
            "properties": {
                "name": "Mahattat Qitar Qarah Tabbah",
                "article": "https://en.wikipedia.org/wiki/Mahattat_Qitar_Qarah_Tabbah"
            }
        },
        {
            "type": "Feature",
            "geometry": {
                "type": "Point",
                "coordinates": [
                    42.5381,
                    36.36
                ]
            },
            "properties": {
                "name": "Jabal Zambar",
                "article": "https://en.wikipedia.org/wiki/Jabal_Zambar"
            }
        },
        {
            "type": "Feature",
            "geometry": {
                "type": "Point",
                "coordinates": [
                    42.560277777,
                    36.346388888
                ]
            },
            "properties": {
                "name": "Jabal Zambar",
                "article": "https://en.wikipedia.org/wiki/Jabal_Zambar"
            }
        },
        {
            "type": "Feature",
            "geometry": {
                "type": "Point",
                "coordinates": [
                    44.194444444,
                    32.874444444
                ]
            },
            "properties": {
                "name": "Operation Ashura",
                "article": "https://en.wikipedia.org/wiki/Liberation_of_Jurf_Al_Sakhar"
            }
        },
        {
            "type": "Feature",
            "geometry": {
                "type": "Point",
                "coordinates": [
                    43.3,
                    33.416666666
                ]
            },
            "properties": {
                "name": "Battle of Ramadi",
                "article": "https://en.wikipedia.org/wiki/Battle_of_Ramadi_(2014%E2%80%932015)"
            }
        },
        {
            "type": "Feature",
            "geometry": {
                "type": "Point",
                "coordinates": [
                    42.45428,
                    36.374552
                ]
            },
            "properties": {
                "name": "Tal Afar Citadel",
                "article": "https://en.wikipedia.org/wiki/Tal_Afar_Citadel"
            }
        },
        {
            "type": "Feature",
            "geometry": {
                "type": "Point",
                "coordinates": [
                    43.1222,
                    36.3314
                ]
            },
            "properties": {
                "name": "Mosul railway station",
                "article": null
            }
        },
        {
            "type": "Feature",
            "geometry": {
                "type": "Point",
                "coordinates": [
                    44.34972222,
                    33.99555556
                ]
            },
            "properties": {
                "name": "Yathrib",
                "article": "https://en.wikipedia.org/wiki/Yathrib,_Iraq"
            }
        },
        {
            "type": "Feature",
            "geometry": {
                "type": "Point",
                "coordinates": [
                    43.801944444,
                    34.361666666
                ]
            },
            "properties": {
                "name": "Abbasid Samarra",
                "article": "https://en.wikipedia.org/wiki/Abbasid_Samarra"
            }
        },
        {
            "type": "Feature",
            "geometry": {
                "type": "Point",
                "coordinates": [
                    44.8625,
                    36.73416667
                ]
            },
            "properties": {
                "name": "Halgurd",
                "article": "https://en.wikipedia.org/wiki/Halgurd"
            }
        },
        {
            "type": "Feature",
            "geometry": {
                "type": "Point",
                "coordinates": [
                    44.455777,
                    35.136979
                ]
            },
            "properties": {
                "name": "Q21084378",
                "article": null
            }
        },
        {
            "type": "Feature",
            "geometry": {
                "type": "Point",
                "coordinates": [
                    45.545277777,
                    35.698055555
                ]
            },
            "properties": {
                "name": "Qalachwalan",
                "article": null
            }
        },
        {
            "type": "Feature",
            "geometry": {
                "type": "Point",
                "coordinates": [
                    45.949819444,
                    35.7225
                ]
            },
            "properties": {
                "name": "Q21643598",
                "article": null
            }
        },
        {
            "type": "Feature",
            "geometry": {
                "type": "Point",
                "coordinates": [
                    45.8579,
                    35.5747
                ]
            },
            "properties": {
                "name": "Q21643727",
                "article": null
            }
        },
        {
            "type": "Feature",
            "geometry": {
                "type": "Point",
                "coordinates": [
                    45.515277777,
                    35.637222222
                ]
            },
            "properties": {
                "name": "Sitak",
                "article": null
            }
        },
        {
            "type": "Feature",
            "geometry": {
                "type": "Point",
                "coordinates": [
                    43.3,
                    33.416666666
                ]
            },
            "properties": {
                "name": "Battle of Ramadi",
                "article": "https://en.wikipedia.org/wiki/Battle_of_Ramadi_(2015%E2%80%932016)"
            }
        },
        {
            "type": "Feature",
            "geometry": {
                "type": "Point",
                "coordinates": [
                    43.766666666,
                    33.366666666
                ]
            },
            "properties": {
                "name": "Battle of Fallujah",
                "article": "https://en.wikipedia.org/wiki/Third_Battle_of_Fallujah"
            }
        },
        {
            "type": "Feature",
            "geometry": {
                "type": "Point",
                "coordinates": [
                    43.1,
                    37.03333333
                ]
            },
            "properties": {
                "name": "Merki",
                "article": "https://en.wikipedia.org/wiki/Merki,_Iraq"
            }
        },
        {
            "type": "Feature",
            "geometry": {
                "type": "Point",
                "coordinates": [
                    43.1675,
                    37.231111
                ]
            },
            "properties": {
                "name": "Jelek",
                "article": "https://en.wikipedia.org/wiki/Jelek,_Iraq"
            }
        },
        {
            "type": "Feature",
            "geometry": {
                "type": "Point",
                "coordinates": [
                    43.289722222,
                    35.800277777
                ]
            },
            "properties": {
                "name": "Qayyarah",
                "article": "https://en.wikipedia.org/wiki/Qayyarah"
            }
        },
        {
            "type": "Feature",
            "geometry": {
                "type": "Point",
                "coordinates": [
                    43.75245,
                    36.10561
                ]
            },