{
    "type": "FeatureCollection",
    "features": [
        {
            "type": "Feature",
            "geometry": {
                "type": "Point",
                "coordinates": [
                    -7.2561,
                    52.6477
                ]
            },
            "properties": {
                "name": "Kilkenny",
                "article": "https://en.wikipedia.org/wiki/Kilkenny"
            }
        },
        {
            "type": "Feature",
            "geometry": {
                "type": "Point",
                "coordinates": [
                    -7.2561,
                    52.6477
                ]
            },
            "properties": {
                "name": "Kilkenny",
                "article": "https://en.wikipedia.org/wiki/Kilkenny"
            }
        },
        {
            "type": "Feature",
            "geometry": {
                "type": "Point",
                "coordinates": [
                    -9.0418,
                    53.2729
                ]
            },
            "properties": {
                "name": "Galway",
                "article": "https://en.wikipedia.org/wiki/Galway"
            }
        },
        {
            "type": "Feature",
            "geometry": {
                "type": "Point",
                "coordinates": [
                    -8.6238,
                    52.6653
                ]
            },
            "properties": {
                "name": "Limerick",
                "article": "https://en.wikipedia.org/wiki/Limerick"
            }
        },
        {
            "type": "Feature",
            "geometry": {
                "type": "Point",
                "coordinates": [
                    -6.2837,
                    53.5745
                ]
            },
            "properties": {
                "name": "Naul Hills",
                "article": "https://en.wikipedia.org/wiki/Naul_Hills"
            }
        },
        {
            "type": "Feature",
            "geometry": {
                "type": "Point",
                "coordinates": [
                    -9.1400214,
                    53.0486903
                ]
            },
            "properties": {
                "name": "Poulnabrone dolmen",
                "article": "https://en.wikipedia.org/wiki/Poulnabrone_dolmen"
            }
        },
        {
            "type": "Feature",
            "geometry": {
                "type": "Point",
                "coordinates": [
                    -9.583597,
                    51.879962
                ]
            },
            "properties": {
                "name": "Kenmare",
                "article": "https://en.wikipedia.org/wiki/Kenmare"
            }
        },
        {
            "type": "Feature",
            "geometry": {
                "type": "Point",
                "coordinates": [
                    -9.5275,
                    53.058055555
                ]
            },
            "properties": {
                "name": "Inisheer",
                "article": "https://en.wikipedia.org/wiki/Inisheer"
            }
        },
        {
            "type": "Feature",
            "geometry": {
                "type": "Point",
                "coordinates": [
                    -7.119,
                    52.2583
                ]
            },
            "properties": {
                "name": "Waterford",
                "article": "https://en.wikipedia.org/wiki/Waterford"
            }
        },
        {
            "type": "Feature",
            "geometry": {
                "type": "Point",
                "coordinates": [
                    -8.4833,
                    54.2667
                ]
            },
            "properties": {
                "name": "Sligo",
                "article": "https://en.wikipedia.org/wiki/Sligo"
            }
        },
        {
            "type": "Feature",
            "geometry": {
                "type": "Point",
                "coordinates": [
                    -7.103055555,
                    53.769444444
                ]
            },
            "properties": {
                "name": "Loughcrew",
                "article": "https://en.wikipedia.org/wiki/Loughcrew"
            }
        },
        {
            "type": "Feature",
            "geometry": {
                "type": "Point",
                "coordinates": [
                    -6.400277777,
                    54.004444444
                ]
            },
            "properties": {
                "name": "Dundalk",
                "article": "https://en.wikipedia.org/wiki/Dundalk"
            }
        },
        {
            "type": "Feature",
            "geometry": {
                "type": "Point",
                "coordinates": [
                    -10.540555555,
                    51.771111111
                ]
            },
            "properties": {
                "name": "Skellig Michael",
                "article": "https://en.wikipedia.org/wiki/Skellig_Michael"
            }
        },
        {
            "type": "Feature",
            "geometry": {
                "type": "Point",
                "coordinates": [
                    -6.3525,
                    53.715
                ]
            },
            "properties": {
                "name": "Drogheda",
                "article": "https://en.wikipedia.org/wiki/Drogheda"
            }
        },
        {
            "type": "Feature",
            "geometry": {
                "type": "Point",
                "coordinates": [
                    -6.4575,
                    52.3342
                ]
            },
            "properties": {
                "name": "Wexford",
                "article": "https://en.wikipedia.org/wiki/Wexford"
            }
        },
        {
            "type": "Feature",
            "geometry": {
                "type": "Point",
                "coordinates": [
                    -6.9317,
                    52.8306
                ]
            },
            "properties": {
                "name": "Carlow",
                "article": "https://en.wikipedia.org/wiki/Carlow"
            }
        },
        {
            "type": "Feature",
            "geometry": {
                "type": "Point",
                "coordinates": [
                    -6.99,
                    52.99
                ]
            },
            "properties": {
                "name": "Athy",
                "article": "https://en.wikipedia.org/wiki/Athy"
            }
        },
        {
            "type": "Feature",
            "geometry": {
                "type": "Point",
                "coordinates": [
                    -7.45,
                    54.1
                ]
            },
            "properties": {
                "name": "Belturbet",
                "article": "https://en.wikipedia.org/wiki/Belturbet"
            }
        },
        {
            "type": "Feature",
            "geometry": {
                "type": "Point",
                "coordinates": [
                    -6.117,
                    53.2363
                ]
            },
            "properties": {
                "name": "Shankill railway station",
                "article": "https://en.wikipedia.org/wiki/Shankill_railway_station"
            }
        },
        {
            "type": "Feature",
            "geometry": {
                "type": "Point",
                "coordinates": [
                    -7.0833337,
                    53.833333
                ]
            },
            "properties": {
                "name": "Virginia",
                "article": "https://en.wikipedia.org/wiki/Virginia,_County_Cavan"
            }
        },
        {
            "type": "Feature",
            "geometry": {
                "type": "Point",
                "coordinates": [
                    -8.51916667,
                    54.25086111
                ]
            },
            "properties": {
                "name": "Carrowmore",
                "article": "https://en.wikipedia.org/wiki/Carrowmore"
            }
        },
        {
            "type": "Feature",
            "geometry": {
                "type": "Point",
                "coordinates": [
                    -8.377778,
                    54.053333
                ]
            },
            "properties": {
                "name": "Carrowkeel Megalithic Cemetery",
                "article": "https://en.wikipedia.org/wiki/Carrowkeel_Megalithic_Cemetery"
            }
        },
        {
            "type": "Feature",
            "geometry": {
                "type": "Point",
                "coordinates": [
                    -6.285918,
                    53.075436
                ]
            },
            "properties": {
                "name": "Lough Dan",
                "article": "https://en.wikipedia.org/wiki/Lough_Dan"
            }
        },
        {
            "type": "Feature",
            "geometry": {
                "type": "Point",
                "coordinates": [
                    -7.5,
                    53.2667
                ]
            },
            "properties": {
                "name": "Tullamore",
                "article": "https://en.wikipedia.org/wiki/Tullamore"
            }
        },
        {
            "type": "Feature",
            "geometry": {
                "type": "Point",
                "coordinates": [
                    -6.44932,
                    53.69284
                ]
            },
            "properties": {
                "name": "Brú na Bóinne",
                "article": "https://en.wikipedia.org/wiki/Br%C3%BA_na_B%C3%B3inne"
            }
        },
        {
            "type": "Feature",
            "geometry": {
                "type": "Point",
                "coordinates": [
                    -7.85344444,
                    53.62675
                ]
            },
            "properties": {
                "name": "Corlea Trackway",
                "article": "https://en.wikipedia.org/wiki/Corlea_Trackway"
            }
        },
        {
            "type": "Feature",
            "geometry": {
                "type": "Point",
                "coordinates": [
                    -9.54111111,
                    51.73638889
                ]
            },
            "properties": {
                "name": "Ilnacullin",
                "article": "https://en.wikipedia.org/wiki/Garnish_Island"
            }
        },
        {
            "type": "Feature",
            "geometry": {
                "type": "Point",
                "coordinates": [
                    -9.070555555,
                    53.014722222
                ]
            },
            "properties": {
                "name": "Cahercommaun",
                "article": "https://en.wikipedia.org/wiki/Cahercommaun"
            }
        },
        {
            "type": "Feature",
            "geometry": {
                "type": "Point",
                "coordinates": [
                    -9.7275,
                    53.123611111
                ]
            },
            "properties": {
                "name": "Inishmore",
                "article": "https://en.wikipedia.org/wiki/Inishmore"
            }
        },
        {
            "type": "Feature",
            "geometry": {
                "type": "Point",
                "coordinates": [
                    -7.9425,
                    53.423611111
                ]
            },
            "properties": {
                "name": "Athlone",
                "article": "https://en.wikipedia.org/wiki/Athlone"
            }
        },
        {
            "type": "Feature",
            "geometry": {
                "type": "Point",
                "coordinates": [
                    -9.60166667,
                    51.38833333
                ]
            },
            "properties": {
                "name": "Fastnet Rock",
                "article": "https://en.wikipedia.org/wiki/Fastnet_Rock"
            }
        },
        {
            "type": "Feature",
            "geometry": {
                "type": "Point",
                "coordinates": [
                    -9.537,
                    52.038
                ]
            },
            "properties": {
                "name": "Ross Island",
                "article": "https://en.wikipedia.org/wiki/Ross_Island,_Killarney"
            }
        },
        {
            "type": "Feature",
            "geometry": {
                "type": "Point",
                "coordinates": [
                    -9.1667,
                    54.1167
                ]
            },
            "properties": {
                "name": "Ballina",
                "article": "https://en.wikipedia.org/wiki/Ballina,_County_Mayo"
            }
        },
        {
            "type": "Feature",
            "geometry": {
                "type": "Point",
                "coordinates": [
                    -9.829477777,
                    52.207066666
                ]
            },
            "properties": {
                "name": "Baurtregaum",
                "article": "https://en.wikipedia.org/wiki/Baurtregaum"
            }
        },
        {
            "type": "Feature",
            "geometry": {
                "type": "Point",
                "coordinates": [
                    -9.792,
                    51.686
                ]
            },
            "properties": {
                "name": "Hungry Hill",
                "article": "https://en.wikipedia.org/wiki/Hungry_Hill"
            }
        },
        {
            "type": "Feature",
            "geometry": {
                "type": "Point",
                "coordinates": [
                    -9.553611111,
                    52.045833333
                ]
            },
            "properties": {
                "name": "Innisfallen Island",
                "article": "https://en.wikipedia.org/wiki/Innisfallen"
            }
        },
        {
            "type": "Feature",
            "geometry": {
                "type": "Point",
                "coordinates": [
                    -9.742777777,
                    51.998888888
                ]
            },
            "properties": {
                "name": "Carrauntoohil",
                "article": "https://en.wikipedia.org/wiki/Carrauntoohil"
            }
        },
        {
            "type": "Feature",
            "geometry": {
                "type": "Point",
                "coordinates": [
                    -8.90138889,
                    52.93861111
                ]
            },
            "properties": {
                "name": "Crusheen railway station",
                "article": "https://en.wikipedia.org/wiki/Crusheen_railway_station"
            }
        },
        {
            "type": "Feature",
            "geometry": {
                "type": "Point",
                "coordinates": [
                    -6.463,
                    52.966
                ]
            },
            "properties": {
                "name": "Lugnaquilla",
                "article": "https://en.wikipedia.org/wiki/Lugnaquilla"
            }
        },
        {
            "type": "Feature",
            "geometry": {
                "type": "Point",
                "coordinates": [
                    -7.062578,
                    53.138842
                ]
            },
            "properties": {
                "name": "Monasterevin",
                "article": "https://en.wikipedia.org/wiki/Monasterevin"
            }
        },
        {
            "type": "Feature",
            "geometry": {
                "type": "Point",
                "coordinates": [
                    -6.611944444,
                    53.5775
                ]
            },
            "properties": {
                "name": "Hill of Tara",
                "article": "https://en.wikipedia.org/wiki/Hill_of_Tara"
            }
        },
        {
            "type": "Feature",
            "geometry": {
                "type": "Point",
                "coordinates": [
                    -9.6992,
                    52.271
                ]
            },
            "properties": {
                "name": "Tralee Casement railway station",
                "article": "https://en.wikipedia.org/wiki/Tralee_Casement_railway_station"
            }
        },
        {
            "type": "Feature",
            "geometry": {
                "type": "Point",
                "coordinates": [
                    -8.10674,
                    53.93828
                ]
            },
            "properties": {
                "name": "Carrick-on-Shannon railway station",
                "article": "https://en.wikipedia.org/wiki/Carrick-on-Shannon_railway_station"
            }
        },
        {
            "type": "Feature",
            "geometry": {
                "type": "Point",
                "coordinates": [
                    -7.6397,
                    52.0845
                ]
            },
            "properties": {
                "name": "Dungarvan",
                "article": "https://en.wikipedia.org/wiki/Dungarvan"
            }
        },
        {
            "type": "Feature",
            "geometry": {
                "type": "Point",
                "coordinates": [
                    -8.09,
                    53.9469
                ]
            },
            "properties": {
                "name": "Carrick-on-Shannon",
                "article": "https://en.wikipedia.org/wiki/Carrick-on-Shannon"
            }
        },
        {
            "type": "Feature",
            "geometry": {
                "type": "Point",
                "coordinates": [
                    -7.942,
                    52.246
                ]
            },
            "properties": {
                "name": "Sugarloaf Hill",
                "article": "https://en.wikipedia.org/wiki/Sugarloaf_Hill_(Knockmealdowns)"
            }
        },
        {
            "type": "Feature",
            "geometry": {
                "type": "Point",
                "coordinates": [
                    -8.267222222,
                    51.865833333
                ]
            },
            "properties": {
                "name": "Great Island",
                "article": "https://en.wikipedia.org/wiki/Great_Island"
            }
        },
        {
            "type": "Feature",
            "geometry": {
                "type": "Point",
                "coordinates": [
                    -7.16,
                    53.2
                ]
            },
            "properties": {
                "name": "Croghan Hill",
                "article": "https://en.wikipedia.org/wiki/Croghan_Hill"
            }
        },
        {
            "type": "Feature",
            "geometry": {
                "type": "Point",
                "coordinates": [
                    -8.533277777,
                    52.516380555
                ]
            },
            "properties": {
                "name": "Lough Gur",
                "article": "https://en.wikipedia.org/wiki/Lough_Gur"
            }
        },
        {
            "type": "Feature",
            "geometry": {
                "type": "Point",
                "coordinates": [
                    -7.966666666,
                    53.5
                ]
            },
            "properties": {
                "name": "Lough Ree",
                "article": "https://en.wikipedia.org/wiki/Lough_Ree"
            }
        },
        {
            "type": "Feature",
            "geometry": {
                "type": "Point",
                "coordinates": [
                    -8.868628,
                    52.713731
                ]
            },
            "properties": {
                "name": "Shannon",
                "article": "https://en.wikipedia.org/wiki/Shannon,_County_Clare"
            }
        },
        {
            "type": "Feature",
            "geometry": {
                "type": "Point",
                "coordinates": [
                    -9.5072,
                    52.0588
                ]
            },
            "properties": {
                "name": "Killarney",
                "article": "https://en.wikipedia.org/wiki/Killarney"
            }
        },
        {
            "type": "Feature",
            "geometry": {
                "type": "Point",
                "coordinates": [
                    -9.6584,
                    53.7595
                ]
            },
            "properties": {
                "name": "Croagh Patrick",
                "article": "https://en.wikipedia.org/wiki/Croagh_Patrick"
            }
        },
        {
            "type": "Feature",
            "geometry": {
                "type": "Point",
                "coordinates": [
                    -6.535,
                    53.3326
                ]
            },
            "properties": {
                "name": "Celbridge",
                "article": "https://en.wikipedia.org/wiki/Celbridge"
            }
        },
        {
            "type": "Feature",
            "geometry": {
                "type": "Point",
                "coordinates": [
                    -10.038888888,
                    53.958888888
                ]
            },
            "properties": {
                "name": "Achill Island",
                "article": "https://en.wikipedia.org/wiki/Achill_Island"
            }
        },
        {
            "type": "Feature",
            "geometry": {
                "type": "Point",
                "coordinates": [
                    -6.685524,
                    53.292002
                ]
            },
            "properties": {
                "name": "Clane",
                "article": "https://en.wikipedia.org/wiki/Clane"
            }
        },
        {
            "type": "Feature",
            "geometry": {
                "type": "Point",
                "coordinates": [
                    -6.2585,
                    53.3631
                ]
            },
            "properties": {
                "name": "Drumcondra railway station",
                "article": "https://en.wikipedia.org/wiki/Drumcondra_railway_station"
            }
        },
        {
            "type": "Feature",
            "geometry": {
                "type": "Point",
                "coordinates": [
                    -9.5184616,
                    52.6114919
                ]
            },
            "properties": {
                "name": "Inis Cathaigh",
                "article": "https://en.wikipedia.org/wiki/Inis_Cathaigh"
            }
        },
        {
            "type": "Feature",
            "geometry": {
                "type": "Point",
                "coordinates": [
                    -8.5305556,
                    51.7075
                ]
            },
            "properties": {
                "name": "Kinsale",
                "article": "https://en.wikipedia.org/wiki/Kinsale"
            }
        },
        {
            "type": "Feature",
            "geometry": {
                "type": "Point",
                "coordinates": [
                    -10.204,
                    53.981
                ]
            },
            "properties": {
                "name": "Croaghaun",
                "article": "https://en.wikipedia.org/wiki/Croaghaun"
            }
        },
        {
            "type": "Feature",
            "geometry": {
                "type": "Point",
                "coordinates": [
                    -7.921,
                    53.351
                ]
            },
            "properties": {
                "name": "Ireland",
                "article": "https://en.wikipedia.org/wiki/Ireland"
            }
        },
        {
            "type": "Feature",
            "geometry": {
                "type": "Point",
                "coordinates": [
                    -8.96054444,
                    53.48186111
                ]
            },
            "properties": {
                "name": "Cnoc Meadha",
                "article": "https://en.wikipedia.org/wiki/Cnoc_Meadha"
            }
        },
        {
            "type": "Feature",
            "geometry": {
                "type": "Point",
                "coordinates": [
                    -9.05242,
                    53.27286
                ]
            },
            "properties": {
                "name": "Shop Street",
                "article": "https://en.wikipedia.org/wiki/Shop_Street"
            }
        },
        {
            "type": "Feature",
            "geometry": {
                "type": "Point",
                "coordinates": [
                    -8.473055555,
                    51.9
                ]
            },
            "properties": {
                "name": "Cork",
                "article": "https://en.wikipedia.org/wiki/Cork_(city)"
            }
        },
        {
            "type": "Feature",
            "geometry": {
                "type": "Point",
                "coordinates": [
                    -7.7998,
                    53.727
                ]
            },
            "properties": {
                "name": "Longford",
                "article": "https://en.wikipedia.org/wiki/Longford"
            }
        },
        {
            "type": "Feature",
            "geometry": {
                "type": "Point",
                "coordinates": [
                    -6.033,
                    52.9779
                ]
            },
            "properties": {
                "name": "Wicklow",
                "article": "https://en.wikipedia.org/wiki/Wicklow"
            }
        },
        {
            "type": "Feature",
            "geometry": {
                "type": "Point",
                "coordinates": [
                    -9.061111111,
                    52.060277777
                ]
            },
            "properties": {
                "name": "Millstreet",
                "article": "https://en.wikipedia.org/wiki/Millstreet"
            }
        },
        {
            "type": "Feature",
            "geometry": {
                "type": "Point",
                "coordinates": [
                    -6.413,
                    54.002
                ]
            },
            "properties": {
                "name": "Dundalk Clarke railway station",
                "article": "https://en.wikipedia.org/wiki/Dundalk_Clarke_railway_station"
            }
        },
        {
            "type": "Feature",
            "geometry": {
                "type": "Point",
                "coordinates": [
                    -6.1649,
                    52.7941
                ]
            },
            "properties": {
                "name": "Arklow",
                "article": "https://en.wikipedia.org/wiki/Arklow"
            }
        },
        {
            "type": "Feature",
            "geometry": {
                "type": "Point",
                "coordinates": [
                    -8.1833,
                    53.6333
                ]
            },
            "properties": {
                "name": "Roscommon",
                "article": "https://en.wikipedia.org/wiki/Roscommon"
            }
        },
        {
            "type": "Feature",
            "geometry": {
                "type": "Point",
                "coordinates": [
                    -8.7425,
                    51.746944444
                ]
            },
            "properties": {
                "name": "Bandon",
                "article": "https://en.wikipedia.org/wiki/Bandon,_County_Cork"
            }
        },
        {
            "type": "Feature",
            "geometry": {
                "type": "Point",
                "coordinates": [
                    -8.161983,
                    52.474416
                ]
            },
            "properties": {
                "name": "Tipperary",
                "article": "https://en.wikipedia.org/wiki/Tipperary_(town)"
            }
        },
        {
            "type": "Feature",
            "geometry": {
                "type": "Point",
                "coordinates": [
                    -9.862777777,
                    52.197222222
                ]
            },
            "properties": {
                "name": "Caherconree",
                "article": "https://en.wikipedia.org/wiki/Caherconree"
            }
        },
        {
            "type": "Feature",
            "geometry": {
                "type": "Point",
                "coordinates": [
                    -8.235626,
                    55.050941
                ]
            },
            "properties": {
                "name": "Gweedore",
                "article": "https://en.wikipedia.org/wiki/Gweedore"
            }
        },
        {
            "type": "Feature",
            "geometry": {
                "type": "Point",
                "coordinates": [
                    -7.919,
                    54.23475
                ]
            },
            "properties": {
                "name": "Shannon Pot",
                "article": "https://en.wikipedia.org/wiki/Shannon_Pot"
            }
        },
        {
            "type": "Feature",
            "geometry": {
                "type": "Point",
                "coordinates": [
                    -8.2967,
                    51.851
                ]
            },
            "properties": {
                "name": "Cobh",
                "article": "https://en.wikipedia.org/wiki/Cobh"
            }
        },
        {
            "type": "Feature",
            "geometry": {
                "type": "Point",
                "coordinates": [
                    -6.9897,
                    52.6958
                ]
            },
            "properties": {
                "name": "Muine Bheag",
                "article": "https://en.wikipedia.org/wiki/Bagenalstown"
            }
        },
        {
            "type": "Feature",
            "geometry": {
                "type": "Point",
                "coordinates": [
                    -10.223808,
                    51.948286
                ]
            },
            "properties": {
                "name": "Cahersiveen",
                "article": "https://en.wikipedia.org/wiki/Cahersiveen"
            }
        },
        {
            "type": "Feature",
            "geometry": {
                "type": "Point",
                "coordinates": [
                    -6.14,
                    53.3
                ]
            },
            "properties": {
                "name": "Dún Laoghaire",
                "article": "https://en.wikipedia.org/wiki/D%C3%BAn_Laoghaire"
            }
        },
        {
            "type": "Feature",
            "geometry": {
                "type": "Point",
                "coordinates": [
                    -6.338322,
                    53.169397
                ]
            },
            "properties": {
                "name": "Kippure",
                "article": "https://en.wikipedia.org/wiki/Kippure"
            }
        },
        {
            "type": "Feature",
            "geometry": {
                "type": "Point",
                "coordinates": [
                    -8.94542,
                    53.3386
                ]
            },
            "properties": {
                "name": "Claregalway",
                "article": "https://en.wikipedia.org/wiki/Claregalway"
            }
        },
        {
            "type": "Feature",
            "geometry": {
                "type": "Point",
                "coordinates": [
                    -9.672777777,
                    52.511388888
                ]
            },
            "properties": {
                "name": "Ballybunion",
                "article": "https://en.wikipedia.org/wiki/Ballybunion"
            }
        },
        {
            "type": "Feature",
            "geometry": {
                "type": "Point",
                "coordinates": [
                    -6.22631,
                    53.229074
                ]
            },
            "properties": {
                "name": "Ballyedmonduff Wedge Tomb",
                "article": "https://en.wikipedia.org/wiki/Ballyedmonduff_Wedge_Tomb"
            }
        },
        {
            "type": "Feature",
            "geometry": {
                "type": "Point",
                "coordinates": [
                    -9.94417,
                    51.713
                ]
            },
            "properties": {
                "name": "Ballcrovane ogham stone",
                "article": "https://en.wikipedia.org/wiki/Ballycrovane_Ogham_Stone"
            }
        },
        {
            "type": "Feature",
            "geometry": {
                "type": "Point",
                "coordinates": [
                    -9.38636111,
                    54.28161111
                ]
            },
            "properties": {
                "name": "Ballyglass",
                "article": null
            }
        },
        {
            "type": "Feature",
            "geometry": {
                "type": "Point",
                "coordinates": [
                    -8.2018,
                    54.5015
                ]
            },
            "properties": {
                "name": "Ballyshannon",
                "article": "https://en.wikipedia.org/wiki/Ballyshannon"
            }
        },
        {
            "type": "Feature",
            "geometry": {
                "type": "Point",
                "coordinates": [
                    -6.82369444,
                    52.81241667
                ]
            },
            "properties": {
                "name": "Baunogenasraid",
                "article": "https://en.wikipedia.org/wiki/Baunogenasraid"
            }
        },
        {
            "type": "Feature",
            "geometry": {
                "type": "Point",
                "coordinates": [
                    -10.3,
                    51.93333333
                ]
            },
            "properties": {
                "name": "Beginish Island",
                "article": "https://en.wikipedia.org/wiki/Beginish_Island"
            }
        },
        {
            "type": "Feature",
            "geometry": {
                "type": "Point",
                "coordinates": [
                    -8.466666666,
                    54.366666666
                ]
            },
            "properties": {
                "name": "Ben Bulben",
                "article": "https://en.wikipedia.org/wiki/Benbulbin"
            }
        },
        {
            "type": "Feature",
            "geometry": {
                "type": "Point",
                "coordinates": [
                    -7.3008,
                    53.0309
                ]
            },
            "properties": {
                "name": "Port Laoise",
                "article": "https://en.wikipedia.org/wiki/Portlaoise"
            }
        },
        {
            "type": "Feature",
            "geometry": {
                "type": "Point",
                "coordinates": [
                    -9.283333333,
                    53.466666666
                ]
            },
            "properties": {
                "name": "Lough Corrib",
                "article": "https://en.wikipedia.org/wiki/Lough_Corrib"
            }
        },
        {
            "type": "Feature",
            "geometry": {
                "type": "Point",
                "coordinates": [
                    -6.073927,
                    53.58536
                ]
            },
            "properties": {
                "name": "St Patrick's Island",
                "article": "https://en.wikipedia.org/wiki/St_Patrick%27s_Island"
            }
        },
        {
            "type": "Feature",
            "geometry": {
                "type": "Point",
                "coordinates": [
                    -8.117,
                    54.65
                ]
            },
            "properties": {
                "name": "Donegal",
                "article": "https://en.wikipedia.org/wiki/Donegal_(town)"
            }
        },
        {
            "type": "Feature",
            "geometry": {
                "type": "Point",
                "coordinates": [
                    -8.91667,
                    53.7833
                ]
            },
            "properties": {
                "name": "Knock",
                "article": "https://en.wikipedia.org/wiki/Knock,_County_Mayo"
            }
        },
        {
            "type": "Feature",
            "geometry": {
                "type": "Point",
                "coordinates": [
                    -7.9133,
                    53.0914
                ]
            },
            "properties": {
                "name": "Birr",
                "article": "https://en.wikipedia.org/wiki/Birr,_County_Offaly"
            }
        },
        {
            "type": "Feature",
            "geometry": {
                "type": "Point",
                "coordinates": [
                    -9.6925,
                    52.6745
                ]
            },
            "properties": {
                "name": "Bishop's Island",
                "article": null
            }
        },
        {
            "type": "Feature",
            "geometry": {
                "type": "Point",
                "coordinates": [
                    -6.084166666,
                    53.190527777
                ]
            },
            "properties": {
                "name": "Bray Head",
                "article": "https://en.wikipedia.org/wiki/Bray_Head"
            }
        },
        {
            "type": "Feature",
            "geometry": {
                "type": "Point",
                "coordinates": [
                    -6.909027,
                    53.156859
                ]
            },
            "properties": {
                "name": "Kildare",
                "article": "https://en.wikipedia.org/wiki/Kildare"
            }
        },
        {
            "type": "Feature",
            "geometry": {
                "type": "Point",
                "coordinates": [
                    -8.316666666,
                    52.983333333
                ]
            },
            "properties": {
                "name": "Lough Derg",
                "article": "https://en.wikipedia.org/wiki/Lough_Derg_(Shannon)"
            }
        },
        {
            "type": "Feature",
            "geometry": {
                "type": "Point",
                "coordinates": [
                    -8.1995,
                    52.8632
                ]
            },
            "properties": {
                "name": "Nenagh",
                "article": "https://en.wikipedia.org/wiki/Nenagh"
            }
        },
        {
            "type": "Feature",
            "geometry": {
                "type": "Point",
                "coordinates": [
                    -7.994522222,
                    55.10555
                ]
            },
            "properties": {
                "name": "Muckish",
                "article": "https://en.wikipedia.org/wiki/Muckish"
            }
        },
        {
            "type": "Feature",
            "geometry": {
                "type": "Point",
                "coordinates": [
                    -7.82104,
                    52.7902
                ]
            },
            "properties": {
                "name": "Templemore railway station",
                "article": "https://en.wikipedia.org/wiki/Templemore_railway_station"
            }
        },
        {
            "type": "Feature",
            "geometry": {
                "type": "Point",
                "coordinates": [
                    -7.237714,
                    55.431805
                ]
            },
            "properties": {
                "name": "Inishtrahull Island",
                "article": "https://en.wikipedia.org/wiki/Inishtrahull"
            }
        },
        {
            "type": "Feature",
            "geometry": {
                "type": "Point",
                "coordinates": [
                    -6.182,
                    53.612
                ]
            },
            "properties": {
                "name": "Balbriggan railway station",
                "article": "https://en.wikipedia.org/wiki/Balbriggan_railway_station"
            }
        },
        {
            "type": "Feature",
            "geometry": {
                "type": "Point",
                "coordinates": [
                    -9.245,
                    54.043333333
                ]
            },
            "properties": {
                "name": "Lough Conn",
                "article": "https://en.wikipedia.org/wiki/Lough_Conn"
            }
        },
        {
            "type": "Feature",
            "geometry": {
                "type": "Point",
                "coordinates": [
                    -9.268888888,
                    52.015555555
                ]
            },
            "properties": {
                "name": "Paps of Anu",
                "article": "https://en.wikipedia.org/wiki/Paps_of_Anu"
            }
        },
        {
            "type": "Feature",
            "geometry": {
                "type": "Point",
                "coordinates": [
                    -6.8019,
                    53.1767
                ]
            },
            "properties": {
                "name": "Newbridge",
                "article": "https://en.wikipedia.org/wiki/Newbridge,_County_Kildare"
            }
        },
        {
            "type": "Feature",
            "geometry": {
                "type": "Point",
                "coordinates": [
                    -8.720277777,
                    54.710277777
                ]
            },
            "properties": {
                "name": "Glencolumbkille",
                "article": "https://en.wikipedia.org/wiki/Glencolmcille"
            }
        },
        {
            "type": "Feature",
            "geometry": {
                "type": "Point",
                "coordinates": [
                    -7.316666666,
                    53.8
                ]
            },
            "properties": {
                "name": "Lough Sheelin",
                "article": "https://en.wikipedia.org/wiki/Lough_Sheelin"
            }
        },
        {
            "type": "Feature",
            "geometry": {
                "type": "Point",
                "coordinates": [
                    -8.749722,
                    53.300833
                ]
            },
            "properties": {
                "name": "Athenry railway station",
                "article": "https://en.wikipedia.org/wiki/Athenry_railway_station"
            }
        },
        {
            "type": "Feature",
            "geometry": {
                "type": "Point",
                "coordinates": [
                    -9.375114,
                    52.572386
                ]
            },
            "properties": {
                "name": "Tarbert",
                "article": "https://en.wikipedia.org/wiki/Tarbert,_County_Kerry"
            }
        },
        {
            "type": "Feature",
            "geometry": {
                "type": "Point",
                "coordinates": [
                    -9.29,
                    52.94
                ]
            },
            "properties": {
                "name": "Ennistymon",
                "article": "https://en.wikipedia.org/wiki/Ennistymon"
            }
        },
        {
            "type": "Feature",
            "geometry": {
                "type": "Point",
                "coordinates": [
                    -6.2181,
                    53.4597
                ]
            },
            "properties": {
                "name": "Swords",
                "article": "https://en.wikipedia.org/wiki/Swords,_Dublin"
            }
        },
        {
            "type": "Feature",
            "geometry": {
                "type": "Point",
                "coordinates": [
                    -6.1544,
                    53.4508
                ]
            },
            "properties": {
                "name": "Malahide",
                "article": "https://en.wikipedia.org/wiki/Malahide"
            }
        },
        {
            "type": "Feature",
            "geometry": {
                "type": "Point",
                "coordinates": [
                    -9.054623,
                    52.450988
                ]
            },
            "properties": {
                "name": "Newcastle West",
                "article": "https://en.wikipedia.org/wiki/Newcastle_West"
            }
        },
        {
            "type": "Feature",
            "geometry": {
                "type": "Point",
                "coordinates": [
                    -6.4864,
                    53.3636
                ]
            },
            "properties": {
                "name": "Leixlip",
                "article": "https://en.wikipedia.org/wiki/Leixlip"
            }
        },
        {
            "type": "Feature",
            "geometry": {
                "type": "Point",
                "coordinates": [
                    -9.486179,
                    52.446594
                ]
            },
            "properties": {
                "name": "Listowel",
                "article": "https://en.wikipedia.org/wiki/Listowel"
            }
        },
        {
            "type": "Feature",
            "geometry": {
                "type": "Point",
                "coordinates": [
                    -8.886395,
                    51.62196
                ]
            },
            "properties": {
                "name": "Clonakilty",
                "article": "https://en.wikipedia.org/wiki/Clonakilty"
            }
        },
        {
            "type": "Feature",
            "geometry": {
                "type": "Point",
                "coordinates": [
                    -10.031,
                    53.718
                ]
            },
            "properties": {
                "name": "Caher Island",
                "article": "https://en.wikipedia.org/wiki/Caher_Island"
            }
        },
        {
            "type": "Feature",
            "geometry": {
                "type": "Point",
                "coordinates": [
                    -10.029991,
                    53.717271
                ]
            },
            "properties": {
                "name": "Caher Island",
                "article": "https://en.wikipedia.org/wiki/Caher_Island"
            }
        },
        {
            "type": "Feature",
            "geometry": {
                "type": "Point",
                "coordinates": [
                    -10.30680556,
                    52.12680556
                ]
            },
            "properties": {
                "name": "Q1000322",
                "article": null
            }
        },
        {
            "type": "Feature",
            "geometry": {
                "type": "Point",
                "coordinates": [
                    -7.889428,
                    52.516717
                ]
            },
            "properties": {
                "name": "Cashel",
                "article": "https://en.wikipedia.org/wiki/Cashel,_County_Tipperary"
            }
        },
        {
            "type": "Feature",
            "geometry": {
                "type": "Point",
                "coordinates": [
                    -6.7149,
                    53.9706
                ]
            },
            "properties": {
                "name": "Carrickmacross",
                "article": "https://en.wikipedia.org/wiki/Carrickmacross"
            }
        },
        {
            "type": "Feature",
            "geometry": {
                "type": "Point",
                "coordinates": [
                    -7.797117,
                    52.954688
                ]
            },
            "properties": {
                "name": "Roscrea",
                "article": "https://en.wikipedia.org/wiki/Roscrea"
            }
        },
        {
            "type": "Feature",
            "geometry": {
                "type": "Point",
                "coordinates": [
                    -7.411995,
                    52.346509
                ]
            },
            "properties": {
                "name": "Carrick-on-Suir",
                "article": "https://en.wikipedia.org/wiki/Carrick-on-Suir"
            }
        },
        {
            "type": "Feature",
            "geometry": {
                "type": "Point",
                "coordinates": [
                    -8.304,
                    53.802
                ]
            },
            "properties": {
                "name": "Rathcroghan",
                "article": "https://en.wikipedia.org/wiki/Rathcroghan"
            }
        },
        {
            "type": "Feature",
            "geometry": {
                "type": "Point",
                "coordinates": [
                    -8.2838,
                    54.4754
                ]
            },
            "properties": {
                "name": "Bundoran",
                "article": "https://en.wikipedia.org/wiki/Bundoran"
            }
        },
        {
            "type": "Feature",
            "geometry": {
                "type": "Point",
                "coordinates": [
                    -8.38362,
                    54.2542
                ]
            },
            "properties": {
                "name": "Lough Gill",
                "article": "https://en.wikipedia.org/wiki/Lough_Gill"
            }
        },
        {
            "type": "Feature",
            "geometry": {
                "type": "Point",
                "coordinates": [
                    -7.845612,
                    51.951671
                ]
            },
            "properties": {
                "name": "Youghal",
                "article": "https://en.wikipedia.org/wiki/Youghal"
            }
        },
        {
            "type": "Feature",
            "geometry": {
                "type": "Point",
                "coordinates": [
                    -6.475067,
                    53.419866
                ]
            },
            "properties": {
                "name": "Dunboyne",
                "article": "https://en.wikipedia.org/wiki/Dunboyne"
            }
        },
        {
            "type": "Feature",
            "geometry": {
                "type": "Point",
                "coordinates": [
                    -9.5333,
                    53.8
                ]
            },
            "properties": {
                "name": "Westport",
                "article": "https://en.wikipedia.org/wiki/Westport,_County_Mayo"
            }
        },
        {
            "type": "Feature",
            "geometry": {
                "type": "Point",
                "coordinates": [
                    -10.0167,
                    53.4833
                ]
            },
            "properties": {
                "name": "Clifden",
                "article": "https://en.wikipedia.org/wiki/Clifden"
            }
        },
        {
            "type": "Feature",
            "geometry": {
                "type": "Point",
                "coordinates": [
                    -7.477913,
                    54.835599
                ]
            },
            "properties": {
                "name": "Raphoe",
                "article": "https://en.wikipedia.org/wiki/Raphoe"
            }
        },
        {
            "type": "Feature",
            "geometry": {
                "type": "Point",
                "coordinates": [
                    -7.698498,
                    55.087898
                ]
            },
            "properties": {
                "name": "Milford",
                "article": "https://en.wikipedia.org/wiki/Milford,_County_Donegal"
            }
        },
        {
            "type": "Feature",
            "geometry": {
                "type": "Point",
                "coordinates": [
                    -10.26166667,
                    51.95805556
                ]
            },
            "properties": {
                "name": "Leacanabuaile",
                "article": "https://en.wikipedia.org/wiki/Leacanabuaile"
            }
        },
        {
            "type": "Feature",
            "geometry": {
                "type": "Point",
                "coordinates": [
                    -9.5,
                    51.433333333
                ]
            },
            "properties": {
                "name": "Cape Clear Island",
                "article": "https://en.wikipedia.org/wiki/Cape_Clear_Island"
            }
        },
        {
            "type": "Feature",
            "geometry": {
                "type": "Point",
                "coordinates": [
                    -7.261388888,
                    55.251388888
                ]
            },
            "properties": {
                "name": "Carndonagh",
                "article": "https://en.wikipedia.org/wiki/Carndonagh"
            }
        },
        {
            "type": "Feature",
            "geometry": {
                "type": "Point",
                "coordinates": [
                    -7.189333,
                    55.256018
                ]
            },
            "properties": {
                "name": "Carrowmore Early Ecclesiastical Site",
                "article": null
            }
        },
        {
            "type": "Feature",
            "geometry": {
                "type": "Point",
                "coordinates": [
                    -9.7,
                    54.0
                ]
            },
            "properties": {
                "name": "Carrowmore Lake",
                "article": "https://en.wikipedia.org/wiki/Carrowmore_Lake"
            }
        },
        {
            "type": "Feature",
            "geometry": {
                "type": "Point",
                "coordinates": [
                    -9.78313,
                    54.19315
                ]
            },
            "properties": {
                "name": "Carrowmore Lake",
                "article": "https://en.wikipedia.org/wiki/Carrowmore_Lake"
            }
        },
        {
            "type": "Feature",
            "geometry": {
                "type": "Point",
                "coordinates": [
                    -9.07966667,
                    53.01322222
                ]
            },
            "properties": {
                "name": "Cashlaungar",
                "article": "https://en.wikipedia.org/wiki/Cashlaungar"
            }
        },
        {
            "type": "Feature",
            "geometry": {
                "type": "Point",
                "coordinates": [
                    -8.684435,
                    52.356732
                ]
            },
            "properties": {
                "name": "Charleville",
                "article": "https://en.wikipedia.org/wiki/Charleville,_County_Cork"
            }
        },
        {
            "type": "Feature",
            "geometry": {
                "type": "Point",
                "coordinates": [
                    -7.715833333,
                    54.05
                ]
            },
            "properties": {
                "name": "Church Island",
                "article": null
            }
        },
        {
            "type": "Feature",
            "geometry": {
                "type": "Point",
                "coordinates": [
                    -10.1305,
                    51.8352
                ]
            },
            "properties": {
                "name": "Church Island",
                "article": "https://en.wikipedia.org/wiki/Church_Island_(Lough_Currane)"
            }
        },
        {
            "type": "Feature",
            "geometry": {
                "type": "Point",
                "coordinates": [
                    -10.28333333,
                    51.9375
                ]
            },
            "properties": {
                "name": "Church Island",
                "article": null
            }
        },
        {
            "type": "Feature",
            "geometry": {
                "type": "Point",
                "coordinates": [
                    -8.39138889,
                    54.25166667
                ]
            },
            "properties": {
                "name": "Church Island",
                "article": "https://en.wikipedia.org/wiki/Church_Island_(Lough_Gill)"
            }
        },
        {
            "type": "Feature",
            "geometry": {
                "type": "Point",
                "coordinates": [
                    -8.392222222,
                    54.253611111
                ]
            },
            "properties": {
                "name": "Church Island",
                "article": "https://en.wikipedia.org/wiki/Church_Island_(Lough_Gill)"
            }
        },
        {
            "type": "Feature",
            "geometry": {
                "type": "Point",
                "coordinates": [
                    -9.986166666,
                    53.802166666
                ]
            },
            "properties": {
                "name": "Clare Island",
                "article": "https://en.wikipedia.org/wiki/Clare_Island"
            }
        },
        {
            "type": "Feature",
            "geometry": {
                "type": "Point",
                "coordinates": [
                    -9.0,
                    53.7167
                ]
            },
            "properties": {
                "name": "Claremorris",
                "article": "https://en.wikipedia.org/wiki/Claremorris"
            }
        },
        {
            "type": "Feature",
            "geometry": {
                "type": "Point",
                "coordinates": [
                    -6.409188888,
                    53.318661111
                ]
            },
            "properties": {
                "name": "Clondalkin",
                "article": "https://en.wikipedia.org/wiki/Clondalkin"
            }
        },
        {
            "type": "Feature",
            "geometry": {
                "type": "Point",
                "coordinates": [
                    -7.2325,
                    54.180555555
                ]
            },
            "properties": {
                "name": "Clones",
                "article": "https://en.wikipedia.org/wiki/Clones,_County_Monaghan"
            }
        },
        {
            "type": "Feature",
            "geometry": {
                "type": "Point",
                "coordinates": [
                    -8.795263888,
                    52.811927777
                ]
            },
            "properties": {
                "name": "Craggaunowen",
                "article": "https://en.wikipedia.org/wiki/Craggaunowen"
            }
        },
        {
            "type": "Feature",
            "geometry": {
                "type": "Point",
                "coordinates": [
                    -7.69964695,
                    53.4116478
                ]
            },
            "properties": {
                "name": "Ballinderry Crannog No. 1",
                "article": null
            }
        },
        {
            "type": "Feature",
            "geometry": {
                "type": "Point",
                "coordinates": [
                    -7.3753345,
                    53.4923415
                ]
            },
            "properties": {
                "name": "Cro Inis",
                "article": null
            }
        },
        {
            "type": "Feature",
            "geometry": {
                "type": "Point",
                "coordinates": [
                    -7.37472,
                    53.49251
                ]
            },
            "properties": {
                "name": "Cro Inis",
                "article": null
            }
        },
        {
            "type": "Feature",
            "geometry": {
                "type": "Point",
                "coordinates": [
                    -10.35,
                    51.9
                ]
            },
            "properties": {
                "name": "Valentia Island",
                "article": "https://en.wikipedia.org/wiki/Valentia_Island"
            }
        },
        {
            "type": "Feature",
            "geometry": {
                "type": "Point",
                "coordinates": [
                    -8.216666666,
                    55.25
                ]
            },
            "properties": {
                "name": "Tory Island",
                "article": "https://en.wikipedia.org/wiki/Tory_Island"
            }
        },
        {
            "type": "Feature",
            "geometry": {
                "type": "Point",
                "coordinates": [
                    -9.45777778,
                    54.30722222
                ]
            },
            "properties": {
                "name": "Céide Fields",
                "article": "https://en.wikipedia.org/wiki/C%C3%A9ide_Fields"
            }
        },
        {
            "type": "Feature",
            "geometry": {
                "type": "Point",
                "coordinates": [
                    -10.15397222,
                    52.12727778
                ]
            },
            "properties": {
                "name": "Doonmanagh Wedge tomb",
                "article": null
            }
        },
        {
            "type": "Feature",
            "geometry": {
                "type": "Point",
                "coordinates": [
                    -6.449166666,
                    53.702916666
                ]
            },
            "properties": {
                "name": "Dowth",
                "article": "https://en.wikipedia.org/wiki/Dowth"
            }
        },
        {
            "type": "Feature",
            "geometry": {
                "type": "Point",
                "coordinates": [
                    -7.89,
                    52.52
                ]
            },
            "properties": {
                "name": "Rock of Cashel",
                "article": "https://en.wikipedia.org/wiki/Rock_of_Cashel"
            }
        },
        {
            "type": "Feature",
            "geometry": {
                "type": "Point",
                "coordinates": [
                    -9.91944444,
                    53.30527778
                ]
            },
            "properties": {
                "name": "St. MacDara's Island",
                "article": null
            }
        },
        {
            "type": "Feature",
            "geometry": {
                "type": "Point",
                "coordinates": [
                    -9.08702,
                    51.564553
                ]
            },
            "properties": {
                "name": "Drombeg stone circle",
                "article": "https://en.wikipedia.org/wiki/Drombeg_stone_circle"
            }
        },
        {
            "type": "Feature",
            "geometry": {
                "type": "Point",
                "coordinates": [
                    -6.08,
                    53.54
                ]
            },
            "properties": {
                "name": "Drumanagh",
                "article": "https://en.wikipedia.org/wiki/Drumanagh"
            }
        },
        {
            "type": "Feature",
            "geometry": {
                "type": "Point",
                "coordinates": [
                    -7.464882,
                    52.162846
                ]
            },
            "properties": {
                "name": "Drumlohan Souterrain and Ogham Stones",
                "article": "https://en.wikipedia.org/wiki/Drumlohan_Souterrain_and_Ogham_Stones"
            }
        },
        {
            "type": "Feature",
            "geometry": {
                "type": "Point",
                "coordinates": [
                    -9.76636,
                    53.12591
                ]
            },
            "properties": {
                "name": "Dun Aengus",
                "article": "https://en.wikipedia.org/wiki/D%C3%BAn_Aonghasa"
            }
        },
        {
            "type": "Feature",
            "geometry": {
                "type": "Point",
                "coordinates": [
                    -8.112,
                    55.033
                ]
            },
            "properties": {
                "name": "Errigal",
                "article": "https://en.wikipedia.org/wiki/Errigal"
            }
        },
        {
            "type": "Feature",
            "geometry": {
                "type": "Point",
                "coordinates": [
                    -8.039166666,
                    54.106944444
                ]
            },
            "properties": {
                "name": "Lough Allen",
                "article": "https://en.wikipedia.org/wiki/Lough_Allen"
            }
        },
        {
            "type": "Feature",
            "geometry": {
                "type": "Point",
                "coordinates": [
                    -9.59,
                    53.085
                ]
            },
            "properties": {
                "name": "Inishmaan",
                "article": "https://en.wikipedia.org/wiki/Inishmaan"
            }
        },
        {
            "type": "Feature",
            "geometry": {
                "type": "Point",
                "coordinates": [
                    -7.720127,
                    52.900309
                ]
            },
            "properties": {
                "name": "Timoney Stones",
                "article": "https://en.wikipedia.org/wiki/Timoney_Stones"
            }
        },
        {
            "type": "Feature",
            "geometry": {
                "type": "Point",
                "coordinates": [
                    -7.715,
                    52.9037
                ]
            },
            "properties": {
                "name": "Timoney Stones",
                "article": "https://en.wikipedia.org/wiki/Timoney_Stones"
            }
        },
        {
            "type": "Feature",
            "geometry": {
                "type": "Point",
                "coordinates": [
                    -10.2,
                    53.616666666
                ]
            },
            "properties": {
                "name": "Inishbofin",
                "article": "https://en.wikipedia.org/wiki/Inishbofin,_County_Galway"
            }
        },
        {
            "type": "Feature",
            "geometry": {
                "type": "Point",
                "coordinates": [
                    -6.015,
                    53.490555555
                ]
            },
            "properties": {
                "name": "Lambay Island",
                "article": "https://en.wikipedia.org/wiki/Lambay_Island"
            }
        },
        {
            "type": "Feature",
            "geometry": {
                "type": "Point",
                "coordinates": [
                    -7.563,
                    52.43
                ]
            },
            "properties": {
                "name": "Slievenamon",
                "article": "https://en.wikipedia.org/wiki/Slievenamon"
            }
        },
        {
            "type": "Feature",
            "geometry": {
                "type": "Point",
                "coordinates": [
                    -9.552,
                    51.75
                ]
            },
            "properties": {
                "name": "Glengarriff",
                "article": "https://en.wikipedia.org/wiki/Glengarriff"
            }
        },
        {
            "type": "Feature",
            "geometry": {
                "type": "Point",
                "coordinates": [
                    -9.04485,
                    52.004426
                ]
            },
            "properties": {
                "name": "Glantane East",
                "article": "https://en.wikipedia.org/wiki/Glantane_East"
            }
        },
        {
            "type": "Feature",
            "geometry": {
                "type": "Point",
                "coordinates": [
                    -10.2828,
                    53.6117
                ]
            },
            "properties": {
                "name": "Inishark",
                "article": "https://en.wikipedia.org/wiki/Inishark"
            }
        },
        {
            "type": "Feature",
            "geometry": {
                "type": "Point",
                "coordinates": [
                    -6.863311111,
                    53.229497222
                ]
            },
            "properties": {
                "name": "Hill of Allen",
                "article": "https://en.wikipedia.org/wiki/Hill_of_Allen"
            }
        },
        {
            "type": "Feature",
            "geometry": {
                "type": "Point",
                "coordinates": [
                    -10.1083,
                    53.7014
                ]
            },
            "properties": {
                "name": "Inishturk",
                "article": "https://en.wikipedia.org/wiki/Inishturk"
            }
        },
        {
            "type": "Feature",
            "geometry": {
                "type": "Point",
                "coordinates": [
                    -7.3587,
                    53.6526
                ]
            },
            "properties": {
                "name": "Lough Derravaragh",
                "article": "https://en.wikipedia.org/wiki/Lough_Derravaragh"
            }
        },
        {
            "type": "Feature",
            "geometry": {
                "type": "Point",
                "coordinates": [
                    -10.25722222,
                    53.54638889
                ]
            },
            "properties": {
                "name": "Ardoileán",
                "article": "https://en.wikipedia.org/wiki/Ardoile%C3%A1n"
            }
        },
        {
            "type": "Feature",
            "geometry": {
                "type": "Point",
                "coordinates": [
                    -8.45,
                    52.915
                ]
            },
            "properties": {
                "name": "Inishcaltra",
                "article": "https://en.wikipedia.org/wiki/Inis_Cealtra"
            }
        },
        {
            "type": "Feature",
            "geometry": {
                "type": "Point",
                "coordinates": [
                    -7.236944444,
                    53.664722222
                ]
            },
            "properties": {
                "name": "Lough Lene",
                "article": "https://en.wikipedia.org/wiki/Lough_Lene"
            }
        },
        {
            "type": "Feature",
            "geometry": {
                "type": "Point",
                "coordinates": [
                    -7.348888888,
                    52.913888888
                ]
            },
            "properties": {
                "name": "Abbeyleix",
                "article": "https://en.wikipedia.org/wiki/Abbeyleix"
            }
        },
        {
            "type": "Feature",
            "geometry": {
                "type": "Point",
                "coordinates": [
                    -9.368,
                    54.012
                ]
            },
            "properties": {
                "name": "Nephin",
                "article": "https://en.wikipedia.org/wiki/Nephin"
            }
        },
        {
            "type": "Feature",
            "geometry": {
                "type": "Point",
                "coordinates": [
                    -8.65875,
                    54.43294444
                ]
            },
            "properties": {
                "name": "Inishmurray",
                "article": "https://en.wikipedia.org/wiki/Inishmurray"
            }
        },
        {
            "type": "Feature",
            "geometry": {
                "type": "Point",
                "coordinates": [
                    -6.063611111,
                    53.405277777
                ]
            },
            "properties": {
                "name": "Ireland's Eye",
                "article": "https://en.wikipedia.org/wiki/Ireland%27s_Eye"
            }
        },
        {
            "type": "Feature",
            "geometry": {
                "type": "Point",
                "coordinates": [
                    -8.43232822,
                    54.81754684
                ]
            },
            "properties": {
                "name": "Northeastern chamber of portal tomb Dg. 70",
                "article": null
            }
        },
        {
            "type": "Feature",
            "geometry": {
                "type": "Point",
                "coordinates": [
                    -8.4444,
                    54.6361
                ]
            },
            "properties": {
                "name": "Killybegs",
                "article": "https://en.wikipedia.org/wiki/Killybegs"
            }
        },
        {
            "type": "Feature",
            "geometry": {
                "type": "Point",
                "coordinates": [
                    -9.484394444,
                    51.970308333
                ]
            },
            "properties": {
                "name": "Mangerton Mountain",
                "article": "https://en.wikipedia.org/wiki/Mangerton_Mountain"
            }
        },
        {
            "type": "Feature",
            "geometry": {
                "type": "Point",
                "coordinates": [
                    -7.915833333,
                    52.228055555
                ]
            },
            "properties": {
                "name": "Knockmealdown",
                "article": "https://en.wikipedia.org/wiki/Knockmealdown"
            }
        },
        {
            "type": "Feature",
            "geometry": {
                "type": "Point",
                "coordinates": [
                    -9.442,
                    51.802
                ]
            },
            "properties": {
                "name": "Knockboy",
                "article": "https://en.wikipedia.org/wiki/Knockboy"
            }
        },
        {
            "type": "Feature",
            "geometry": {
                "type": "Point",
                "coordinates": [
                    -9.14495,
                    51.991311111
                ]
            },
            "properties": {
                "name": "Mullaghanish",
                "article": "https://en.wikipedia.org/wiki/Mullaghanish"
            }
        },
        {
            "type": "Feature",
            "geometry": {
                "type": "Point",
                "coordinates": [
                    -9.382222222,
                    53.621944444
                ]
            },
            "properties": {
                "name": "Lough Mask",
                "article": "https://en.wikipedia.org/wiki/Lough_Mask"
            }
        },
        {
            "type": "Feature",
            "geometry": {
                "type": "Point",
                "coordinates": [
                    -8.309791,
                    54.231291
                ]
            },
            "properties": {
                "name": "Creevelea Friary",
                "article": "https://en.wikipedia.org/wiki/Creevelea_Abbey"
            }
        },
        {
            "type": "Feature",
            "geometry": {
                "type": "Point",
                "coordinates": [
                    -8.597939,
                    54.632769
                ]
            },
            "properties": {
                "name": "Old St. Carthach's Church in Kilcar",
                "article": null
            }
        },
        {
            "type": "Feature",
            "geometry": {
                "type": "Point",
                "coordinates": [
                    -9.953551,
                    53.866002
                ]
            },
            "properties": {
                "name": "Achillbeg",
                "article": "https://en.wikipedia.org/wiki/Achillbeg"
            }
        },
        {
            "type": "Feature",
            "geometry": {
                "type": "Point",
                "coordinates": [
                    -9.953551,
                    53.866002
                ]
            },
            "properties": {
                "name": "Achillbeg",
                "article": "https://en.wikipedia.org/wiki/Achillbeg"
            }
        },
        {
            "type": "Feature",
            "geometry": {
                "type": "Point",
                "coordinates": [
                    -9.954444444,
                    53.866666666
                ]
            },
            "properties": {
                "name": "Achillbeg",
                "article": "https://en.wikipedia.org/wiki/Achillbeg"
            }
        },
        {
            "type": "Feature",
            "geometry": {
                "type": "Point",
                "coordinates": [
                    -9.954444444,
                    53.866666666
                ]
            },
            "properties": {
                "name": "Achillbeg",
                "article": "https://en.wikipedia.org/wiki/Achillbeg"
            }
        },
        {
            "type": "Feature",
            "geometry": {
                "type": "Point",
                "coordinates": [
                    -9.954444444,
                    53.866666666
                ]
            },
            "properties": {
                "name": "Achillbeg",
                "article": "https://en.wikipedia.org/wiki/Achillbeg"
            }
        },
        {
            "type": "Feature",
            "geometry": {
                "type": "Point",
                "coordinates": [
                    -8.57463,
                    54.25891
                ]
            },
            "properties": {
                "name": "Knocknarea",
                "article": "https://en.wikipedia.org/wiki/Knocknarea"
            }
        },
        {
            "type": "Feature",
            "geometry": {
                "type": "Point",
                "coordinates": [
                    -7.08,
                    52.8
                ]
            },
            "properties": {
                "name": "Templemore",
                "article": "https://en.wikipedia.org/wiki/Templemore"
            }
        },
        {
            "type": "Feature",
            "geometry": {
                "type": "Point",
                "coordinates": [
                    -7.172222222,
                    53.688888888
                ]
            },
            "properties": {
                "name": "Lough Bane",
                "article": "https://en.wikipedia.org/wiki/Lough_Bane"
            }
        },
        {
            "type": "Feature",
            "geometry": {
                "type": "Point",
                "coordinates": [
                    -7.9308,
                    52.1367
                ]
            },
            "properties": {
                "name": "Lismore",
                "article": "https://en.wikipedia.org/wiki/Lismore,_County_Waterford"
            }
        },
        {
            "type": "Feature",
            "geometry": {
                "type": "Point",
                "coordinates": [
                    -8.32333333,
                    54.08277778
                ]
            },
            "properties": {
                "name": "Lough Arrow",
                "article": "https://en.wikipedia.org/wiki/Lough_Arrow"
            }
        },
        {
            "type": "Feature",
            "geometry": {
                "type": "Point",
                "coordinates": [
                    -8.66056,
                    52.9825
                ]
            },
            "properties": {
                "name": "Lough Graney",
                "article": "https://en.wikipedia.org/wiki/Lough_Graney"
            }
        },
        {
            "type": "Feature",
            "geometry": {
                "type": "Point",
                "coordinates": [
                    -8.66391111,
                    52.99948333
                ]
            },
            "properties": {
                "name": "Lough Graney",
                "article": "https://en.wikipedia.org/wiki/Lough_Graney"
            }
        },
        {
            "type": "Feature",
            "geometry": {
                "type": "Point",
                "coordinates": [
                    -9.240833333,
                    53.681388888
                ]
            },
            "properties": {
                "name": "Lough Carra",
                "article": "https://en.wikipedia.org/wiki/Lough_Carra"
            }
        },
        {
            "type": "Feature",
            "geometry": {
                "type": "Point",
                "coordinates": [
                    -7.872222222,
                    54.613888888
                ]
            },
            "properties": {
                "name": "Lough Derg",
                "article": "https://en.wikipedia.org/wiki/Lough_Derg,_County_Donegal"
            }
        },
        {
            "type": "Feature",
            "geometry": {
                "type": "Point",
                "coordinates": [
                    -6.110287,
                    53.090107
                ]
            },
            "properties": {
                "name": "Newtownmountkennedy",
                "article": "https://en.wikipedia.org/wiki/Newtownmountkennedy"
            }
        },
        {
            "type": "Feature",
            "geometry": {
                "type": "Point",
                "coordinates": [
                    -7.243611,
                    52.654167
                ]
            },
            "properties": {
                "name": "Kilkenny railway station",
                "article": "https://en.wikipedia.org/wiki/Kilkenny_MacDonagh_railway_station"
            }
        },
        {
            "type": "Feature",
            "geometry": {
                "type": "Point",
                "coordinates": [
                    -9.2879,
                    53.8474
                ]
            },
            "properties": {
                "name": "Castlebar railway station",
                "article": "https://en.wikipedia.org/wiki/Castlebar_railway_station"
            }
        },
        {
            "type": "Feature",
            "geometry": {
                "type": "Point",
                "coordinates": [
                    -8.199808,
                    52.500874
                ]
            },
            "properties": {
                "name": "Limerick Junction",
                "article": "https://en.wikipedia.org/wiki/Limerick_Junction_railway_station"
            }
        },
        {
            "type": "Feature",
            "geometry": {
                "type": "Point",
                "coordinates": [
                    -9.161,
                    54.109
                ]
            },
            "properties": {
                "name": "Ballina railway station",
                "article": "https://en.wikipedia.org/wiki/Ballina_railway_station"
            }
        },
        {
            "type": "Feature",
            "geometry": {
                "type": "Point",
                "coordinates": [
                    -9.726,
                    53.244
                ]
            },
            "properties": {
                "name": "Lettermullen",
                "article": "https://en.wikipedia.org/wiki/Lettermullen"
            }
        },
        {
            "type": "Feature",
            "geometry": {
                "type": "Point",
                "coordinates": [
                    -8.340576,
                    55.037061
                ]
            },
            "properties": {
                "name": "Kincasslagh",
                "article": "https://en.wikipedia.org/wiki/Kincasslagh"
            }
        },
        {
            "type": "Feature",
            "geometry": {
                "type": "Point",
                "coordinates": [
                    -10.608288888,
                    52.0435
                ]
            },
            "properties": {
                "name": "Inishvickillane",
                "article": "https://en.wikipedia.org/wiki/Inishvickillane"
            }
        },
        {
            "type": "Feature",
            "geometry": {
                "type": "Point",
                "coordinates": [
                    -10.608288888,
                    52.0435
                ]
            },
            "properties": {
                "name": "Inishvickillane",
                "article": "https://en.wikipedia.org/wiki/Inishvickillane"
            }
        },
        {
            "type": "Feature",
            "geometry": {
                "type": "Point",
                "coordinates": [
                    -7.333333,
                    52.783333
                ]
            },
            "properties": {
                "name": "Ballyragget",
                "article": "https://en.wikipedia.org/wiki/Ballyragget"
            }
        },
        {
            "type": "Feature",
            "geometry": {
                "type": "Point",
                "coordinates": [
                    -6.66314331,
                    52.80223419
                ]
            },
            "properties": {
                "name": "Rathgall Hillfort",
                "article": "https://en.wikipedia.org/wiki/Rathgall_Hillfort"
            }
        },
        {
            "type": "Feature",
            "geometry": {
                "type": "Point",
                "coordinates": [
                    -8.83261111,
                    54.66375
                ]
            },
            "properties": {
                "name": "Rathlin O'Birne",
                "article": "https://en.wikipedia.org/wiki/Rathlin_O%27Birne"
            }
        },
        {
            "type": "Feature",
            "geometry": {
                "type": "Point",
                "coordinates": [
                    -7.994,
                    53.538
                ]
            },
            "properties": {
                "name": "Rindoon",
                "article": "https://en.wikipedia.org/wiki/Rindoon"
            }
        },
        {
            "type": "Feature",
            "geometry": {
                "type": "Point",
                "coordinates": [
                    -7.252,
                    53.657
                ]
            },
            "properties": {
                "name": "Randoon",
                "article": "https://en.wikipedia.org/wiki/Randoon"
            }
        },
        {
            "type": "Feature",
            "geometry": {
                "type": "Point",
                "coordinates": [
                    -10.5425,
                    52.0925
                ]
            },
            "properties": {
                "name": "Great Blasket Island",
                "article": "https://en.wikipedia.org/wiki/Great_Blasket_Island"
            }
        },
        {
            "type": "Feature",
            "geometry": {
                "type": "Point",
                "coordinates": [
                    -8.530888888,
                    54.989530555
                ]
            },
            "properties": {
                "name": "Arranmore",
                "article": "https://en.wikipedia.org/wiki/Arranmore"
            }
        },
        {
            "type": "Feature",
            "geometry": {
                "type": "Point",
                "coordinates": [
                    -9.7086,
                    52.2664
                ]
            },
            "properties": {
                "name": "Siamsa Tíre",
                "article": "https://en.wikipedia.org/wiki/Siamsa_T%C3%ADre"
            }
        },
        {
            "type": "Feature",
            "geometry": {
                "type": "Point",
                "coordinates": [
                    -8.61648,
                    51.66953
                ]
            },
            "properties": {
                "name": "Souterrains of Ballycatteen Fort",
                "article": null
            }
        },
        {
            "type": "Feature",
            "geometry": {
                "type": "Point",
                "coordinates": [
                    -9.2636,
                    51.5486
                ]
            },
            "properties": {
                "name": "Skibbereen",
                "article": "https://en.wikipedia.org/wiki/Skibbereen"
            }
        },
        {
            "type": "Feature",
            "geometry": {
                "type": "Point",
                "coordinates": [
                    -7.222202777,
                    53.658219444
                ]
            },
            "properties": {
                "name": "Lough Sheever",
                "article": "https://en.wikipedia.org/wiki/Lough_Sheever"
            }
        },
        {
            "type": "Feature",
            "geometry": {
                "type": "Point",
                "coordinates": [
                    -9.831,
                    53.636
                ]
            },
            "properties": {
                "name": "Mweelrea",
                "article": "https://en.wikipedia.org/wiki/Mweelrea"
            }
        },
        {
            "type": "Feature",
            "geometry": {
                "type": "Point",
                "coordinates": [
                    -9.3333,
                    53.4167
                ]
            },
            "properties": {
                "name": "Oughterard",
                "article": "https://en.wikipedia.org/wiki/Oughterard"
            }
        },
        {
            "type": "Feature",
            "geometry": {
                "type": "Point",
                "coordinates": [
                    -8.468333333,
                    52.359166666
                ]
            },
            "properties": {
                "name": "Kilfinane",
                "article": "https://en.wikipedia.org/wiki/Kilfinane"
            }
        },
        {
            "type": "Feature",
            "geometry": {
                "type": "Point",
                "coordinates": [
                    -10.059938888,
                    54.00905
                ]
            },
            "properties": {
                "name": "Slievemore",
                "article": "https://en.wikipedia.org/wiki/Slievemore"
            }
        },
        {
            "type": "Feature",
            "geometry": {
                "type": "Point",
                "coordinates": [
                    -7.190277777,
                    53.161111111
                ]
            },
            "properties": {
                "name": "Portarlington",
                "article": "https://en.wikipedia.org/wiki/Portarlington,_County_Laois"
            }
        },
        {
            "type": "Feature",
            "geometry": {
                "type": "Point",
                "coordinates": [
                    -6.0606,
                    53.1435
                ]
            },
            "properties": {
                "name": "Greystones railway station",
                "article": "https://en.wikipedia.org/wiki/Greystones_railway_station"
            }
        },
        {
            "type": "Feature",
            "geometry": {
                "type": "Point",
                "coordinates": [
                    -6.1614,
                    53.3872
                ]
            },
            "properties": {
                "name": "Kilbarrack railway station",
                "article": "https://en.wikipedia.org/wiki/Kilbarrack_railway_station"
            }
        },
        {
            "type": "Feature",
            "geometry": {
                "type": "Point",
                "coordinates": [
                    -6.22914,
                    53.33382
                ]
            },
            "properties": {
                "name": "Lansdowne Road railway station",
                "article": "https://en.wikipedia.org/wiki/Lansdowne_Road_railway_station"
            }
        },
        {
            "type": "Feature",
            "geometry": {
                "type": "Point",
                "coordinates": [
                    -6.25414,
                    53.3468
                ]
            },
            "properties": {
                "name": "Tara Street railway station",
                "article": "https://en.wikipedia.org/wiki/Tara_Street_railway_station"
            }
        },
        {
            "type": "Feature",
            "geometry": {
                "type": "Point",
                "coordinates": [
                    -6.089087,
                    53.521788
                ]
            },
            "properties": {
                "name": "Rush",
                "article": "https://en.wikipedia.org/wiki/Rush,_Dublin"
            }
        },
        {
            "type": "Feature",
            "geometry": {
                "type": "Point",
                "coordinates": [
                    -10.1575,
                    53.53527778
                ]
            },
            "properties": {
                "name": "Omey Island",
                "article": "https://en.wikipedia.org/wiki/Omey_Island"
            }
        },
        {
            "type": "Feature",
            "geometry": {
                "type": "Point",
                "coordinates": [
                    -9.500297222,
                    51.689411111
                ]
            },
            "properties": {
                "name": "Whiddy Island",
                "article": "https://en.wikipedia.org/wiki/Whiddy_Island"
            }
        },
        {
            "type": "Feature",
            "geometry": {
                "type": "Point",
                "coordinates": [
                    -8.466666666,
                    51.833333333
                ]
            },
            "properties": {
                "name": "Ballygarvan",
                "article": "https://en.wikipedia.org/wiki/Ballygarvan,_County_Cork"
            }
        },
        {
            "type": "Feature",
            "geometry": {
                "type": "Point",
                "coordinates": [
                    -7.795,
                    53.7245
                ]
            },
            "properties": {
                "name": "Longford railway station",
                "article": "https://en.wikipedia.org/wiki/Longford_railway_station"
            }
        },
        {
            "type": "Feature",
            "geometry": {
                "type": "Point",
                "coordinates": [
                    -8.179,
                    52.366
                ]
            },
            "properties": {
                "name": "Galtymore",
                "article": "https://en.wikipedia.org/wiki/Galtymore"
            }
        },
        {
            "type": "Feature",
            "geometry": {
                "type": "Point",
                "coordinates": [
                    -6.9935,
                    53.221
                ]
            },
            "properties": {
                "name": "Rathangan",
                "article": "https://en.wikipedia.org/wiki/Rathangan,_County_Kildare"
            }
        },
        {
            "type": "Feature",
            "geometry": {
                "type": "Point",
                "coordinates": [
                    -10.508659,
                    51.781724
                ]
            },
            "properties": {
                "name": "Little Skellig",
                "article": "https://en.wikipedia.org/wiki/Little_Skellig"
            }
        },
        {
            "type": "Feature",
            "geometry": {
                "type": "Point",
                "coordinates": [
                    -8.298257,
                    51.899287
                ]
            },
            "properties": {
                "name": "Fota Island",
                "article": "https://en.wikipedia.org/wiki/Fota_Island"
            }
        },
        {
            "type": "Feature",
            "geometry": {
                "type": "Point",
                "coordinates": [
                    -6.292662,
                    53.346451
                ]
            },
            "properties": {
                "name": "Dublin Heuston railway station",
                "article": "https://en.wikipedia.org/wiki/Heuston_railway_station"
            }
        },
        {
            "type": "Feature",
            "geometry": {
                "type": "Point",
                "coordinates": [
                    -6.2115,
                    53.3208
                ]
            },
            "properties": {
                "name": "Sydney Parade railway station",
                "article": "https://en.wikipedia.org/wiki/Sydney_Parade_railway_station"
            }
        },
        {
            "type": "Feature",
            "geometry": {
                "type": "Point",
                "coordinates": [
                    -7.9555,
                    52.8
                ]
            },
            "properties": {
                "name": "Devil's Bit",
                "article": "https://en.wikipedia.org/wiki/Devil%27s_Bit"
            }
        },
        {
            "type": "Feature",
            "geometry": {
                "type": "Point",
                "coordinates": [
                    -6.1137,
                    53.2651
                ]
            },
            "properties": {
                "name": "Killiney",
                "article": "https://en.wikipedia.org/wiki/Killiney"
            }
        },
        {
            "type": "Feature",
            "geometry": {
                "type": "Point",
                "coordinates": [
                    -6.1778,
                    53.3015
                ]
            },
            "properties": {
                "name": "Blackrock",
                "article": "https://en.wikipedia.org/wiki/Blackrock,_Dublin"
            }
        },
        {
            "type": "Feature",
            "geometry": {
                "type": "Point",
                "coordinates": [
                    -6.1564,
                    53.4508
                ]
            },
            "properties": {
                "name": "Malahide railway station",
                "article": "https://en.wikipedia.org/wiki/Malahide_railway_station"
            }
        },
        {
            "type": "Feature",
            "geometry": {
                "type": "Point",
                "coordinates": [
                    -6.778,
                    52.617
                ]
            },
            "properties": {
                "name": "Mount Leinster",
                "article": "https://en.wikipedia.org/wiki/Mount_Leinster"
            }
        },