{
    "type": "FeatureCollection",
    "features": [
        {
            "type": "Feature",
            "geometry": {
                "type": "Point",
                "coordinates": [
                    78.393611111,
                    42.490555555
                ]
            },
            "properties": {
                "name": "Karakol",
                "article": "https://en.wikipedia.org/wiki/Karakol"
            }
        },
        {
            "type": "Feature",
            "geometry": {
                "type": "Point",
                "coordinates": [
                    80.175,
                    42.210833333
                ]
            },
            "properties": {
                "name": "Khan Tengri",
                "article": "https://en.wikipedia.org/wiki/Khan_Tengri"
            }
        },
        {
            "type": "Feature",
            "geometry": {
                "type": "Point",
                "coordinates": [
                    76.0,
                    41.433333333
                ]
            },
            "properties": {
                "name": "Naryn",
                "article": "https://en.wikipedia.org/wiki/Naryn"
            }
        },
        {
            "type": "Feature",
            "geometry": {
                "type": "Point",
                "coordinates": [
                    80.128713,
                    42.034662
                ]
            },
            "properties": {
                "name": "Jengish Chokusu",
                "article": "https://en.wikipedia.org/wiki/Jengish_Chokusu"
            }
        },
        {
            "type": "Feature",
            "geometry": {
                "type": "Point",
                "coordinates": [
                    75.2667,
                    42.8
                ]
            },
            "properties": {
                "name": "Suyab",
                "article": "https://en.wikipedia.org/wiki/Suyab"
            }
        },
        {
            "type": "Feature",
            "geometry": {
                "type": "Point",
                "coordinates": [
                    70.819444444,
                    40.0625
                ]
            },
            "properties": {
                "name": "Batken",
                "article": "https://en.wikipedia.org/wiki/Batken"
            }
        },
        {
            "type": "Feature",
            "geometry": {
                "type": "Point",
                "coordinates": [
                    72.98611111,
                    40.9375
                ]
            },
            "properties": {
                "name": "Jalal-Abad",
                "article": "https://en.wikipedia.org/wiki/Jalal-Abad"
            }
        },
        {
            "type": "Feature",
            "geometry": {
                "type": "Point",
                "coordinates": [
                    72.233333333,
                    42.525
                ]
            },
            "properties": {
                "name": "Battle of Talas",
                "article": "https://en.wikipedia.org/wiki/Battle_of_Talas"
            }
        },
        {
            "type": "Feature",
            "geometry": {
                "type": "Point",
                "coordinates": [
                    75.691111111,
                    42.786944444
                ]
            },
            "properties": {
                "name": "Kemin",
                "article": "https://en.wikipedia.org/wiki/Kemin"
            }
        },
        {
            "type": "Feature",
            "geometry": {
                "type": "Point",
                "coordinates": [
                    72.783333333,
                    40.529444444
                ]
            },
            "properties": {
                "name": "Sulaiman-Too",
                "article": "https://en.wikipedia.org/wiki/Sulayman_Mountain"
            }
        },
        {
            "type": "Feature",
            "geometry": {
                "type": "Point",
                "coordinates": [
                    73.3,
                    40.766666666
                ]
            },
            "properties": {
                "name": "Özgön",
                "article": "https://en.wikipedia.org/wiki/%C3%96zg%C3%B6n"
            }
        },
        {
            "type": "Feature",
            "geometry": {
                "type": "Point",
                "coordinates": [
                    76.187222222,
                    42.460277777
                ]
            },
            "properties": {
                "name": "Balykchy",
                "article": "https://en.wikipedia.org/wiki/Balykchy"
            }
        },
        {
            "type": "Feature",
            "geometry": {
                "type": "Point",
                "coordinates": [
                    76.183333333,
                    42.466666666
                ]
            },
            "properties": {
                "name": "Balykchy",
                "article": "https://en.wikipedia.org/wiki/Balykchy"
            }
        },
        {
            "type": "Feature",
            "geometry": {
                "type": "Point",
                "coordinates": [
                    72.877897,
                    39.343677
                ]
            },
            "properties": {
                "name": "Lenin Peak",
                "article": "https://en.wikipedia.org/wiki/Lenin_Peak"
            }
        },
        {
            "type": "Feature",
            "geometry": {
                "type": "Point",
                "coordinates": [
                    75.291,
                    42.839
                ]
            },
            "properties": {
                "name": "Tokmok",
                "article": "https://en.wikipedia.org/wiki/Tokmok"
            }
        },
        {
            "type": "Feature",
            "geometry": {
                "type": "Point",
                "coordinates": [
                    75.283333333,
                    40.633333333
                ]
            },
            "properties": {
                "name": "Chatyr-Kul",
                "article": "https://en.wikipedia.org/wiki/Chatyr-K%C3%B6l"
            }
        },
        {
            "type": "Feature",
            "geometry": {
                "type": "Point",
                "coordinates": [
                    73.864722222,
                    42.799166666
                ]
            },
            "properties": {
                "name": "Kaindy",
                "article": "https://en.wikipedia.org/wiki/Kayyngdy"
            }
        },
        {
            "type": "Feature",
            "geometry": {
                "type": "Point",
                "coordinates": [
                    77.082222222,
                    42.649444444
                ]
            },
            "properties": {
                "name": "Cholpon-Ata",
                "article": "https://en.wikipedia.org/wiki/Cholpon-Ata"
            }
        },
        {
            "type": "Feature",
            "geometry": {
                "type": "Point",
                "coordinates": [
                    72.883333333,
                    40.7
                ]
            },
            "properties": {
                "name": "Kara-Suu",
                "article": "https://en.wikipedia.org/wiki/Kara-Suu"
            }
        },
        {
            "type": "Feature",
            "geometry": {
                "type": "Point",
                "coordinates": [
                    74.60015,
                    42.877291666
                ]
            },
            "properties": {
                "name": "White House",
                "article": "https://en.wikipedia.org/wiki/White_House,_Bishkek"
            }
        },
        {
            "type": "Feature",
            "geometry": {
                "type": "Point",
                "coordinates": [
                    71.499207,
                    42.91735
                ]
            },
            "properties": {
                "name": "Kyrgyz Alatau",
                "article": "https://en.wikipedia.org/wiki/Kyrgyz_Ala-Too_Range"
            }
        },
        {
            "type": "Feature",
            "geometry": {
                "type": "Point",
                "coordinates": [
                    73.0,
                    42.5
                ]
            },
            "properties": {
                "name": "Kyrgyz Alatau",
                "article": "https://en.wikipedia.org/wiki/Kyrgyz_Ala-Too_Range"
            }
        },
        {
            "type": "Feature",
            "geometry": {
                "type": "Point",
                "coordinates": [
                    74.583315,
                    42.500028
                ]
            },
            "properties": {
                "name": "Kyrgyz Alatau",
                "article": "https://en.wikipedia.org/wiki/Kyrgyz_Ala-Too_Range"
            }
        },
        {
            "type": "Feature",
            "geometry": {
                "type": "Point",
                "coordinates": [
                    76.14372,
                    42.341239
                ]
            },
            "properties": {
                "name": "Kyrgyz Alatau",
                "article": "https://en.wikipedia.org/wiki/Kyrgyz_Ala-Too_Range"
            }
        },
        {
            "type": "Feature",
            "geometry": {
                "type": "Point",
                "coordinates": [
                    74.6182,
                    42.8224
                ]
            },
            "properties": {
                "name": "American University of Central Asia",
                "article": "https://en.wikipedia.org/wiki/American_University_of_Central_Asia"
            }
        },
        {
            "type": "Feature",
            "geometry": {
                "type": "Point",
                "coordinates": [
                    71.027211111,
                    42.308927777
                ]
            },
            "properties": {
                "name": "Talas Alatau",
                "article": "https://en.wikipedia.org/wiki/Talas_Alatau"
            }
        },
        {
            "type": "Feature",
            "geometry": {
                "type": "Point",
                "coordinates": [
                    72.448039,
                    41.2457479
                ]
            },
            "properties": {
                "name": "Mailuu-Suu",
                "article": "https://en.wikipedia.org/wiki/Mayluu-Suu"
            }
        },
        {
            "type": "Feature",
            "geometry": {
                "type": "Point",
                "coordinates": [
                    74.158333333,
                    42.471666666
                ]
            },
            "properties": {
                "name": "Vladimir Putin Peak",
                "article": "https://en.wikipedia.org/wiki/Vladimir_Putin_Peak"
            }
        },
        {
            "type": "Feature",
            "geometry": {
                "type": "Point",
                "coordinates": [
                    72.666666666,
                    41.633333333
                ]
            },
            "properties": {
                "name": "Karaköl",
                "article": "https://en.wikipedia.org/wiki/Kara-K%C3%B6l"
            }
        },
        {
            "type": "Feature",
            "geometry": {
                "type": "Point",
                "coordinates": [
                    72.95,
                    41.9
                ]
            },
            "properties": {
                "name": "Toktogul",
                "article": "https://en.wikipedia.org/wiki/Toktogul"
            }
        },
        {
            "type": "Feature",
            "geometry": {
                "type": "Point",
                "coordinates": [
                    69.516666666,
                    39.833333333
                ]
            },
            "properties": {
                "name": "Razzakov",
                "article": "https://en.wikipedia.org/wiki/Razzakov"
            }
        },
        {
            "type": "Feature",
            "geometry": {
                "type": "Point",
                "coordinates": [
                    69.5275,
                    39.838888888
                ]
            },
            "properties": {
                "name": "Razzakov",
                "article": "https://en.wikipedia.org/wiki/Razzakov"
            }
        },
        {
            "type": "Feature",
            "geometry": {
                "type": "Point",
                "coordinates": [
                    72.74,
                    41.07
                ]
            },
            "properties": {
                "name": "Bazar-Korgon",
                "article": "https://en.wikipedia.org/wiki/Bazar-Korgon"
            }
        },
        {
            "type": "Feature",
            "geometry": {
                "type": "Point",
                "coordinates": [
                    75.248425,
                    42.74759
                ]
            },
            "properties": {
                "name": "Balasagun",
                "article": "https://en.wikipedia.org/wiki/Balasagun"
            }
        },
        {
            "type": "Feature",
            "geometry": {
                "type": "Point",
                "coordinates": [
                    75.248425,
                    42.74759
                ]
            },
            "properties": {
                "name": "Balasagun",
                "article": "https://en.wikipedia.org/wiki/Balasagun"
            }
        },
        {
            "type": "Feature",
            "geometry": {
                "type": "Point",
                "coordinates": [
                    75.288888888,
                    40.823055555
                ]
            },
            "properties": {
                "name": "Tash Rabat",
                "article": "https://en.wikipedia.org/wiki/Tash_Rabat"
            }
        },
        {
            "type": "Feature",
            "geometry": {
                "type": "Point",
                "coordinates": [
                    78.535555555,
                    42.3175
                ]
            },
            "properties": {
                "name": "Ala-Kul",
                "article": "https://en.wikipedia.org/wiki/Ala-K%C3%B6l"
            }
        },
        {
            "type": "Feature",
            "geometry": {
                "type": "Point",
                "coordinates": [
                    78.5356,
                    42.3175
                ]
            },
            "properties": {
                "name": "Ala-Kul",
                "article": "https://en.wikipedia.org/wiki/Ala-K%C3%B6l"
            }
        },
        {
            "type": "Feature",
            "geometry": {
                "type": "Point",
                "coordinates": [
                    71.333333333,
                    39.933333333
                ]
            },
            "properties": {
                "name": "Khaidarkan",
                "article": "https://en.wikipedia.org/wiki/Aydarken"
            }
        },
        {
            "type": "Feature",
            "geometry": {
                "type": "Point",
                "coordinates": [
                    73.874080555,
                    39.483052777
                ]
            },
            "properties": {
                "name": "Leibniz Peak",
                "article": null
            }
        },
        {
            "type": "Feature",
            "geometry": {
                "type": "Point",
                "coordinates": [
                    71.957331,
                    41.895218
                ]
            },
            "properties": {
                "name": "Lake Sary-Chelek",
                "article": "https://en.wikipedia.org/wiki/Lake_Sary-Chelek"
            }
        },
        {
            "type": "Feature",
            "geometry": {
                "type": "Point",
                "coordinates": [
                    72.481388888,
                    41.035833333
                ]
            },
            "properties": {
                "name": "Kochkor-Ata",
                "article": "https://en.wikipedia.org/wiki/Kochkor-Ata"
            }
        },
        {
            "type": "Feature",
            "geometry": {
                "type": "Point",
                "coordinates": [
                    72.21707,
                    41.34612
                ]
            },
            "properties": {
                "name": "Tash-Kömür",
                "article": "https://en.wikipedia.org/wiki/Tash-K%C3%B6m%C3%BCr"
            }
        },
        {
            "type": "Feature",
            "geometry": {
                "type": "Point",
                "coordinates": [
                    72.216666666,
                    41.35
                ]
            },
            "properties": {
                "name": "Tash-Kömür",
                "article": "https://en.wikipedia.org/wiki/Tash-K%C3%B6m%C3%BCr"
            }
        },
        {
            "type": "Feature",
            "geometry": {
                "type": "Point",
                "coordinates": [
                    75.15,
                    41.85
                ]
            },
            "properties": {
                "name": "Song Kol Lake",
                "article": "https://en.wikipedia.org/wiki/Song-K%C3%B6l"
            }
        },
        {
            "type": "Feature",
            "geometry": {
                "type": "Point",
                "coordinates": [
                    72.11666667,
                    40.25
                ]
            },
            "properties": {
                "name": "Kyzyl-Kiya",
                "article": "https://en.wikipedia.org/wiki/Kyzyl-Kyya"
            }
        },
        {
            "type": "Feature",
            "geometry": {
                "type": "Point",
                "coordinates": [
                    72.128055555,
                    40.256944444
                ]
            },
            "properties": {
                "name": "Kyzyl-Kiya",
                "article": "https://en.wikipedia.org/wiki/Kyzyl-Kyya"
            }
        },
        {
            "type": "Feature",
            "geometry": {
                "type": "Point",
                "coordinates": [
                    72.05,
                    40.266666666
                ]
            },
            "properties": {
                "name": "Kyzyl-Kiya",
                "article": "https://en.wikipedia.org/wiki/Kyzyl-Kyya"
            }
        },
        {
            "type": "Feature",
            "geometry": {
                "type": "Point",
                "coordinates": [
                    71.75,
                    41.5
                ]
            },
            "properties": {
                "name": "Kerben",
                "article": "https://en.wikipedia.org/wiki/Kerben,_Kyrgyzstan"
            }
        },
        {
            "type": "Feature",
            "geometry": {
                "type": "Point",
                "coordinates": [
                    69.566666666,
                    39.933333333
                ]
            },
            "properties": {
                "name": "Sulukta",
                "article": "https://en.wikipedia.org/wiki/S%C3%BCl%C3%BCkt%C3%BC"
            }
        },
        {
            "type": "Feature",
            "geometry": {
                "type": "Point",
                "coordinates": [
                    69.56779,
                    39.93652
                ]
            },
            "properties": {
                "name": "Sulukta",
                "article": "https://en.wikipedia.org/wiki/S%C3%BCl%C3%BCkt%C3%BC"
            }
        },
        {
            "type": "Feature",
            "geometry": {
                "type": "Point",
                "coordinates": [
                    75.588333333,
                    42.7475
                ]
            },
            "properties": {
                "name": "Orlovka",
                "article": "https://en.wikipedia.org/wiki/Orlovka,_Kyrgyzstan"
            }
        },
        {
            "type": "Feature",
            "geometry": {
                "type": "Point",
                "coordinates": [
                    73.25,
                    42.13
                ]
            },
            "properties": {
                "name": "Suusamyr Too",
                "article": "https://en.wikipedia.org/wiki/Suusamyr_Too"
            }
        },
        {
            "type": "Feature",
            "geometry": {
                "type": "Point",
                "coordinates": [
                    74.34217,
                    42.85474
                ]
            },
            "properties": {
                "name": "Shopokov",
                "article": "https://en.wikipedia.org/wiki/Shopokov"
            }
        },
        {
            "type": "Feature",
            "geometry": {
                "type": "Point",
                "coordinates": [
                    76.690021,
                    42.776166
                ]
            },
            "properties": {
                "name": "Kungey Alatau",
                "article": "https://en.wikipedia.org/wiki/K%C3%BCng%C3%B6y_Ala-Too_Range"
            }
        },
        {
            "type": "Feature",
            "geometry": {
                "type": "Point",
                "coordinates": [
                    74.256388888,
                    40.525555555
                ]
            },
            "properties": {
                "name": "Q4246461",
                "article": null
            }
        },
        {
            "type": "Feature",
            "geometry": {
                "type": "Point",
                "coordinates": [
                    74.313055555,
                    40.5425
                ]
            },
            "properties": {
                "name": "Kulun Lake",
                "article": "https://en.wikipedia.org/wiki/Kulun_Lake"
            }
        },
        {
            "type": "Feature",
            "geometry": {
                "type": "Point",
                "coordinates": [
                    71.8445,
                    39.941
                ]
            },
            "properties": {
                "name": "Q4247865",
                "article": null
            }
        },
        {
            "type": "Feature",
            "geometry": {
                "type": "Point",
                "coordinates": [
                    74.67,
                    41.58
                ]
            },
            "properties": {
                "name": "Moldo Too",
                "article": "https://en.wikipedia.org/wiki/Moldo_Too"
            }
        },
        {
            "type": "Feature",
            "geometry": {
                "type": "Point",
                "coordinates": [
                    78.398515,
                    42.15242
                ]
            },
            "properties": {
                "name": "Boris Yeltsin Peak",
                "article": "https://en.wikipedia.org/wiki/Boris_Yeltsin_Peak"
            }
        },
        {
            "type": "Feature",
            "geometry": {
                "type": "Point",
                "coordinates": [
                    74.35472,
                    40.69833
                ]
            },
            "properties": {
                "name": "Q4362533",
                "article": null
            }
        },
        {
            "type": "Feature",
            "geometry": {
                "type": "Point",
                "coordinates": [
                    80.116,
                    42.274361111
                ]
            },
            "properties": {
                "name": "Pik Semjonova",
                "article": "https://en.wikipedia.org/wiki/Semyonov_Peak"
            }
        },
        {
            "type": "Feature",
            "geometry": {
                "type": "Point",
                "coordinates": [
                    77.25,
                    42.416666666
                ]
            },
            "properties": {
                "name": "Issyk-Kul",
                "article": "https://en.wikipedia.org/wiki/Issyk-Kul"
            }
        },
        {
            "type": "Feature",
            "geometry": {
                "type": "Point",
                "coordinates": [
                    72.783333333,
                    40.533333333
                ]
            },
            "properties": {
                "name": "Osh",
                "article": "https://en.wikipedia.org/wiki/Osh"
            }
        },
        {
            "type": "Feature",
            "geometry": {
                "type": "Point",
                "coordinates": [
                    75.882298,
                    40.998946
                ]
            },
            "properties": {
                "name": "Khrebet Atbashi",
                "article": "https://en.wikipedia.org/wiki/At-Bashy_Range"
            }
        },
        {
            "type": "Feature",
            "geometry": {
                "type": "Point",
                "coordinates": [
                    79.8475,
                    42.206944444
                ]
            },
            "properties": {
                "name": "Lake Merzbacher",
                "article": "https://en.wikipedia.org/wiki/Lake_Merzbacher"
            }
        },
        {
            "type": "Feature",
            "geometry": {
                "type": "Point",
                "coordinates": [
                    79.86666667,
                    42.2
                ]
            },
            "properties": {
                "name": "Lake Merzbacher",
                "article": "https://en.wikipedia.org/wiki/Lake_Merzbacher"
            }
        },
        {
            "type": "Feature",
            "geometry": {
                "type": "Point",
                "coordinates": [
                    76.471226,
                    41.359415
                ]
            },
            "properties": {
                "name": "Gory Naryntau",
                "article": null
            }
        },
        {
            "type": "Feature",
            "geometry": {
                "type": "Point",
                "coordinates": [
                    69.635277777,
                    39.635
                ]
            },
            "properties": {
                "name": "Ay-Kul",
                "article": "https://en.wikipedia.org/wiki/Ay-Kul"
            }
        },
        {
            "type": "Feature",
            "geometry": {
                "type": "Point",
                "coordinates": [
                    74.58333334,
                    40.91666668
                ]
            },
            "properties": {
                "name": "Gory Dzhamantau",
                "article": null
            }
        },
        {
            "type": "Feature",
            "geometry": {
                "type": "Point",
                "coordinates": [
                    77.116961111,
                    42.910138888
                ]
            },
            "properties": {
                "name": "Q4159962",
                "article": null
            }
        },
        {
            "type": "Feature",
            "geometry": {
                "type": "Point",
                "coordinates": [
                    77.2869339,
                    41.58473587
                ]
            },
            "properties": {
                "name": "Khrebet Dzhetim",
                "article": null
            }
        },
        {
            "type": "Feature",
            "geometry": {
                "type": "Point",
                "coordinates": [
                    74.380974,
                    42.091837
                ]
            },
            "properties": {
                "name": "Jumgal Too",
                "article": "https://en.wikipedia.org/wiki/Jumgal_Too"
            }
        },
        {
            "type": "Feature",
            "geometry": {
                "type": "Point",
                "coordinates": [
                    75.545176,
                    41.877886
                ]
            },
            "properties": {
                "name": "Songköl Too",
                "article": "https://en.wikipedia.org/wiki/Songk%C3%B6l_Too"
            }
        },
        {
            "type": "Feature",
            "geometry": {
                "type": "Point",
                "coordinates": [
                    74.5579,
                    42.8739
                ]
            },
            "properties": {
                "name": "Q4471120",
                "article": null
            }
        },
        {
            "type": "Feature",
            "geometry": {
                "type": "Point",
                "coordinates": [
                    71.659094444,
                    41.428747222
                ]
            },
            "properties": {
                "name": "Shakh Fazil",
                "article": "https://en.wikipedia.org/wiki/Shakh_Fazil"
            }
        },
        {
            "type": "Feature",
            "geometry": {
                "type": "Point",
                "coordinates": [
                    72.49611111,
                    42.20638889
                ]
            },
            "properties": {
                "name": "Besh-Tash Lake",
                "article": "https://en.wikipedia.org/wiki/Besh-Tash_Lake"
            }
        },
        {
            "type": "Feature",
            "geometry": {
                "type": "Point",
                "coordinates": [
                    72.496666666,
                    42.205555555
                ]
            },
            "properties": {
                "name": "Besh-Tash Lake",
                "article": "https://en.wikipedia.org/wiki/Besh-Tash_Lake"
            }
        },
        {
            "type": "Feature",
            "geometry": {
                "type": "Point",
                "coordinates": [
                    74.6198,
                    42.8754
                ]
            },
            "properties": {
                "name": "Chuy Prospekti",
                "article": "https://en.wikipedia.org/wiki/Ch%C3%BCy_Prospekti"
            }
        },
        {
            "type": "Feature",
            "geometry": {
                "type": "Point",
                "coordinates": [
                    73.566734,
                    39.455933
                ]
            },
            "properties": {
                "name": "Gora Kurumdy",
                "article": "https://en.wikipedia.org/wiki/Kurumdy_Mountain"
            }
        },
        {
            "type": "Feature",
            "geometry": {
                "type": "Point",
                "coordinates": [
                    73.33222222,
                    41.52194444
                ]
            },
            "properties": {
                "name": "Kapka Tash Lake",
                "article": "https://en.wikipedia.org/wiki/Kapka_Tash_Lake"
            }
        },
        {
            "type": "Feature",
            "geometry": {
                "type": "Point",
                "coordinates": [
                    73.335277777,
                    41.521388888
                ]
            },
            "properties": {
                "name": "Kapka Tash Lake",
                "article": "https://en.wikipedia.org/wiki/Kapka_Tash_Lake"
            }
        },
        {
            "type": "Feature",
            "geometry": {
                "type": "Point",
                "coordinates": [
                    73.25833333,
                    41.55777778
                ]
            },
            "properties": {
                "name": "Kara-Suu Lake",
                "article": "https://en.wikipedia.org/wiki/Kara-Suu_Lake"
            }
        },
        {
            "type": "Feature",
            "geometry": {
                "type": "Point",
                "coordinates": [
                    71.08333333,
                    39.44833333
                ]
            },
            "properties": {
                "name": "Pik Tandykul",
                "article": "https://en.wikipedia.org/wiki/Pik_Tandykul"
            }
        },
        {
            "type": "Feature",
            "geometry": {
                "type": "Point",
                "coordinates": [
                    74.6055,
                    42.8634
                ]
            },
            "properties": {
                "name": "Bishkek-2 railway station",
                "article": "https://en.wikipedia.org/wiki/Bishkek-2_railway_station"
            }
        },
        {
            "type": "Feature",
            "geometry": {
                "type": "Point",
                "coordinates": [
                    77.561111111,
                    41.7375
                ]
            },
            "properties": {
                "name": "Chrebet Dzjetim-Bel",
                "article": null
            }
        },
        {
            "type": "Feature",
            "geometry": {
                "type": "Point",
                "coordinates": [
                    75.011446,
                    42.914982
                ]
            },
            "properties": {
                "name": "Navekat",
                "article": "https://en.wikipedia.org/wiki/Navekat"
            }
        },
        {
            "type": "Feature",
            "geometry": {
                "type": "Point",
                "coordinates": [
                    75.011446,
                    42.914982
                ]
            },
            "properties": {
                "name": "Navekat",
                "article": "https://en.wikipedia.org/wiki/Navekat"
            }
        },
        {
            "type": "Feature",
            "geometry": {
                "type": "Point",
                "coordinates": [
                    72.180277777,
                    41.197222222
                ]
            },
            "properties": {
                "name": "Shamaldy-Sai",
                "article": "https://en.wikipedia.org/wiki/Shamaldy-Say"
            }
        },
        {
            "type": "Feature",
            "geometry": {
                "type": "Point",
                "coordinates": [
                    71.63232,
                    39.64176
                ]
            },
            "properties": {
                "name": "Pik Ajdarbek",
                "article": null
            }
        },
        {
            "type": "Feature",
            "geometry": {
                "type": "Point",
                "coordinates": [
                    70.71885,
                    39.619543888
                ]
            },
            "properties": {
                "name": "Pik Skalisty",
                "article": "https://en.wikipedia.org/wiki/Pik_Skalisty_(Kyrgyzstan)"
            }
        },
        {
            "type": "Feature",
            "geometry": {
                "type": "Point",
                "coordinates": [
                    72.342777777,
                    41.843888888
                ]
            },
            "properties": {
                "name": "Atojnakskij Chrebet",
                "article": null
            }
        },
        {
            "type": "Feature",
            "geometry": {
                "type": "Point",
                "coordinates": [
                    73.901478,
                    43.02099
                ]
            },
            "properties": {
                "name": "Kara-Balta",
                "article": null
            }
        },
        {
            "type": "Feature",
            "geometry": {
                "type": "Point",
                "coordinates": [
                    71.0275,
                    42.3097
                ]
            },
            "properties": {
                "name": "Gora Manas",
                "article": null
            }
        },
        {
            "type": "Feature",
            "geometry": {
                "type": "Point",
                "coordinates": [
                    76.8834,
                    41.5506
                ]
            },
            "properties": {
                "name": "Gora Moldobasji",
                "article": null
            }
        },
        {
            "type": "Feature",
            "geometry": {
                "type": "Point",
                "coordinates": [
                    79.631125,
                    42.149807
                ]
            },
            "properties": {
                "name": "Pik Nansena",
                "article": null
            }
        },
        {
            "type": "Feature",
            "geometry": {
                "type": "Point",
                "coordinates": [
                    70.220982,
                    39.56587
                ]
            },
            "properties": {
                "name": "Pik Piramidalnyj",
                "article": null
            }
        },
        {
            "type": "Feature",
            "geometry": {
                "type": "Point",
                "coordinates": [
                    76.395,
                    40.643055555
                ]
            },
            "properties": {
                "name": "Köl-Suu",
                "article": "https://en.wikipedia.org/wiki/K%C3%B6l-Suu"
            }
        },
        {
            "type": "Feature",
            "geometry": {
                "type": "Point",
                "coordinates": [
                    76.40555556,
                    40.63888889
                ]
            },
            "properties": {
                "name": "Köl-Suu",
                "article": "https://en.wikipedia.org/wiki/K%C3%B6l-Suu"
            }
        },
        {
            "type": "Feature",
            "geometry": {
                "type": "Point",
                "coordinates": [
                    74.548297222,
                    42.496055555
                ]
            },
            "properties": {
                "name": "Free Korea Peak",
                "article": "https://en.wikipedia.org/wiki/Free_Korea_Peak"
            }
        },
        {
            "type": "Feature",
            "geometry": {
                "type": "Point",
                "coordinates": [
                    76.710277777,
                    42.245277777
                ]
            },
            "properties": {
                "name": "Q13667827",
                "article": null
            }
        },
        {
            "type": "Feature",
            "geometry": {
                "type": "Point",
                "coordinates": [
                    73.005978888,
                    39.363088055
                ]
            },
            "properties": {
                "name": "Latvia Peak",
                "article": null
            }
        },
        {
            "type": "Feature",
            "geometry": {
                "type": "Point",
                "coordinates": [
                    71.7161,
                    40.0919
                ]
            },
            "properties": {
                "name": "Q16643741",
                "article": null
            }
        },
        {
            "type": "Feature",
            "geometry": {
                "type": "Point",
                "coordinates": [
                    75.916549,
                    42.090691
                ]
            },
            "properties": {
                "name": "Kölukök",
                "article": "https://en.wikipedia.org/wiki/K%C3%B6l%C3%BCk%C3%B6k"
            }
        },
        {
            "type": "Feature",
            "geometry": {
                "type": "Point",
                "coordinates": [
                    79.4735,
                    42.0939
                ]
            },
            "properties": {
                "name": "Pik Alexander von Humboldt",
                "article": null
            }
        },
        {
            "type": "Feature",
            "geometry": {
                "type": "Point",
                "coordinates": [
                    79.828102,
                    42.104894
                ]
            },
            "properties": {
                "name": "Pik Sjokalskogo",
                "article": null
            }
        },
        {
            "type": "Feature",
            "geometry": {
                "type": "Point",
                "coordinates": [
                    74.571662,
                    42.521162
                ]
            },
            "properties": {
                "name": "Pik Semionova Tien-Shanskogo",
                "article": "https://en.wikipedia.org/wiki/Semenov-Tian-Shansky_Peak"
            }
        },
        {
            "type": "Feature",
            "geometry": {
                "type": "Point",
                "coordinates": [
                    77.684178055,
                    41.059438055
                ]
            },
            "properties": {
                "name": "Pik Dankova",
                "article": null
            }
        },
        {
            "type": "Feature",
            "geometry": {
                "type": "Point",
                "coordinates": [
                    78.2195,
                    42.4256
                ]
            },
            "properties": {
                "name": "Q20626211",
                "article": null
            }
        },
        {
            "type": "Feature",
            "geometry": {
                "type": "Point",
                "coordinates": [
                    78.207217,
                    41.820153
                ]
            },
            "properties": {
                "name": "Pik SNK Kirgisii",
                "article": null
            }
        },
        {
            "type": "Feature",
            "geometry": {
                "type": "Point",
                "coordinates": [
                    76.9853,
                    41.8795
                ]
            },
            "properties": {
                "name": "Q20629282",
                "article": null
            }
        },
        {
            "type": "Feature",
            "geometry": {
                "type": "Point",
                "coordinates": [
                    78.467935,
                    42.1699075
                ]
            },
            "properties": {
                "name": "Pik Karakol",
                "article": "https://en.wikipedia.org/wiki/Karakol_Peak"
            }
        },
        {
            "type": "Feature",
            "geometry": {
                "type": "Point",
                "coordinates": [
                    72.782678,
                    39.34567
                ]
            },
            "properties": {
                "name": "Dzerzhinsky Peak",
                "article": null
            }
        },
        {
            "type": "Feature",
            "geometry": {
                "type": "Point",
                "coordinates": [
                    79.884406,
                    42.034401
                ]
            },
            "properties": {
                "name": "Pik Erkindik",
                "article": null
            }
        },
        {
            "type": "Feature",
            "geometry": {
                "type": "Point",
                "coordinates": [
                    80.1355,
                    42.197805555
                ]
            },
            "properties": {
                "name": "Pik Tjapajeva",
                "article": "https://en.wikipedia.org/wiki/Chapaev_Peak"
            }
        },
        {
            "type": "Feature",
            "geometry": {
                "type": "Point",
                "coordinates": [
                    80.087805555,
                    42.186305555
                ]
            },
            "properties": {
                "name": "Pik Maksima Gorkogo",
                "article": null
            }
        },
        {
            "type": "Feature",
            "geometry": {
                "type": "Point",
                "coordinates": [
                    74.566944444,
                    42.506666666
                ]
            },
            "properties": {
                "name": "Korona Peak",
                "article": "https://en.wikipedia.org/wiki/Korona_Peak"
            }
        },
        {
            "type": "Feature",
            "geometry": {
                "type": "Point",
                "coordinates": [
                    78.908,
                    42.036
                ]
            },
            "properties": {
                "name": "Soviet Constitution Peak",
                "article": null
            }
        },
        {
            "type": "Feature",
            "geometry": {
                "type": "Point",
                "coordinates": [
                    78.528839,
                    42.189206
                ]
            },
            "properties": {
                "name": "Djigit Peak",
                "article": null
            }
        },
        {
            "type": "Feature",
            "geometry": {
                "type": "Point",
                "coordinates": [
                    77.335292,
                    41.0279
                ]
            },
            "properties": {
                "name": "Q25379363",
                "article": null
            }
        },
        {
            "type": "Feature",
            "geometry": {
                "type": "Point",
                "coordinates": [
                    77.768692,
                    41.079952
                ]
            },
            "properties": {
                "name": "Q25379375",
                "article": null
            }
        },
        {
            "type": "Feature",
            "geometry": {
                "type": "Point",
                "coordinates": [
                    77.6169,
                    41.0045
                ]
            },
            "properties": {
                "name": "Q25379376",
                "article": null
            }
        },
        {
            "type": "Feature",
            "geometry": {
                "type": "Point",
                "coordinates": [
                    73.653151944,
                    39.469396111
                ]
            },
            "properties": {
                "name": "Sarya Vostoka Peak",
                "article": null
            }
        },
        {
            "type": "Feature",
            "geometry": {
                "type": "Point",
                "coordinates": [
                    75.151388888,
                    42.527777777
                ]
            },
            "properties": {
                "name": "Q25577592",
                "article": null
            }
        },
        {
            "type": "Feature",
            "geometry": {
                "type": "Point",
                "coordinates": [
                    72.411666666,
                    39.864166666
                ]
            },
            "properties": {
                "name": "Chrebet Kitjikalaj",
                "article": null
            }
        },
        {
            "type": "Feature",
            "geometry": {
                "type": "Point",
                "coordinates": [
                    72.30243,
                    39.28406
                ]
            },
            "properties": {
                "name": "Gora Kjok-Tjukur",
                "article": null
            }
        },
        {
            "type": "Feature",
            "geometry": {
                "type": "Point",
                "coordinates": [
                    73.5842,
                    39.24
                ]
            },
            "properties": {
                "name": "Gora Kokchukurbashi",
                "article": null
            }
        },
        {
            "type": "Feature",
            "geometry": {
                "type": "Point",
                "coordinates": [
                    73.112386944,
                    39.463406111
                ]
            },
            "properties": {
                "name": "Pik Obrucheva",
                "article": null
            }
        },
        {
            "type": "Feature",
            "geometry": {
                "type": "Point",
                "coordinates": [
                    73.3911,
                    39.4785
                ]
            },
            "properties": {
                "name": "Pik Pogranitjnikov",
                "article": null
            }
        },
        {
            "type": "Feature",
            "geometry": {
                "type": "Point",
                "coordinates": [
                    72.983333333,
                    39.466666666
                ]
            },
            "properties": {
                "name": "Pik Mira",
                "article": null
            }
        },
        {
            "type": "Feature",
            "geometry": {
                "type": "Point",
                "coordinates": [
                    72.6165,
                    39.7926
                ]
            },
            "properties": {
                "name": "Pik Skobeleva",
                "article": null
            }
        },
        {
            "type": "Feature",
            "geometry": {
                "type": "Point",
                "coordinates": [
                    72.3659,
                    39.37376
                ]
            },
            "properties": {
                "name": "Pik Sverdlova",
                "article": null
            }
        },
        {
            "type": "Feature",
            "geometry": {
                "type": "Point",
                "coordinates": [
                    72.746862,
                    39.372062
                ]
            },
            "properties": {
                "name": "Krasina Peak",
                "article": null
            }
        },
        {
            "type": "Feature",
            "geometry": {
                "type": "Point",
                "coordinates": [
                    70.5817,
                    39.4008
                ]
            },
            "properties": {
                "name": "Pik Igla",
                "article": null
            }
        },
        {
            "type": "Feature",
            "geometry": {
                "type": "Point",
                "coordinates": [
                    73.12161,
                    39.36968
                ]
            },
            "properties": {
                "name": "Korzhenevskogo Peak",
                "article": null
            }
        },
        {
            "type": "Feature",
            "geometry": {
                "type": "Point",
                "coordinates": [
                    70.72649,
                    39.42688
                ]
            },
            "properties": {
                "name": "Alajskij Chrebet",
                "article": null
            }
        },
        {
            "type": "Feature",
            "geometry": {
                "type": "Point",
                "coordinates": [
                    72.717254,
                    39.383865
                ]
            },
            "properties": {
                "name": "Tsjurupy Peak",
                "article": null
            }
        },
        {
            "type": "Feature",
            "geometry": {
                "type": "Point",
                "coordinates": [
                    69.01274,
                    39.48593
                ]
            },
            "properties": {
                "name": "Turkestanskiy Khrebet",
                "article": null
            }
        },
        {
            "type": "Feature",
            "geometry": {
                "type": "Point",
                "coordinates": [
                    73.2,
                    39.866666666
                ]
            },
            "properties": {
                "name": "Khrebet Karakol-Bashi",
                "article": null
            }
        },
        {
            "type": "Feature",
            "geometry": {
                "type": "Point",
                "coordinates": [
                    73.157777777,
                    39.726388888
                ]
            },
            "properties": {
                "name": "Gory Kara-Tebe",
                "article": null
            }
        },
        {
            "type": "Feature",
            "geometry": {
                "type": "Point",
                "coordinates": [
                    76.77,
                    42.1575
                ]
            },
            "properties": {
                "name": "Gora Muyar-Tyube",
                "article": null
            }
        },
        {
            "type": "Feature",
            "geometry": {
                "type": "Point",
                "coordinates": [
                    76.263888888,
                    41.621666666
                ]
            },
            "properties": {
                "name": "Gory Nura",
                "article": null
            }
        },
        {
            "type": "Feature",
            "geometry": {
                "type": "Point",
                "coordinates": [
                    76.119166666,
                    42.335
                ]
            },
            "properties": {
                "name": "Gory Ottuk",
                "article": null
            }
        },
        {
            "type": "Feature",
            "geometry": {
                "type": "Point",
                "coordinates": [
                    78.044444444,
                    42.416111111
                ]
            },
            "properties": {
                "name": "Gora Orgotjor",
                "article": null
            }
        },
        {
            "type": "Feature",
            "geometry": {
                "type": "Point",
                "coordinates": [
                    71.149722222,
                    41.8825
                ]
            },
            "properties": {
                "name": "Tjandalasjskij Chrebet",
                "article": null
            }
        },
        {
            "type": "Feature",
            "geometry": {
                "type": "Point",
                "coordinates": [
                    78.791666666,
                    42.741111111
                ]
            },
            "properties": {
                "name": "Gora Sarytologoj",
                "article": null
            }
        },
        {
            "type": "Feature",
            "geometry": {
                "type": "Point",
                "coordinates": [
                    78.5,
                    42.433333333
                ]
            },
            "properties": {
                "name": "Gory Sarty",
                "article": null
            }
        },
        {
            "type": "Feature",
            "geometry": {
                "type": "Point",
                "coordinates": [
                    78.616666666,
                    42.483333333
                ]
            },
            "properties": {
                "name": "Gory Sary-Kamys",
                "article": null
            }
        },
        {
            "type": "Feature",
            "geometry": {
                "type": "Point",
                "coordinates": [
                    73.799444444,
                    41.232222222
                ]
            },
            "properties": {
                "name": "Chrebet Sary-Dzjon",
                "article": null
            }
        },
        {
            "type": "Feature",
            "geometry": {
                "type": "Point",
                "coordinates": [
                    73.55,
                    40.216666666
                ]
            },
            "properties": {
                "name": "Gora Sary-Tash",
                "article": null
            }
        },
        {
            "type": "Feature",
            "geometry": {
                "type": "Point",
                "coordinates": [
                    74.59,
                    42.68
                ]
            },
            "properties": {
                "name": "Gora Shekule",
                "article": null
            }
        },
        {
            "type": "Feature",
            "geometry": {
                "type": "Point",
                "coordinates": [
                    73.8258,
                    40.0875
                ]
            },
            "properties": {
                "name": "Gora Siyezhnaya",
                "article": null
            }
        },
        {
            "type": "Feature",
            "geometry": {
                "type": "Point",
                "coordinates": [
                    73.783333333,
                    40.833333333
                ]
            },
            "properties": {
                "name": "Gora Souk-Kyr",
                "article": null
            }
        },
        {
            "type": "Feature",
            "geometry": {
                "type": "Point",
                "coordinates": [
                    73.569166666,
                    40.123333333
                ]
            },
            "properties": {
                "name": "Gora Tazdar-Ata",
                "article": null
            }
        },
        {
            "type": "Feature",
            "geometry": {
                "type": "Point",
                "coordinates": [
                    73.011666666,
                    40.108611111
                ]
            },
            "properties": {
                "name": "Gory Taldyk",
                "article": null
            }
        },
        {
            "type": "Feature",
            "geometry": {
                "type": "Point",
                "coordinates": [
                    78.427222222,
                    42.596666666
                ]
            },
            "properties": {
                "name": "Tepke",
                "article": null
            }
        },
        {
            "type": "Feature",
            "geometry": {
                "type": "Point",
                "coordinates": [
                    73.075,
                    40.5842
                ]
            },
            "properties": {
                "name": "Gora Tokda-Gul",
                "article": null
            }
        },
        {
            "type": "Feature",
            "geometry": {
                "type": "Point",
                "coordinates": [
                    78.542777777,
                    42.339722222
                ]
            },
            "properties": {
                "name": "Gory Terimtor",
                "article": null
            }
        },
        {
            "type": "Feature",
            "geometry": {
                "type": "Point",
                "coordinates": [
                    73.435,
                    40.5475
                ]
            },
            "properties": {
                "name": "Gora Torgay-Tyube",
                "article": null
            }
        },
        {
            "type": "Feature",
            "geometry": {
                "type": "Point",
                "coordinates": [
                    78.801944444,
                    42.690277777
                ]
            },
            "properties": {
                "name": "Gory Tosma",
                "article": null
            }
        },
        {
            "type": "Feature",
            "geometry": {
                "type": "Point",
                "coordinates": [
                    78.796388888,
                    42.501666666
                ]
            },
            "properties": {
                "name": "Gora Totugul",
                "article": null
            }
        },
        {
            "type": "Feature",
            "geometry": {
                "type": "Point",
                "coordinates": [
                    72.9708,
                    40.5425
                ]
            },
            "properties": {
                "name": "Tur-Buas Gora",
                "article": null
            }
        },
        {
            "type": "Feature",
            "geometry": {
                "type": "Point",
                "coordinates": [
                    72.7192,
                    40.2717
                ]
            },
            "properties": {
                "name": "Gora Tul'ku-Tyube",
                "article": null
            }
        },
        {
            "type": "Feature",
            "geometry": {
                "type": "Point",
                "coordinates": [
                    73.775833333,
                    40.935555555
                ]
            },
            "properties": {
                "name": "Gory Turgaj-Tebe",
                "article": null
            }
        },
        {
            "type": "Feature",
            "geometry": {
                "type": "Point",
                "coordinates": [
                    72.516666666,
                    40.516666666
                ]
            },
            "properties": {
                "name": "Gora Tyshik-Tash",
                "article": null
            }
        },
        {
            "type": "Feature",
            "geometry": {
                "type": "Point",
                "coordinates": [
                    72.2,
                    40.4042
                ]
            },
            "properties": {
                "name": "Gora Tyuya-Muyun",
                "article": null
            }
        },
        {
            "type": "Feature",
            "geometry": {
                "type": "Point",
                "coordinates": [
                    74.783333333,
                    42.683333333
                ]
            },
            "properties": {
                "name": "Gory Uch-Yemchek",
                "article": null
            }
        },
        {
            "type": "Feature",
            "geometry": {
                "type": "Point",
                "coordinates": [
                    75.8375,
                    42.041388888
                ]
            },
            "properties": {
                "name": "Gory Ukjok",
                "article": null
            }
        },
        {
            "type": "Feature",
            "geometry": {
                "type": "Point",
                "coordinates": [
                    72.353611111,
                    40.385833333
                ]
            },
            "properties": {
                "name": "Gora Ulu-Too",
                "article": null
            }
        },
        {
            "type": "Feature",
            "geometry": {
                "type": "Point",
                "coordinates": [
                    77.1035,
                    42.0632
                ]
            },
            "properties": {
                "name": "Gora Urakyr",
                "article": null
            }
        },
        {
            "type": "Feature",
            "geometry": {
                "type": "Point",
                "coordinates": [
                    73.3225,
                    40.269444444
                ]
            },
            "properties": {
                "name": "Gora Usaz",
                "article": null
            }
        },
        {
            "type": "Feature",
            "geometry": {
                "type": "Point",
                "coordinates": [
                    72.649444444,
                    40.31
                ]
            },
            "properties": {
                "name": "Gora Orto-Kyzyl",
                "article": null
            }
        },
        {
            "type": "Feature",
            "geometry": {
                "type": "Point",
                "coordinates": [
                    77.412222222,
                    42.091111111
                ]
            },
            "properties": {
                "name": "Gory Uzunkyr",
                "article": null
            }
        },
        {
            "type": "Feature",
            "geometry": {
                "type": "Point",
                "coordinates": [
                    72.634166666,
                    40.358888888
                ]
            },
            "properties": {
                "name": "Gory Jalgyzartja",
                "article": null
            }
        },
        {
            "type": "Feature",
            "geometry": {
                "type": "Point",
                "coordinates": [
                    72.223055555,
                    41.8925
                ]
            },
            "properties": {
                "name": "Chrebet Uzun Achmat Tau",
                "article": null
            }
        },
        {
            "type": "Feature",
            "geometry": {
                "type": "Point",
                "coordinates": [
                    72.216666666,
                    40.1
                ]
            },
            "properties": {
                "name": "Gory Yaurun-Tuz",
                "article": null
            }
        },
        {
            "type": "Feature",
            "geometry": {
                "type": "Point",
                "coordinates": [
                    76.0446,
                    42.0146
                ]
            },
            "properties": {
                "name": "Gory Ulachol",
                "article": null
            }
        },
        {
            "type": "Feature",
            "geometry": {
                "type": "Point",
                "coordinates": [
                    76.766666666,
                    42.75
                ]
            },
            "properties": {
                "name": "Gory Zhar-Bulak",
                "article": null
            }
        },
        {
            "type": "Feature",
            "geometry": {
                "type": "Point",
                "coordinates": [
                    74.583333333,
                    42.5
                ]
            },
            "properties": {
                "name": "Pik Zapadnyy Alamedin",
                "article": null
            }
        },
        {
            "type": "Feature",
            "geometry": {
                "type": "Point",
                "coordinates": [
                    79.58156,
                    42.45931
                ]
            },
            "properties": {
                "name": "Gora Ajusaj",
                "article": null
            }
        },
        {
            "type": "Feature",
            "geometry": {
                "type": "Point",
                "coordinates": [
                    70.8651,
                    42.0553
                ]
            },
            "properties": {
                "name": "Gora Beshtor",
                "article": null
            }
        },
        {
            "type": "Feature",
            "geometry": {
                "type": "Point",
                "coordinates": [
                    72.35747,
                    42.74373
                ]
            },
            "properties": {
                "name": "Gora Chal",
                "article": null
            }
        },
        {
            "type": "Feature",
            "geometry": {
                "type": "Point",
                "coordinates": [
                    77.28,
                    42.907777777
                ]
            },
            "properties": {
                "name": "Mount Eshenbulak",
                "article": null
            }
        },
        {
            "type": "Feature",
            "geometry": {
                "type": "Point",
                "coordinates": [
                    70.46433,
                    41.71416
                ]
            },
            "properties": {
                "name": "Keksujskij Chrebet",
                "article": null
            }
        },
        {
            "type": "Feature",
            "geometry": {
                "type": "Point",
                "coordinates": [
                    76.9658,
                    42.9842
                ]
            },
            "properties": {
                "name": "Gora Ozërnaya",
                "article": null
            }
        },
        {
            "type": "Feature",
            "geometry": {
                "type": "Point",
                "coordinates": [
                    70.75668,
                    41.92037
                ]
            },
            "properties": {
                "name": "Pskemskij Chrebet",
                "article": null
            }
        },
        {
            "type": "Feature",
            "geometry": {
                "type": "Point",
                "coordinates": [
                    73.332777777,
                    39.47
                ]
            },
            "properties": {
                "name": "Pik Archar",
                "article": null
            }
        },
        {
            "type": "Feature",
            "geometry": {
                "type": "Point",
                "coordinates": [
                    73.25,
                    39.966666666
                ]
            },
            "properties": {
                "name": "Gory Chagyr-Bashi",
                "article": null
            }
        },
        {
            "type": "Feature",
            "geometry": {
                "type": "Point",
                "coordinates": [
                    73.416666666,
                    39.983333333
                ]
            },
            "properties": {
                "name": "Gory Irgayly Bashi",
                "article": null
            }
        },
        {
            "type": "Feature",
            "geometry": {
                "type": "Point",
                "coordinates": [
                    73.914722222,
                    40.608333333
                ]
            },
            "properties": {
                "name": "Gora Tjong-Boor-Too",
                "article": null
            }
        },
        {
            "type": "Feature",
            "geometry": {
                "type": "Point",
                "coordinates": [
                    75.6113,
                    41.6385
                ]
            },
            "properties": {
                "name": "Gora Chekudzhaylo",
                "article": null
            }
        },
        {
            "type": "Feature",
            "geometry": {
                "type": "Point",
                "coordinates": [
                    72.883333333,
                    40.966666666
                ]
            },
            "properties": {
                "name": "Gory Chichirchik",
                "article": null
            }
        },
        {
            "type": "Feature",
            "geometry": {
                "type": "Point",
                "coordinates": [
                    72.041944444,
                    41.3325
                ]
            },
            "properties": {
                "name": "Gory Tjar-Tasj",
                "article": null
            }
        },
        {
            "type": "Feature",
            "geometry": {
                "type": "Point",
                "coordinates": [
                    76.795,
                    42.0525
                ]
            },
            "properties": {
                "name": "Gora Chichikty-Tau",
                "article": null
            }
        },
        {
            "type": "Feature",
            "geometry": {
                "type": "Point",
                "coordinates": [
                    78.637222222,
                    42.651388888
                ]
            },
            "properties": {
                "name": "Gory Tjimtosma",
                "article": null
            }
        },
        {
            "type": "Feature",
            "geometry": {
                "type": "Point",
                "coordinates": [
                    72.53285,
                    40.53777
                ]
            },
            "properties": {
                "name": "Gory Tjilustun",
                "article": null
            }
        },
        {
            "type": "Feature",
            "geometry": {
                "type": "Point",
                "coordinates": [
                    76.6925,
                    42.775833333
                ]
            },
            "properties": {
                "name": "Gora Tjok-Tal",
                "article": null
            }
        },
        {
            "type": "Feature",
            "geometry": {
                "type": "Point",
                "coordinates": [
                    78.9475,
                    42.684444444
                ]
            },
            "properties": {
                "name": "Gory Tjubardzjan",
                "article": null
            }
        },
        {
            "type": "Feature",
            "geometry": {
                "type": "Point",
                "coordinates": [
                    73.966944444,
                    40.860277777
                ]
            },
            "properties": {
                "name": "Chrebet Deldektau",
                "article": null
            }
        },
        {
            "type": "Feature",
            "geometry": {
                "type": "Point",
                "coordinates": [
                    72.15,
                    40.366666666
                ]
            },
            "properties": {
                "name": "Gora Dastar",
                "article": null
            }
        },
        {
            "type": "Feature",
            "geometry": {
                "type": "Point",
                "coordinates": [
                    76.6295,
                    42.146
                ]
            },
            "properties": {
                "name": "Gora Duana",
                "article": null
            }
        },
        {
            "type": "Feature",
            "geometry": {
                "type": "Point",
                "coordinates": [
                    77.554444444,
                    42.858888888
                ]
            },
            "properties": {
                "name": "Gora Dzjanadzjajlau",
                "article": null
            }
        },
        {
            "type": "Feature",
            "geometry": {
                "type": "Point",
                "coordinates": [
                    75.193888888,
                    41.029444444
                ]
            },
            "properties": {
                "name": "Chrebet Ojnakdzjar",
                "article": null
            }
        },
        {
            "type": "Feature",
            "geometry": {
                "type": "Point",
                "coordinates": [
                    75.012222222,
                    40.849722222
                ]
            },
            "properties": {
                "name": "Gora Tjistiobjo",
                "article": null
            }
        },
        {
            "type": "Feature",
            "geometry": {
                "type": "Point",
                "coordinates": [
                    75.001666666,
                    40.906111111
                ]
            },
            "properties": {
                "name": "Gora Karatologoj",
                "article": null
            }
        },
        {
            "type": "Feature",
            "geometry": {
                "type": "Point",
                "coordinates": [
                    75.289444444,
                    41.053333333
                ]
            },
            "properties": {
                "name": "Chrebet Kumbel",
                "article": null
            }
        },
        {
            "type": "Feature",
            "geometry": {
                "type": "Point",
                "coordinates": [
                    75.368055555,
                    41.179722222
                ]
            },
            "properties": {
                "name": "Gory Kuturgan",
                "article": null
            }
        },
        {
            "type": "Feature",
            "geometry": {
                "type": "Point",
                "coordinates": [
                    75.755833333,
                    41.148611111
                ]
            },
            "properties": {
                "name": "Gora Tjesjtobe",
                "article": null
            }
        },
        {
            "type": "Feature",
            "geometry": {
                "type": "Point",
                "coordinates": [
                    75.438611111,
                    41.213055555
                ]
            },
            "properties": {
                "name": "Gora Aksaraj",
                "article": null
            }
        },
        {
            "type": "Feature",
            "geometry": {
                "type": "Point",
                "coordinates": [
                    72.5,
                    41.333333333
                ]
            },
            "properties": {
                "name": "Gory Angrek-Tau",
                "article": null
            }
        },
        {
            "type": "Feature",
            "geometry": {
                "type": "Point",
                "coordinates": [
                    72.8,
                    40.033333333
                ]
            },
            "properties": {
                "name": "Gory Dzhilandy",
                "article": null
            }
        },
        {
            "type": "Feature",
            "geometry": {
                "type": "Point",
                "coordinates": [
                    73.1739,
                    40.2216
                ]
            },
            "properties": {
                "name": "Gora Dzhumbak Bashi",
                "article": null
            }
        },
        {
            "type": "Feature",
            "geometry": {
                "type": "Point",
                "coordinates": [
                    74.072777777,
                    40.919444444
                ]
            },
            "properties": {
                "name": "Feranskij Chrebet",
                "article": null
            }
        },
        {
            "type": "Feature",
            "geometry": {
                "type": "Point",
                "coordinates": [
                    73.033333333,
                    40.2
                ]
            },
            "properties": {
                "name": "Gory Gulu-Kan",
                "article": null
            }
        },
        {
            "type": "Feature",
            "geometry": {
                "type": "Point",
                "coordinates": [
                    73.1054,
                    40.5775
                ]
            },
            "properties": {
                "name": "Gora Gundey",
                "article": null
            }
        },
        {
            "type": "Feature",
            "geometry": {
                "type": "Point",
                "coordinates": [
                    72.221111111,
                    40.150833333
                ]
            },
            "properties": {
                "name": "Gory Geozan",
                "article": null
            }
        },
        {
            "type": "Feature",
            "geometry": {
                "type": "Point",
                "coordinates": [
                    72.6692,
                    41.325
                ]
            },
            "properties": {
                "name": "Gora Id-Bashi",
                "article": null
            }
        },
        {
            "type": "Feature",
            "geometry": {
                "type": "Point",
                "coordinates": [
                    78.578611111,
                    42.687777777
                ]
            },
            "properties": {
                "name": "Gory Itjketosma",
                "article": null
            }
        },
        {
            "type": "Feature",
            "geometry": {
                "type": "Point",
                "coordinates": [
                    72.888611111,
                    41.603888888
                ]
            },
            "properties": {
                "name": "Chrebet Isfandzjajlo",
                "article": null
            }
        },
        {
            "type": "Feature",
            "geometry": {
                "type": "Point",
                "coordinates": [
                    77.934166666,
                    42.013888888
                ]
            },
            "properties": {
                "name": "Gora Ittisj",
                "article": null
            }
        },
        {
            "type": "Feature",
            "geometry": {
                "type": "Point",
                "coordinates": [
                    74.173888888,
                    41.546944444
                ]
            },
            "properties": {
                "name": "Gory Kaaktau",
                "article": null
            }
        },
        {
            "type": "Feature",
            "geometry": {
                "type": "Point",
                "coordinates": [
                    72.605,
                    40.4883
                ]
            },
            "properties": {
                "name": "Kaklik-Uchar Gora",
                "article": null
            }
        },
        {
            "type": "Feature",
            "geometry": {
                "type": "Point",
                "coordinates": [
                    78.485,
                    42.461111111
                ]
            },
            "properties": {
                "name": "Gory Karabeltek",
                "article": null
            }
        },
        {
            "type": "Feature",
            "geometry": {
                "type": "Point",
                "coordinates": [
                    76.615833333,
                    41.829444444
                ]
            },
            "properties": {
                "name": "Gory Karagoman",
                "article": null
            }
        },
        {
            "type": "Feature",
            "geometry": {
                "type": "Point",
                "coordinates": [
                    76.321111111,
                    41.813055555
                ]
            },
            "properties": {
                "name": "Chrebet Karadzjorga",
                "article": null
            }
        },
        {
            "type": "Feature",
            "geometry": {
                "type": "Point",
                "coordinates": [
                    72.766666666,
                    40.916666666
                ]
            },
            "properties": {
                "name": "Gory Kara-Kijakyr",
                "article": null
            }
        },
        {
            "type": "Feature",
            "geometry": {
                "type": "Point",
                "coordinates": [
                    75.573333333,
                    41.968333333
                ]
            },
            "properties": {
                "name": "Chrebet Karakatty",
                "article": null
            }
        },
        {
            "type": "Feature",
            "geometry": {
                "type": "Point",
                "coordinates": [
                    73.406111111,
                    40.029722222
                ]
            },
            "properties": {
                "name": "Gory Kara-Kol",
                "article": null
            }
        },
        {
            "type": "Feature",
            "geometry": {
                "type": "Point",
                "coordinates": [
                    76.6375,
                    42.203055555
                ]
            },
            "properties": {
                "name": "Gora Karatiobjo",
                "article": null
            }
        },
        {
            "type": "Feature",
            "geometry": {
                "type": "Point",
                "coordinates": [
                    75.540833333,
                    41.293611111
                ]
            },
            "properties": {
                "name": "Chrebet Karatau",
                "article": null
            }
        },
        {
            "type": "Feature",
            "geometry": {
                "type": "Point",
                "coordinates": [
                    78.646944444,
                    42.391666666
                ]
            },
            "properties": {
                "name": "Gory Kuugan",
                "article": null
            }
        },
        {
            "type": "Feature",
            "geometry": {
                "type": "Point",
                "coordinates": [
                    77.433333333,
                    42.183333333
                ]
            },
            "properties": {
                "name": "Ostrov Kayrak",
                "article": null
            }
        },
        {
            "type": "Feature",
            "geometry": {
                "type": "Point",
                "coordinates": [
                    70.9662,
                    41.3015
                ]
            },
            "properties": {
                "name": "Gora Kekbet",
                "article": null
            }
        },
        {
            "type": "Feature",
            "geometry": {
                "type": "Point",
                "coordinates": [
                    77.5571,
                    42.7976
                ]
            },
            "properties": {
                "name": "Gora Koktiube",
                "article": null
            }
        },
        {
            "type": "Feature",
            "geometry": {
                "type": "Point",
                "coordinates": [
                    73.759166666,
                    41.555
                ]
            },
            "properties": {
                "name": "Chrebet Kjok-Irim-Too",
                "article": null
            }
        },
        {
            "type": "Feature",
            "geometry": {
                "type": "Point",
                "coordinates": [
                    76.8558,
                    42.1742
                ]
            },
            "properties": {
                "name": "Gora Kizyl-Eske",
                "article": null
            }
        },
        {
            "type": "Feature",
            "geometry": {
                "type": "Point",
                "coordinates": [
                    73.454444444,
                    40.793611111
                ]
            },
            "properties": {
                "name": "Khrebet Kizyl-Kiya",
                "article": null
            }
        },
        {
            "type": "Feature",
            "geometry": {
                "type": "Point",
                "coordinates": [
                    76.621111111,
                    42.698333333
                ]
            },
            "properties": {
                "name": "Gora Kuldzja-Dzjajloo",
                "article": null
            }
        },
        {
            "type": "Feature",
            "geometry": {
                "type": "Point",
                "coordinates": [
                    72.952222222,
                    41.713333333
                ]
            },
            "properties": {
                "name": "Gory Kotjkartiube",
                "article": null
            }
        },
        {
            "type": "Feature",
            "geometry": {
                "type": "Point",
                "coordinates": [
                    73.75,
                    41.116666666
                ]
            },
            "properties": {
                "name": "Khrebet Kok-Don-Tau",
                "article": null
            }
        },
        {
            "type": "Feature",
            "geometry": {
                "type": "Point",
                "coordinates": [
                    73.7625,
                    40.225833333
                ]
            },
            "properties": {
                "name": "Chrebet Kek-Bulan",
                "article": null
            }
        },
        {
            "type": "Feature",
            "geometry": {
                "type": "Point",
                "coordinates": [
                    72.5342,
                    41.2758
                ]
            },
            "properties": {
                "name": "Gora Kol'men",
                "article": null
            }
        },
        {
            "type": "Feature",
            "geometry": {
                "type": "Point",
                "coordinates": [
                    76.516666666,
                    42.283333333
                ]
            },
            "properties": {
                "name": "Gora Kok-Tyube",
                "article": null
            }
        },
        {
            "type": "Feature",
            "geometry": {
                "type": "Point",
                "coordinates": [
                    73.636111111,
                    40.6125
                ]
            },
            "properties": {
                "name": "Gora Kjok-Dzjar",
                "article": null
            }
        },
        {
            "type": "Feature",
            "geometry": {
                "type": "Point",
                "coordinates": [
                    73.342222222,
                    40.391111111
                ]
            },
            "properties": {
                "name": "Gory Konur-Tyube",
                "article": null
            }
        },
        {
            "type": "Feature",
            "geometry": {
                "type": "Point",
                "coordinates": [
                    70.9575,
                    41.2775
                ]
            },
            "properties": {
                "name": "Chrebet Kek-Ala",
                "article": null
            }
        },
        {
            "type": "Feature",
            "geometry": {
                "type": "Point",
                "coordinates": [
                    73.345833333,
                    40.578333333
                ]
            },
            "properties": {
                "name": "Gora Korul-Tyube",
                "article": null
            }
        },
        {
            "type": "Feature",
            "geometry": {
                "type": "Point",
                "coordinates": [
                    73.331666666,
                    40.181111111
                ]
            },
            "properties": {
                "name": "Gory Kum-Bel",
                "article": null
            }
        },
        {
            "type": "Feature",
            "geometry": {
                "type": "Point",
                "coordinates": [
                    72.536388888,
                    40.412222222
                ]
            },
            "properties": {
                "name": "Gora Keksaraj",
                "article": null
            }
        },
        {
            "type": "Feature",
            "geometry": {
                "type": "Point",
                "coordinates": [
                    74.441388888,
                    40.4125
                ]
            },
            "properties": {
                "name": "Gora Kungarlyk-Karakyr",
                "article": null
            }
        },
        {
            "type": "Feature",
            "geometry": {
                "type": "Point",
                "coordinates": [
                    71.796111111,
                    42.263055555
                ]
            },
            "properties": {
                "name": "Pik Kumysjtag",
                "article": null
            }
        },
        {
            "type": "Feature",
            "geometry": {
                "type": "Point",
                "coordinates": [
                    79.081388888,
                    42.743611111
                ]
            },
            "properties": {
                "name": "Gory Kyltjikbaj",
                "article": null
            }
        },
        {
            "type": "Feature",
            "geometry": {
                "type": "Point",
                "coordinates": [
                    73.897222222,
                    41.196944444
                ]
            },
            "properties": {
                "name": "Gora Kyr-Tasj",
                "article": null
            }
        },
        {
            "type": "Feature",
            "geometry": {
                "type": "Point",
                "coordinates": [
                    73.900277777,
                    40.205
                ]
            },
            "properties": {
                "name": "Gora Kyzyl-Atyn",
                "article": null
            }
        },
        {
            "type": "Feature",
            "geometry": {
                "type": "Point",
                "coordinates": [
                    73.333333333,
                    41.416666666
                ]
            },
            "properties": {
                "name": "Gory Kyrk-Kichik-Tau",
                "article": null
            }
        },
        {
            "type": "Feature",
            "geometry": {
                "type": "Point",
                "coordinates": [
                    73.511111111,
                    40.646944444
                ]
            },
            "properties": {
                "name": "Gory Kyrk-Kungey",
                "article": null
            }
        },
        {
            "type": "Feature",
            "geometry": {
                "type": "Point",
                "coordinates": [
                    72.5,
                    40.316666666
                ]
            },
            "properties": {
                "name": "Kyzyl-Küngöy Toosu",
                "article": null
            }
        },
        {
            "type": "Feature",
            "geometry": {
                "type": "Point",
                "coordinates": [
                    78.333333333,
                    42.683333333
                ]
            },
            "properties": {
                "name": "Gora Malaya Sary-Tyube",
                "article": null
            }
        },
        {
            "type": "Feature",
            "geometry": {
                "type": "Point",
                "coordinates": [
                    73.732222222,
                    41.258611111
                ]
            },
            "properties": {
                "name": "Chrebet Maadysj",
                "article": null
            }
        },
        {
            "type": "Feature",
            "geometry": {
                "type": "Point",
                "coordinates": [
                    77.545555555,
                    42.093888888
                ]
            },
            "properties": {
                "name": "Gora Majdaadyr",
                "article": null
            }
        },
        {
            "type": "Feature",
            "geometry": {
                "type": "Point",
                "coordinates": [
                    76.552777777,
                    42.186666666
                ]
            },
            "properties": {
                "name": "Gora Mojnok",
                "article": null
            }
        },
        {
            "type": "Feature",
            "geometry": {
                "type": "Point",
                "coordinates": [
                    72.4835,
                    40.2323
                ]
            },
            "properties": {
                "name": "Gora Mechet'-Miya",
                "article": null
            }
        },
        {
            "type": "Feature",
            "geometry": {
                "type": "Point",
                "coordinates": [
                    78.965230333,
                    42.047227333
                ]
            },
            "properties": {
                "name": "Pik Karpinskogo",
                "article": null
            }
        },
        {
            "type": "Feature",
            "geometry": {
                "type": "Point",
                "coordinates": [
                    72.685555555,
                    41.323888888
                ]
            },
            "properties": {
                "name": "Chrebet Alasj-Too",
                "article": null
            }
        },
        {
            "type": "Feature",
            "geometry": {
                "type": "Point",
                "coordinates": [
                    72.602777777,
                    41.285555555
                ]
            },
            "properties": {
                "name": "Gora Kara-Tasj",
                "article": null
            }
        },
        {
            "type": "Feature",
            "geometry": {
                "type": "Point",
                "coordinates": [
                    72.605555555,
                    41.245
                ]
            },
            "properties": {
                "name": "Gora Kitjik-At-Tjabar",
                "article": null
            }
        },
        {
            "type": "Feature",
            "geometry": {
                "type": "Point",
                "coordinates": [
                    72.597222222,
                    41.267222222
                ]
            },
            "properties": {
                "name": "Gora Karatja-Tasj",
                "article": null
            }
        },
        {
            "type": "Feature",
            "geometry": {
                "type": "Point",
                "coordinates": [
                    72.5665,
                    41.3194
                ]
            },
            "properties": {
                "name": "Gora Angerek",
                "article": null
            }
        },
        {
            "type": "Feature",
            "geometry": {
                "type": "Point",
                "coordinates": [
                    72.123333333,
                    41.291388888
                ]
            },
            "properties": {
                "name": "Chrebet Kepeli",
                "article": null
            }
        },
        {
            "type": "Feature",
            "geometry": {
                "type": "Point",
                "coordinates": [
                    72.321388888,
                    41.3325
                ]
            },
            "properties": {
                "name": "Gora Saryk-Tasj",
                "article": null
            }
        },
        {
            "type": "Feature",
            "geometry": {
                "type": "Point",
                "coordinates": [
                    76.506666666,
                    41.346111111
                ]
            },
            "properties": {
                "name": "Gora Besjmojnok",
                "article": null
            }
        },