{
    "type": "FeatureCollection",
    "features": [
        {
            "type": "Feature",
            "geometry": {
                "type": "Point",
                "coordinates": [
                    24.10691667,
                    56.94713889
                ]
            },
            "properties": {
                "name": "House of the Blackheads",
                "article": "https://en.wikipedia.org/wiki/House_of_the_Blackheads_(Riga)"
            }
        },
        {
            "type": "Feature",
            "geometry": {
                "type": "Point",
                "coordinates": [
                    25.274722222,
                    57.313055555
                ]
            },
            "properties": {
                "name": "Battle of Cēsis",
                "article": "https://en.wikipedia.org/wiki/Battle_of_C%C4%93sis_(1919)"
            }
        },
        {
            "type": "Feature",
            "geometry": {
                "type": "Point",
                "coordinates": [
                    24.081111111,
                    56.956111111
                ]
            },
            "properties": {
                "name": "Ķīpsala",
                "article": "https://en.wikipedia.org/wiki/%C4%B6%C4%ABpsala"
            }
        },
        {
            "type": "Feature",
            "geometry": {
                "type": "Point",
                "coordinates": [
                    27.083333333,
                    57.45
                ]
            },
            "properties": {
                "name": "Lake Alūksne",
                "article": "https://en.wikipedia.org/wiki/Lake_Al%C5%ABksne"
            }
        },
        {
            "type": "Feature",
            "geometry": {
                "type": "Point",
                "coordinates": [
                    25.815827777,
                    57.805505555
                ]
            },
            "properties": {
                "name": "Battle of Ergeme",
                "article": "https://en.wikipedia.org/wiki/Battle_of_%C4%92r%C4%A3eme"
            }
        },
        {
            "type": "Feature",
            "geometry": {
                "type": "Point",
                "coordinates": [
                    23.1,
                    57.266666666
                ]
            },
            "properties": {
                "name": "Lake Engure",
                "article": "https://en.wikipedia.org/wiki/Lake_Engure"
            }
        },
        {
            "type": "Feature",
            "geometry": {
                "type": "Point",
                "coordinates": [
                    21.35,
                    56.595
                ]
            },
            "properties": {
                "name": "Battle of Durbe",
                "article": "https://en.wikipedia.org/wiki/Battle_of_Durbe"
            }
        },
        {
            "type": "Feature",
            "geometry": {
                "type": "Point",
                "coordinates": [
                    27.460555555,
                    56.323888888
                ]
            },
            "properties": {
                "name": "Lake Razna",
                "article": "https://en.wikipedia.org/wiki/Lake_R%C4%81zna"
            }
        },
        {
            "type": "Feature",
            "geometry": {
                "type": "Point",
                "coordinates": [
                    24.733333333,
                    56.516666666
                ]
            },
            "properties": {
                "name": "Battle of Wallhof",
                "article": "https://en.wikipedia.org/wiki/Battle_of_Wallhof"
            }
        },
        {
            "type": "Feature",
            "geometry": {
                "type": "Point",
                "coordinates": [
                    23.5253,
                    56.4344
                ]
            },
            "properties": {
                "name": "Battle of Gemauerthof",
                "article": "https://en.wikipedia.org/wiki/Battle_of_Gemauerthof"
            }
        },
        {
            "type": "Feature",
            "geometry": {
                "type": "Point",
                "coordinates": [
                    27.338055555,
                    56.021388888
                ]
            },
            "properties": {
                "name": "Sivers",
                "article": "https://en.wikipedia.org/wiki/Lake_Sivers"
            }
        },
        {
            "type": "Feature",
            "geometry": {
                "type": "Point",
                "coordinates": [
                    24.092777777,
                    57.054722222
                ]
            },
            "properties": {
                "name": "Battle of Daugavgriva",
                "article": "https://en.wikipedia.org/wiki/Battle_of_Daugavgr%C4%ABva_(1609)"
            }
        },
        {
            "type": "Feature",
            "geometry": {
                "type": "Point",
                "coordinates": [
                    25.233333333,
                    57.733333333
                ]
            },
            "properties": {
                "name": "Lake Burtnieks",
                "article": "https://en.wikipedia.org/wiki/Lake_Burtnieks"
            }
        },
        {
            "type": "Feature",
            "geometry": {
                "type": "Point",
                "coordinates": [
                    26.516111111,
                    55.871388888
                ]
            },
            "properties": {
                "name": "Battle of Daugavpils",
                "article": "https://en.wikipedia.org/wiki/Battle_of_Daugavpils"
            }
        },
        {
            "type": "Feature",
            "geometry": {
                "type": "Point",
                "coordinates": [
                    27.305,
                    55.9775
                ]
            },
            "properties": {
                "name": "Lake Drīdzis",
                "article": "https://en.wikipedia.org/wiki/Lake_Dr%C4%ABdzis"
            }
        },
        {
            "type": "Feature",
            "geometry": {
                "type": "Point",
                "coordinates": [
                    22.178611111,
                    57.1725
                ]
            },
            "properties": {
                "name": "Lake Usma",
                "article": null
            }
        },
        {
            "type": "Feature",
            "geometry": {
                "type": "Point",
                "coordinates": [
                    26.858055555,
                    56.765833333
                ]
            },
            "properties": {
                "name": "Lake Lubāns",
                "article": "https://en.wikipedia.org/wiki/Lake_Lub%C4%81ns"
            }
        },
        {
            "type": "Feature",
            "geometry": {
                "type": "Point",
                "coordinates": [
                    25.226,
                    57.776
                ]
            },
            "properties": {
                "name": "Zvejnieki burial ground",
                "article": "https://en.wikipedia.org/wiki/Zvejnieki_burial_ground"
            }
        },
        {
            "type": "Feature",
            "geometry": {
                "type": "Point",
                "coordinates": [
                    24.172,
                    57.0226
                ]
            },
            "properties": {
                "name": "Ķīšezers",
                "article": "https://en.wikipedia.org/wiki/%C4%B6%C4%AB%C5%A1ezers,_Riga"
            }
        },
        {
            "type": "Feature",
            "geometry": {
                "type": "Point",
                "coordinates": [
                    21.066666666,
                    56.466666666
                ]
            },
            "properties": {
                "name": "Liepāja",
                "article": "https://en.wikipedia.org/wiki/Lake_Liep%C4%81ja"
            }
        },
        {
            "type": "Feature",
            "geometry": {
                "type": "Point",
                "coordinates": [
                    27.033333333,
                    56.183333333
                ]
            },
            "properties": {
                "name": "Rušons",
                "article": null
            }
        },
        {
            "type": "Feature",
            "geometry": {
                "type": "Point",
                "coordinates": [
                    25.25,
                    56.6
                ]
            },
            "properties": {
                "name": "Battle of Aizkraukle",
                "article": "https://en.wikipedia.org/wiki/Battle_of_Aizkraukle"
            }
        },
        {
            "type": "Feature",
            "geometry": {
                "type": "Point",
                "coordinates": [
                    25.859572,
                    56.520644
                ]
            },
            "properties": {
                "name": "Krustpils",
                "article": "https://en.wikipedia.org/wiki/Krustpils_Station"
            }
        },
        {
            "type": "Feature",
            "geometry": {
                "type": "Point",
                "coordinates": [
                    24.279225,
                    57.1283
                ]
            },
            "properties": {
                "name": "Carnikava",
                "article": "https://en.wikipedia.org/wiki/Carnikava_Station"
            }
        },
        {
            "type": "Feature",
            "geometry": {
                "type": "Point",
                "coordinates": [
                    24.156311111,
                    56.965502777
                ]
            },
            "properties": {
                "name": "Zemitāni",
                "article": "https://en.wikipedia.org/wiki/Zemit%C4%81ni_Station"
            }
        },
        {
            "type": "Feature",
            "geometry": {
                "type": "Point",
                "coordinates": [
                    24.019969444,
                    56.949686111
                ]
            },
            "properties": {
                "name": "Zolitūde",
                "article": "https://en.wikipedia.org/wiki/Zolit%C5%ABde_Station"
            }
        },
        {
            "type": "Feature",
            "geometry": {
                "type": "Point",
                "coordinates": [
                    24.051553,
                    56.94175
                ]
            },
            "properties": {
                "name": "Zasulauks",
                "article": "https://en.wikipedia.org/wiki/Zasulauks_Station"
            }
        },
        {
            "type": "Feature",
            "geometry": {
                "type": "Point",
                "coordinates": [
                    21.054,
                    56.187
                ]
            },
            "properties": {
                "name": "Lake Pape",
                "article": "https://en.wikipedia.org/wiki/Lake_Pape"
            }
        },
        {
            "type": "Feature",
            "geometry": {
                "type": "Point",
                "coordinates": [
                    24.122222222,
                    56.931388888
                ]
            },
            "properties": {
                "name": "Zaķusala",
                "article": "https://en.wikipedia.org/wiki/Za%C4%B7usala"
            }
        },
        {
            "type": "Feature",
            "geometry": {
                "type": "Point",
                "coordinates": [
                    23.852141666,
                    56.981363888
                ]
            },
            "properties": {
                "name": "Bulduri",
                "article": "https://en.wikipedia.org/wiki/Bulduri_Station"
            }
        },
        {
            "type": "Feature",
            "geometry": {
                "type": "Point",
                "coordinates": [
                    24.280277777,
                    56.978888888
                ]
            },
            "properties": {
                "name": "Jugla Lake",
                "article": "https://en.wikipedia.org/wiki/Jugla_Lake"
            }
        },
        {
            "type": "Feature",
            "geometry": {
                "type": "Point",
                "coordinates": [
                    26.527494,
                    55.874917
                ]
            },
            "properties": {
                "name": "Daugavpils",
                "article": "https://en.wikipedia.org/wiki/Daugavpils_Station"
            }
        },
        {
            "type": "Feature",
            "geometry": {
                "type": "Point",
                "coordinates": [
                    24.121833333,
                    56.946277777
                ]
            },
            "properties": {
                "name": "Rīga Pasažieru",
                "article": "https://en.wikipedia.org/wiki/Riga_Central_Station"
            }
        },
        {
            "type": "Feature",
            "geometry": {
                "type": "Point",
                "coordinates": [
                    26.7,
                    55.7
                ]
            },
            "properties": {
                "name": "Ryčy",
                "article": "https://en.wikipedia.org/wiki/Lake_Rychy"
            }
        },
        {
            "type": "Feature",
            "geometry": {
                "type": "Point",
                "coordinates": [
                    26.71667,
                    55.7
                ]
            },
            "properties": {
                "name": "Ryčy",
                "article": "https://en.wikipedia.org/wiki/Lake_Rychy"
            }
        },
        {
            "type": "Feature",
            "geometry": {
                "type": "Point",
                "coordinates": [
                    24.1097116,
                    56.9590397
                ]
            },
            "properties": {
                "name": "Albert Street",
                "article": "https://en.wikipedia.org/wiki/Albert_Street,_Riga"
            }
        },
        {
            "type": "Feature",
            "geometry": {
                "type": "Point",
                "coordinates": [
                    24.337311,
                    57.182014
                ]
            },
            "properties": {
                "name": "Lilaste",
                "article": "https://en.wikipedia.org/wiki/Lilaste_Station"
            }
        },
        {
            "type": "Feature",
            "geometry": {
                "type": "Point",
                "coordinates": [
                    23.48944445,
                    56.93833334
                ]
            },
            "properties": {
                "name": "Ķemeri",
                "article": "https://en.wikipedia.org/wiki/%C4%B6emeri"
            }
        },
        {
            "type": "Feature",
            "geometry": {
                "type": "Point",
                "coordinates": [
                    26.7871,
                    55.6756
                ]
            },
            "properties": {
                "name": "Ozero Sita",
                "article": null
            }
        },
        {
            "type": "Feature",
            "geometry": {
                "type": "Point",
                "coordinates": [
                    26.79333333,
                    55.67138889
                ]
            },
            "properties": {
                "name": "Ozero Sita",
                "article": null
            }
        },
        {
            "type": "Feature",
            "geometry": {
                "type": "Point",
                "coordinates": [
                    27.09166667,
                    57.58333333
                ]
            },
            "properties": {
                "name": "Lake Murati",
                "article": "https://en.wikipedia.org/wiki/Murati_Lake"
            }
        },
        {
            "type": "Feature",
            "geometry": {
                "type": "Point",
                "coordinates": [
                    24.1097188,
                    56.9554374
                ]
            },
            "properties": {
                "name": "Gallery Park Hotel, Riga",
                "article": "https://en.wikipedia.org/wiki/Gallery_Park_Hotel,_Riga"
            }
        },
        {
            "type": "Feature",
            "geometry": {
                "type": "Point",
                "coordinates": [
                    24.121666666,
                    56.964444444
                ]
            },
            "properties": {
                "name": "Rietumu Capital Centre",
                "article": null
            }
        },
        {
            "type": "Feature",
            "geometry": {
                "type": "Point",
                "coordinates": [
                    23.827971,
                    56.975225
                ]
            },
            "properties": {
                "name": "Avoti railway stop",
                "article": null
            }
        },
        {
            "type": "Feature",
            "geometry": {
                "type": "Point",
                "coordinates": [
                    24.194444444,
                    56.956944444
                ]
            },
            "properties": {
                "name": "Džohara Dudajeva gatve",
                "article": null
            }
        },
        {
            "type": "Feature",
            "geometry": {
                "type": "Point",
                "coordinates": [
                    25.301111111,
                    57.238055555
                ]
            },
            "properties": {
                "name": "Āraiši",
                "article": null
            }
        },
        {
            "type": "Feature",
            "geometry": {
                "type": "Point",
                "coordinates": [
                    23.689419444,
                    56.957172222
                ]
            },
            "properties": {
                "name": "Asari",
                "article": "https://en.wikipedia.org/wiki/Asari_station_(Latvia)"
            }
        },
        {
            "type": "Feature",
            "geometry": {
                "type": "Point",
                "coordinates": [
                    24.079166666,
                    56.9175
                ]
            },
            "properties": {
                "name": "Atgāzene",
                "article": "https://en.wikipedia.org/wiki/Atg%C4%81zene_Station"
            }
        },
        {
            "type": "Feature",
            "geometry": {
                "type": "Point",
                "coordinates": [
                    23.952830555,
                    56.957277777
                ]
            },
            "properties": {
                "name": "Babīte",
                "article": "https://en.wikipedia.org/wiki/Bab%C4%ABte_Station"
            }
        },
        {
            "type": "Feature",
            "geometry": {
                "type": "Point",
                "coordinates": [
                    23.750277777,
                    56.923055555
                ]
            },
            "properties": {
                "name": "Babīte",
                "article": null
            }
        },
        {
            "type": "Feature",
            "geometry": {
                "type": "Point",
                "coordinates": [
                    25.441388888,
                    57.458055555
                ]
            },
            "properties": {
                "name": "Bāle",
                "article": null
            }
        },
        {
            "type": "Feature",
            "geometry": {
                "type": "Point",
                "coordinates": [
                    26.595,
                    55.911944444
                ]
            },
            "properties": {
                "name": "Stropu ezers",
                "article": "https://en.wikipedia.org/wiki/Lake_Stropu"
            }
        },
        {
            "type": "Feature",
            "geometry": {
                "type": "Point",
                "coordinates": [
                    25.558055555,
                    57.558333333
                ]
            },
            "properties": {
                "name": "Brenguļi",
                "article": null
            }
        },
        {
            "type": "Feature",
            "geometry": {
                "type": "Point",
                "coordinates": [
                    27.787777777,
                    56.318888888
                ]
            },
            "properties": {
                "name": "Brodaiža",
                "article": null
            }
        },
        {
            "type": "Feature",
            "geometry": {
                "type": "Point",
                "coordinates": [
                    23.994444444,
                    57.026944444
                ]
            },
            "properties": {
                "name": "Buļļu sala",
                "article": "https://en.wikipedia.org/wiki/Bu%C4%BC%C4%BCu_sala"
            }
        },
        {
            "type": "Feature",
            "geometry": {
                "type": "Point",
                "coordinates": [
                    24.010833333,
                    57.048888888
                ]
            },
            "properties": {
                "name": "Buļļu sala",
                "article": "https://en.wikipedia.org/wiki/Bu%C4%BC%C4%BCu_sala"
            }
        },
        {
            "type": "Feature",
            "geometry": {
                "type": "Point",
                "coordinates": [
                    24.108581,
                    56.95198
                ]
            },
            "properties": {
                "name": "Zigfrīda Annas Meierovica boulevard",
                "article": null
            }
        },
        {
            "type": "Feature",
            "geometry": {
                "type": "Point",
                "coordinates": [
                    26.457967,
                    56.04005
                ]
            },
            "properties": {
                "name": "Vabole Station",
                "article": "https://en.wikipedia.org/wiki/Vabole_Station"
            }
        },
        {
            "type": "Feature",
            "geometry": {
                "type": "Point",
                "coordinates": [
                    23.311666666,
                    56.990277777
                ]
            },
            "properties": {
                "name": "Valguma ezers",
                "article": null
            }
        },
        {
            "type": "Feature",
            "geometry": {
                "type": "Point",
                "coordinates": [
                    25.440833333,
                    57.522222222
                ]
            },
            "properties": {
                "name": "Valmiera Station",
                "article": null
            }
        },
        {
            "type": "Feature",
            "geometry": {
                "type": "Point",
                "coordinates": [
                    24.586944444,
                    57.078611111
                ]
            },
            "properties": {
                "name": "Vangaži",
                "article": null
            }
        },
        {
            "type": "Feature",
            "geometry": {
                "type": "Point",
                "coordinates": [
                    27.58333333,
                    56.16666667
                ]
            },
            "properties": {
                "name": "Ežezers",
                "article": null
            }
        },
        {
            "type": "Feature",
            "geometry": {
                "type": "Point",
                "coordinates": [
                    26.73805556,
                    56.08138889
                ]
            },
            "properties": {
                "name": "Višķi",
                "article": null
            }
        },
        {
            "type": "Feature",
            "geometry": {
                "type": "Point",
                "coordinates": [
                    27.73333333,
                    56.55
                ]
            },
            "properties": {
                "name": "Lielais Ludzas ezers",
                "article": null
            }
        },
        {
            "type": "Feature",
            "geometry": {
                "type": "Point",
                "coordinates": [
                    24.114798,
                    56.945937
                ]
            },
            "properties": {
                "name": "13. janvāra Street",
                "article": null
            }
        },
        {
            "type": "Feature",
            "geometry": {
                "type": "Point",
                "coordinates": [
                    24.114852777,
                    57.074505555
                ]
            },
            "properties": {
                "name": "Vecāķi",
                "article": "https://en.wikipedia.org/wiki/Vec%C4%81%C4%B7i_Station"
            }
        },
        {
            "type": "Feature",
            "geometry": {
                "type": "Point",
                "coordinates": [
                    27.797222222,
                    56.306944444
                ]
            },
            "properties": {
                "name": "Vorzova",
                "article": null
            }
        },
        {
            "type": "Feature",
            "geometry": {
                "type": "Point",
                "coordinates": [
                    24.413888888,
                    57.046666666
                ]
            },
            "properties": {
                "name": "Garkalne",
                "article": null
            }
        },
        {
            "type": "Feature",
            "geometry": {
                "type": "Point",
                "coordinates": [
                    26.488406186,
                    55.852536781
                ]
            },
            "properties": {
                "name": "Grīva",
                "article": null
            }
        },
        {
            "type": "Feature",
            "geometry": {
                "type": "Point",
                "coordinates": [
                    26.561252777,
                    55.886647222
                ]
            },
            "properties": {
                "name": "Gubiščes ezers",
                "article": null
            }
        },
        {
            "type": "Feature",
            "geometry": {
                "type": "Point",
                "coordinates": [
                    24.16603,
                    56.97449
                ]
            },
            "properties": {
                "name": "VEF Culture Palace",
                "article": null
            }
        },
        {
            "type": "Feature",
            "geometry": {
                "type": "Point",
                "coordinates": [
                    23.821586111,
                    56.973686111
                ]
            },
            "properties": {
                "name": "Dzintari",
                "article": "https://en.wikipedia.org/wiki/Dzintari_Station"
            }
        },
        {
            "type": "Feature",
            "geometry": {
                "type": "Point",
                "coordinates": [
                    23.775130555,
                    56.968875
                ]
            },
            "properties": {
                "name": "Dubulti",
                "article": "https://en.wikipedia.org/wiki/Dubulti_Station"
            }
        },
        {
            "type": "Feature",
            "geometry": {
                "type": "Point",
                "coordinates": [
                    26.210388888,
                    56.254444444
                ]
            },
            "properties": {
                "name": "Jersika Station",
                "article": "https://en.wikipedia.org/wiki/Jersika_Station"
            }
        },
        {
            "type": "Feature",
            "geometry": {
                "type": "Point",
                "coordinates": [
                    24.1,
                    56.93888889
                ]
            },
            "properties": {
                "name": "Building of Latvian National Library",
                "article": null
            }
        },
        {
            "type": "Feature",
            "geometry": {
                "type": "Point",
                "coordinates": [
                    26.47,
                    55.714305555
                ]
            },
            "properties": {
                "name": "Zemgale train station",
                "article": null
            }
        },
        {
            "type": "Feature",
            "geometry": {
                "type": "Point",
                "coordinates": [
                    24.113266666,
                    57.036113888
                ]
            },
            "properties": {
                "name": "Ziemeļblāzma",
                "article": "https://en.wikipedia.org/wiki/Zieme%C4%BCbl%C4%81zma_Station"
            }
        },
        {
            "type": "Feature",
            "geometry": {
                "type": "Point",
                "coordinates": [
                    25.173055555,
                    57.199722222
                ]
            },
            "properties": {
                "name": "Ieriķi",
                "article": null
            }
        },
        {
            "type": "Feature",
            "geometry": {
                "type": "Point",
                "coordinates": [
                    23.998322222,
                    56.950747222
                ]
            },
            "properties": {
                "name": "Imanta",
                "article": "https://en.wikipedia.org/wiki/Imanta_Station"
            }
        },
        {
            "type": "Feature",
            "geometry": {
                "type": "Point",
                "coordinates": [
                    23.793,
                    56.9723
                ]
            },
            "properties": {
                "name": "Jomas Street",
                "article": null
            }
        },
        {
            "type": "Feature",
            "geometry": {
                "type": "Point",
                "coordinates": [
                    23.168575,
                    56.965733
                ]
            },
            "properties": {
                "name": "Tukums I",
                "article": "https://en.wikipedia.org/wiki/Tukums_I_Station"
            }
        },
        {
            "type": "Feature",
            "geometry": {
                "type": "Point",
                "coordinates": [
                    24.040053,
                    56.946619
                ]
            },
            "properties": {
                "name": "Depo",
                "article": "https://en.wikipedia.org/wiki/Depo_Station"
            }
        },
        {
            "type": "Feature",
            "geometry": {
                "type": "Point",
                "coordinates": [
                    23.336847,
                    56.955233
                ]
            },
            "properties": {
                "name": "Smārde",
                "article": "https://en.wikipedia.org/wiki/Sm%C4%81rde_Station"
            }
        },
        {
            "type": "Feature",
            "geometry": {
                "type": "Point",
                "coordinates": [
                    23.489642,
                    56.9384
                ]
            },
            "properties": {
                "name": "Ķemeri",
                "article": "https://en.wikipedia.org/wiki/%C4%B6emeri_Station"
            }
        },
        {
            "type": "Feature",
            "geometry": {
                "type": "Point",
                "coordinates": [
                    24.1103,
                    56.9481
                ]
            },
            "properties": {
                "name": "Ekes Konvents",
                "article": null
            }
        },
        {
            "type": "Feature",
            "geometry": {
                "type": "Point",
                "coordinates": [
                    24.509722222,
                    57.064722222
                ]
            },
            "properties": {
                "name": "Krievupe",
                "article": null
            }
        },
        {
            "type": "Feature",
            "geometry": {
                "type": "Point",
                "coordinates": [
                    26.4811,
                    55.758449
                ]
            },
            "properties": {
                "name": "Kurcums railway station",
                "article": null
            }
        },
        {
            "type": "Feature",
            "geometry": {
                "type": "Point",
                "coordinates": [
                    23.232208,
                    56.970247
                ]
            },
            "properties": {
                "name": "Milzkalne",
                "article": "https://en.wikipedia.org/wiki/Milzkalne_Station"
            }
        },
        {
            "type": "Feature",
            "geometry": {
                "type": "Point",
                "coordinates": [
                    26.180978,
                    56.350458
                ]
            },
            "properties": {
                "name": "Līvāni Station",
                "article": "https://en.wikipedia.org/wiki/L%C4%ABv%C4%81ni_Station"
            }
        },
        {
            "type": "Feature",
            "geometry": {
                "type": "Point",
                "coordinates": [
                    25.024166666,
                    57.184166666
                ]
            },
            "properties": {
                "name": "Līgatne",
                "article": null
            }
        },
        {
            "type": "Feature",
            "geometry": {
                "type": "Point",
                "coordinates": [
                    23.869683333,
                    56.982305555
                ]
            },
            "properties": {
                "name": "Lielupe",
                "article": "https://en.wikipedia.org/wiki/Lielupe_Station"
            }
        },
        {
            "type": "Feature",
            "geometry": {
                "type": "Point",
                "coordinates": [
                    26.451961,
                    55.998025
                ]
            },
            "properties": {
                "name": "Līksna Station",
                "article": "https://en.wikipedia.org/wiki/L%C4%ABksna_Station"
            }
        },
        {
            "type": "Feature",
            "geometry": {
                "type": "Point",
                "coordinates": [
                    25.412027777,
                    57.38675
                ]
            },
            "properties": {
                "name": "Lode",
                "article": null
            }
        },
        {
            "type": "Feature",
            "geometry": {
                "type": "Point",
                "coordinates": [
                    24.1183,
                    56.9242
                ]
            },
            "properties": {
                "name": "Lucavsala",
                "article": "https://en.wikipedia.org/wiki/Lucavsala"
            }
        },
        {
            "type": "Feature",
            "geometry": {
                "type": "Point",
                "coordinates": [
                    23.795097222,
                    56.971558333
                ]
            },
            "properties": {
                "name": "Majori",
                "article": "https://en.wikipedia.org/wiki/Majori_Station"
            }
        },
        {
            "type": "Feature",
            "geometry": {
                "type": "Point",
                "coordinates": [
                    26.596666666,
                    55.932222222
                ]
            },
            "properties": {
                "name": "Mazais Stropu ezers",
                "article": null
            }
        },
        {
            "type": "Feature",
            "geometry": {
                "type": "Point",
                "coordinates": [
                    24.129616666,
                    57.018386111
                ]
            },
            "properties": {
                "name": "Mangaļi",
                "article": "https://en.wikipedia.org/wiki/Manga%C4%BCi_Station"
            }
        },
        {
            "type": "Feature",
            "geometry": {
                "type": "Point",
                "coordinates": [
                    25.234444444,
                    57.2075
                ]
            },
            "properties": {
                "name": "Melturi",
                "article": null
            }
        },
        {
            "type": "Feature",
            "geometry": {
                "type": "Point",
                "coordinates": [
                    26.371517,
                    56.135414
                ]
            },
            "properties": {
                "name": "Nīcgale Station",
                "article": "https://en.wikipedia.org/wiki/N%C4%ABcgale_Station"
            }
        },
        {
            "type": "Feature",
            "geometry": {
                "type": "Point",
                "coordinates": [
                    21.643888888,
                    57.445277777
                ]
            },
            "properties": {
                "name": "Būšnieku ezers",
                "article": null
            }
        },
        {
            "type": "Feature",
            "geometry": {
                "type": "Point",
                "coordinates": [
                    26.52864,
                    55.89457
                ]
            },
            "properties": {
                "name": "Saint Petersburg – Warsaw railway station in Daugavpils",
                "article": null
            }
        },
        {
            "type": "Feature",
            "geometry": {
                "type": "Point",
                "coordinates": [
                    27.783333333,
                    56.466666666
                ]
            },
            "properties": {
                "name": "Q4362681",
                "article": null
            }
        },
        {
            "type": "Feature",
            "geometry": {
                "type": "Point",
                "coordinates": [
                    23.724166666,
                    56.661388888
                ]
            },
            "properties": {
                "name": "Q4362806",
                "article": null
            }
        },
        {
            "type": "Feature",
            "geometry": {
                "type": "Point",
                "coordinates": [
                    23.887019444,
                    56.971572222
                ]
            },
            "properties": {
                "name": "Priedaine",
                "article": "https://en.wikipedia.org/wiki/Priedaine_Station"
            }
        },
        {
            "type": "Feature",
            "geometry": {
                "type": "Point",
                "coordinates": [
                    21.594722,
                    56.4434167
                ]
            },
            "properties": {
                "name": "Priekule train station",
                "article": null
            }
        },
        {
            "type": "Feature",
            "geometry": {
                "type": "Point",
                "coordinates": [
                    23.736675,
                    56.960075
                ]
            },
            "properties": {
                "name": "Pumpuri",
                "article": "https://en.wikipedia.org/wiki/Pumpuri_Station"
            }
        },
        {
            "type": "Feature",
            "geometry": {
                "type": "Point",
                "coordinates": [
                    24.08875,
                    56.948305555
                ]
            },
            "properties": {
                "name": "Riga Yacht Club",
                "article": null
            }
        },
        {
            "type": "Feature",
            "geometry": {
                "type": "Point",
                "coordinates": [
                    25.893055555,
                    57.693611111
                ]
            },
            "properties": {
                "name": "Saule",
                "article": null
            }
        },
        {
            "type": "Feature",
            "geometry": {
                "type": "Point",
                "coordinates": [
                    24.853888888,
                    57.153055555
                ]
            },
            "properties": {
                "name": "Sigulda",
                "article": null
            }
        },
        {
            "type": "Feature",
            "geometry": {
                "type": "Point",
                "coordinates": [
                    25.778487,
                    56.386896
                ]
            },
            "properties": {
                "name": "Siliņi railway station",
                "article": null
            }
        },
        {
            "type": "Feature",
            "geometry": {
                "type": "Point",
                "coordinates": [
                    23.618038888,
                    56.947425
                ]
            },
            "properties": {
                "name": "Sloka",
                "article": "https://en.wikipedia.org/wiki/Sloka_Station"
            }
        },
        {
            "type": "Feature",
            "geometry": {
                "type": "Point",
                "coordinates": [
                    25.699166666,
                    57.634166666
                ]
            },
            "properties": {
                "name": "Strenči",
                "article": null
            }
        },
        {
            "type": "Feature",
            "geometry": {
                "type": "Point",
                "coordinates": [
                    22.596388888,
                    57.243055555
                ]
            },
            "properties": {
                "name": "Talsu",
                "article": null
            }
        },
        {
            "type": "Feature",
            "geometry": {
                "type": "Point",
                "coordinates": [
                    22.803888888,
                    57.034444444
                ]
            },
            "properties": {
                "name": "Q4456566",
                "article": null
            }
        },
        {
            "type": "Feature",
            "geometry": {
                "type": "Point",
                "coordinates": [
                    26.075778,
                    56.438836
                ]
            },
            "properties": {
                "name": "Trepe Station",
                "article": "https://en.wikipedia.org/wiki/Trepe_Station"
            }
        },
        {
            "type": "Feature",
            "geometry": {
                "type": "Point",
                "coordinates": [
                    24.1239811,
                    56.9580994
                ]
            },
            "properties": {
                "name": "Corner House",
                "article": "https://en.wikipedia.org/wiki/Corner_House_(Riga)"
            }
        },
        {
            "type": "Feature",
            "geometry": {
                "type": "Point",
                "coordinates": [
                    24.10278,
                    56.91806
                ]
            },
            "properties": {
                "name": "Bauskas Street",
                "article": null
            }
        },
        {
            "type": "Feature",
            "geometry": {
                "type": "Point",
                "coordinates": [
                    24.113222222,
                    56.951555555
                ]
            },
            "properties": {
                "name": "Brīvības Street",
                "article": "https://en.wikipedia.org/wiki/Br%C4%ABv%C4%ABbas_iela"
            }
        },
        {
            "type": "Feature",
            "geometry": {
                "type": "Point",
                "coordinates": [
                    24.105303,
                    56.951386
                ]
            },
            "properties": {
                "name": "Jēkaba Street",
                "article": null
            }
        },
        {
            "type": "Feature",
            "geometry": {
                "type": "Point",
                "coordinates": [
                    24.158888888,
                    56.936388888
                ]
            },
            "properties": {
                "name": "Valērijas Seiles Street",
                "article": null
            }
        },
        {
            "type": "Feature",
            "geometry": {
                "type": "Point",
                "coordinates": [
                    24.15167,
                    56.95583
                ]
            },
            "properties": {
                "name": "Jāņa Asara Street",
                "article": null
            }
        },
        {
            "type": "Feature",
            "geometry": {
                "type": "Point",
                "coordinates": [
                    24.40177778,
                    56.92022222
                ]
            },
            "properties": {
                "name": "Cekule railway station",
                "article": null
            }
        },
        {
            "type": "Feature",
            "geometry": {
                "type": "Point",
                "coordinates": [
                    25.281944444,
                    57.313055555
                ]
            },
            "properties": {
                "name": "Cēsis",
                "article": null
            }
        },
        {
            "type": "Feature",
            "geometry": {
                "type": "Point",
                "coordinates": [
                    27.6125,
                    56.556666666
                ]
            },
            "properties": {
                "name": "Q4505873",
                "article": null
            }
        },
        {
            "type": "Feature",
            "geometry": {
                "type": "Point",
                "coordinates": [
                    27.116666666,
                    56.083888888
                ]
            },
            "properties": {
                "name": "Čertoks",
                "article": null
            }
        },
        {
            "type": "Feature",
            "geometry": {
                "type": "Point",
                "coordinates": [
                    24.168611111,
                    56.980277777
                ]
            },
            "properties": {
                "name": "Čiekurkalns",
                "article": null
            }
        },
        {
            "type": "Feature",
            "geometry": {
                "type": "Point",
                "coordinates": [
                    24.235,
                    56.992222222
                ]
            },
            "properties": {
                "name": "Jugla",
                "article": null
            }
        },
        {
            "type": "Feature",
            "geometry": {
                "type": "Point",
                "coordinates": [
                    23.757058333,
                    56.961027777
                ]
            },
            "properties": {
                "name": "Jaundubulti",
                "article": "https://en.wikipedia.org/wiki/Jaundubulti_Station"
            }
        },
        {
            "type": "Feature",
            "geometry": {
                "type": "Point",
                "coordinates": [
                    22.571533,
                    56.693508
                ]
            },
            "properties": {
                "name": "Brocēni",
                "article": "https://en.wikipedia.org/wiki/Broc%C4%93ni_Station"
            }
        },
        {
            "type": "Feature",
            "geometry": {
                "type": "Point",
                "coordinates": [
                    22.171925,
                    56.705475
                ]
            },
            "properties": {
                "name": "Airīte",
                "article": "https://en.wikipedia.org/wiki/Air%C4%ABte_Station"
            }
        },
        {
            "type": "Feature",
            "geometry": {
                "type": "Point",
                "coordinates": [
                    25.273956,
                    56.622864
                ]
            },
            "properties": {
                "name": "Aizkraukle",
                "article": "https://en.wikipedia.org/wiki/Aizkraukle_Station"
            }
        },
        {
            "type": "Feature",
            "geometry": {
                "type": "Point",
                "coordinates": [
                    23.37111111,
                    56.77972222
                ]
            },
            "properties": {
                "name": "Apšupe",
                "article": "https://en.wikipedia.org/wiki/Ap%C5%A1upe_Station"
            }
        },
        {
            "type": "Feature",
            "geometry": {
                "type": "Point",
                "coordinates": [
                    24.10413,
                    56.95152
                ]
            },
            "properties": {
                "name": "Arsenāls – Fine Arts Museum",
                "article": "https://en.wikipedia.org/wiki/Arsen%C4%81ls_%E2%80%93_Fine_Arts_Museum"
            }
        },
        {
            "type": "Feature",
            "geometry": {
                "type": "Point",
                "coordinates": [
                    26.463611111,
                    57.0325
                ]
            },
            "properties": {
                "name": "Bakans",
                "article": "https://en.wikipedia.org/wiki/Bakans"
            }
        },
        {
            "type": "Feature",
            "geometry": {
                "type": "Point",
                "coordinates": [
                    24.0482,
                    56.844667
                ]
            },
            "properties": {
                "name": "Baloži",
                "article": "https://en.wikipedia.org/wiki/Balo%C5%BEi_Station"
            }
        },
        {
            "type": "Feature",
            "geometry": {
                "type": "Point",
                "coordinates": [
                    22.981116666,
                    56.691694444
                ]
            },
            "properties": {
                "name": "Biksti",
                "article": "https://en.wikipedia.org/wiki/Biksti_Station"
            }
        },
        {
            "type": "Feature",
            "geometry": {
                "type": "Point",
                "coordinates": [
                    22.689078,
                    56.700389
                ]
            },
            "properties": {
                "name": "Blīdene",
                "article": "https://en.wikipedia.org/wiki/Bl%C4%ABdene_Station"
            }
        },
        {
            "type": "Feature",
            "geometry": {
                "type": "Point",
                "coordinates": [
                    23.109733,
                    56.689997
                ]
            },
            "properties": {
                "name": "Bērzupe",
                "article": "https://en.wikipedia.org/wiki/B%C4%93rzupe_Station"
            }
        },
        {
            "type": "Feature",
            "geometry": {
                "type": "Point",
                "coordinates": [
                    23.832592,
                    56.708242
                ]
            },
            "properties": {
                "name": "Cena",
                "article": "https://en.wikipedia.org/wiki/Cena_Station"
            }
        },
        {
            "type": "Feature",
            "geometry": {
                "type": "Point",
                "coordinates": [
                    23.759036,
                    56.653222
                ]
            },
            "properties": {
                "name": "Cukurfabrika",
                "article": "https://en.wikipedia.org/wiki/Cukurfabrika_Station"
            }
        },
        {
            "type": "Feature",
            "geometry": {
                "type": "Point",
                "coordinates": [
                    23.874992,
                    56.741442
                ]
            },
            "properties": {
                "name": "Dalbe",
                "article": "https://en.wikipedia.org/wiki/Dalbe_Station"
            }
        },
        {
            "type": "Feature",
            "geometry": {
                "type": "Point",
                "coordinates": [
                    24.200217,
                    56.910342
                ]
            },
            "properties": {
                "name": "Daugmale",
                "article": "https://en.wikipedia.org/wiki/Daugmale_Station"
            }
        },
        {
            "type": "Feature",
            "geometry": {
                "type": "Point",
                "coordinates": [
                    23.732075,
                    56.640586
                ]
            },
            "properties": {
                "name": "Jelgava",
                "article": "https://en.wikipedia.org/wiki/Jelgava_Station"
            }
        },
        {
            "type": "Feature",
            "geometry": {
                "type": "Point",
                "coordinates": [
                    21.016925,
                    56.524142
                ]
            },
            "properties": {
                "name": "Liepāja",
                "article": "https://en.wikipedia.org/wiki/Liep%C4%81ja_Station"
            }
        },
        {
            "type": "Feature",
            "geometry": {
                "type": "Point",
                "coordinates": [
                    23.46916667,
                    57.00305556
                ]
            },
            "properties": {
                "name": "Kaņieris",
                "article": "https://en.wikipedia.org/wiki/Lake_Ka%C5%86ieris"
            }
        },
        {
            "type": "Feature",
            "geometry": {
                "type": "Point",
                "coordinates": [
                    23.284511,
                    56.628644
                ]
            },
            "properties": {
                "name": "Dobele",
                "article": "https://en.wikipedia.org/wiki/Dobele_Station"
            }
        },
        {
            "type": "Feature",
            "geometry": {
                "type": "Point",
                "coordinates": [
                    23.530647,
                    56.606122
                ]
            },
            "properties": {
                "name": "Dorupe Station",
                "article": "https://en.wikipedia.org/wiki/Dorupe_Station"
            }
        },
        {
            "type": "Feature",
            "geometry": {
                "type": "Point",
                "coordinates": [
                    21.414278,
                    56.558947
                ]
            },
            "properties": {
                "name": "Durbe",
                "article": "https://en.wikipedia.org/wiki/Durbe_Station"
            }
        },
        {
            "type": "Feature",
            "geometry": {
                "type": "Point",
                "coordinates": [
                    23.334053,
                    56.807747
                ]
            },
            "properties": {
                "name": "Džūkste",
                "article": "https://en.wikipedia.org/wiki/D%C5%BE%C5%ABkste_Station"
            }
        },
        {
            "type": "Feature",
            "geometry": {
                "type": "Point",
                "coordinates": [
                    24.232053,
                    56.894411
                ]
            },
            "properties": {
                "name": "Gaisma",
                "article": "https://en.wikipedia.org/wiki/Gaisma_Station"
            }
        },
        {
            "type": "Feature",
            "geometry": {
                "type": "Point",
                "coordinates": [
                    23.485458,
                    56.598136
                ]
            },
            "properties": {
                "name": "Glūda",
                "article": "https://en.wikipedia.org/wiki/Gl%C5%ABda_Station"
            }
        },
        {
            "type": "Feature",
            "geometry": {
                "type": "Point",
                "coordinates": [
                    25.46777778,
                    56.26305556
                ]
            },
            "properties": {
                "name": "Q5765299",
                "article": null
            }
        },
        {
            "type": "Feature",
            "geometry": {
                "type": "Point",
                "coordinates": [
                    21.5525,
                    56.57527778
                ]
            },
            "properties": {
                "name": "Ilmāja",
                "article": "https://en.wikipedia.org/wiki/Ilm%C4%81ja_Station"
            }
        },
        {
            "type": "Feature",
            "geometry": {
                "type": "Point",
                "coordinates": [
                    25.716417,
                    56.617083
                ]
            },
            "properties": {
                "name": "Pļaviņas",
                "article": "https://en.wikipedia.org/wiki/P%C4%BCavi%C5%86as_Station"
            }
        },
        {
            "type": "Feature",
            "geometry": {
                "type": "Point",
                "coordinates": [
                    23.115872,
                    56.959678
                ]
            },
            "properties": {
                "name": "Tukums II",
                "article": "https://en.wikipedia.org/wiki/Tukums_II_Station"
            }
        },
        {
            "type": "Feature",
            "geometry": {
                "type": "Point",
                "coordinates": [
                    22.472011,
                    56.686133
                ]
            },
            "properties": {
                "name": "Saldus",
                "article": "https://en.wikipedia.org/wiki/Saldus_Station"
            }
        },
        {
            "type": "Feature",
            "geometry": {
                "type": "Point",
                "coordinates": [
                    24.134466666,
                    56.992655555
                ]
            },
            "properties": {
                "name": "Sarkandaugava",
                "article": "https://en.wikipedia.org/wiki/Sarkandaugava_Station"
            }
        },
        {
            "type": "Feature",
            "geometry": {
                "type": "Point",
                "coordinates": [
                    24.807536,
                    56.72225
                ]
            },
            "properties": {
                "name": "Lielvārde",
                "article": "https://en.wikipedia.org/wiki/Lielv%C4%81rde_Station"
            }
        },
        {
            "type": "Feature",
            "geometry": {
                "type": "Point",
                "coordinates": [
                    24.600939,
                    56.81635
                ]
            },
            "properties": {
                "name": "Ogre",
                "article": "https://en.wikipedia.org/wiki/Ogre_Station"
            }
        },
        {
            "type": "Feature",
            "geometry": {
                "type": "Point",
                "coordinates": [
                    25.772222222,
                    57.093611111
                ]
            },
            "properties": {
                "name": "Alauksts",
                "article": "https://en.wikipedia.org/wiki/Alauksts"
            }
        },
        {
            "type": "Feature",
            "geometry": {
                "type": "Point",
                "coordinates": [
                    24.581558,
                    56.822286
                ]
            },
            "properties": {
                "name": "Jaunogre",
                "article": "https://en.wikipedia.org/wiki/Jaunogre_Station"
            }
        },
        {
            "type": "Feature",
            "geometry": {
                "type": "Point",
                "coordinates": [
                    23.980275,
                    56.8045
                ]
            },
            "properties": {
                "name": "Jaunolaine",
                "article": "https://en.wikipedia.org/wiki/Jaunolaine_Station"
            }
        },
        {
            "type": "Feature",
            "geometry": {
                "type": "Point",
                "coordinates": [
                    24.9741,
                    56.678483
                ]
            },
            "properties": {
                "name": "Jumprava",
                "article": "https://en.wikipedia.org/wiki/Jumprava_Station"
            }
        },
        {
            "type": "Feature",
            "geometry": {
                "type": "Point",
                "coordinates": [
                    24.888447,
                    56.703336
                ]
            },
            "properties": {
                "name": "Kaibala",
                "article": "https://en.wikipedia.org/wiki/Kaibala_Station"
            }
        },
        {
            "type": "Feature",
            "geometry": {
                "type": "Point",
                "coordinates": [
                    24.107222222,
                    56.953888888
                ]
            },
            "properties": {
                "name": "Krišjāņa Valdemāra Street",
                "article": null
            }
        },
        {
            "type": "Feature",
            "geometry": {
                "type": "Point",
                "coordinates": [
                    24.039444444,
                    56.935833333
                ]
            },
            "properties": {
                "name": "Kalnciema Street",
                "article": null
            }
        },
        {
            "type": "Feature",
            "geometry": {
                "type": "Point",
                "coordinates": [
                    22.819456,
                    57.082972
                ]
            },
            "properties": {
                "name": "Kandava",
                "article": "https://en.wikipedia.org/wiki/Kandava_Station"
            }
        },
        {
            "type": "Feature",
            "geometry": {
                "type": "Point",
                "coordinates": [
                    26.850967,
                    57.5908661
                ]
            },
            "properties": {
                "name": "Kikkajärv",
                "article": "https://en.wikipedia.org/wiki/Kikkaj%C3%A4rv"
            }
        },
        {
            "type": "Feature",
            "geometry": {
                "type": "Point",
                "coordinates": [
                    25.439867,
                    56.650525
                ]
            },
            "properties": {
                "name": "Koknese",
                "article": "https://en.wikipedia.org/wiki/Koknese_Station"
            }
        },
        {
            "type": "Feature",
            "geometry": {
                "type": "Point",
                "coordinates": [
                    22.286767,
                    56.705289
                ]
            },
            "properties": {
                "name": "Lašupe",
                "article": "https://en.wikipedia.org/wiki/La%C5%A1upe_Station"
            }
        },
        {
            "type": "Feature",
            "geometry": {
                "type": "Point",
                "coordinates": [
                    23.943692,
                    56.785408
                ]
            },
            "properties": {
                "name": "Olaine",
                "article": "https://en.wikipedia.org/wiki/Olaine_Station"
            }
        },
        {
            "type": "Feature",
            "geometry": {
                "type": "Point",
                "coordinates": [
                    25.789361,
                    56.583233
                ]
            },
            "properties": {
                "name": "Ozolsala",
                "article": "https://en.wikipedia.org/wiki/Ozolsala_Station"
            }
        },
        {
            "type": "Feature",
            "geometry": {
                "type": "Point",
                "coordinates": [
                    21.459211,
                    56.564125
                ]
            },
            "properties": {
                "name": "Padone",
                "article": "https://en.wikipedia.org/wiki/Padone_Station"
            }
        },
        {
            "type": "Feature",
            "geometry": {
                "type": "Point",
                "coordinates": [
                    23.23555556,
                    56.89111111
                ]
            },
            "properties": {
                "name": "Praviņi",
                "article": "https://en.wikipedia.org/wiki/Pravi%C5%86i_Station"
            }
        },
        {
            "type": "Feature",
            "geometry": {
                "type": "Point",
                "coordinates": [
                    24.687222222,
                    57.096388888
                ]
            },
            "properties": {
                "name": "Inčukalns",
                "article": null
            }
        },
        {
            "type": "Feature",
            "geometry": {
                "type": "Point",
                "coordinates": [
                    22.893656,
                    57.063075
                ]
            },
            "properties": {
                "name": "Pūre",
                "article": "https://en.wikipedia.org/wiki/P%C5%ABre_Station"
            }
        },
        {
            "type": "Feature",
            "geometry": {
                "type": "Point",
                "coordinates": [
                    24.10817,
                    56.94978
                ]
            },
            "properties": {
                "name": "Riga Merchant Guild",
                "article": "https://en.wikipedia.org/wiki/Riga_Merchant_Guild"
            }
        },
        {
            "type": "Feature",
            "geometry": {
                "type": "Point",
                "coordinates": [
                    21.825922,
                    56.652931
                ]
            },
            "properties": {
                "name": "Rudbārži",
                "article": "https://en.wikipedia.org/wiki/Rudb%C4%81r%C5%BEi_Station"
            }
        },
        {
            "type": "Feature",
            "geometry": {
                "type": "Point",
                "coordinates": [
                    24.352777777,
                    56.860555555
                ]
            },
            "properties": {
                "name": "Salaspils",
                "article": "https://en.wikipedia.org/wiki/Salaspils_Station"
            }
        },
        {
            "type": "Feature",
            "geometry": {
                "type": "Point",
                "coordinates": [
                    24.426383,
                    57.269214
                ]
            },
            "properties": {
                "name": "Saulkrasti",
                "article": "https://en.wikipedia.org/wiki/Saulkrasti_Station"
            }
        },
        {
            "type": "Feature",
            "geometry": {
                "type": "Point",
                "coordinates": [
                    22.012089,
                    56.680333
                ]
            },
            "properties": {
                "name": "Skrunda",
                "article": "https://en.wikipedia.org/wiki/Skrunda_Station"
            }
        },
        {
            "type": "Feature",
            "geometry": {
                "type": "Point",
                "coordinates": [
                    25.122819,
                    56.647419
                ]
            },
            "properties": {
                "name": "Skrīveri",
                "article": "https://en.wikipedia.org/wiki/Skr%C4%ABveri_Station"
            }
        },
        {
            "type": "Feature",
            "geometry": {
                "type": "Point",
                "coordinates": [
                    26.484575,
                    55.916247
                ]
            },
            "properties": {
                "name": "Mežciems Station",
                "article": "https://en.wikipedia.org/wiki/Me%C5%BEciems_Station"
            }
        },
        {
            "type": "Feature",
            "geometry": {
                "type": "Point",
                "coordinates": [
                    24.463008,
                    57.333383
                ]
            },
            "properties": {
                "name": "Skulte",
                "article": "https://en.wikipedia.org/wiki/Skulte_Station"
            }
        },
        {
            "type": "Feature",
            "geometry": {
                "type": "Point",
                "coordinates": [
                    22.264689,
                    57.215758
                ]
            },
            "properties": {
                "name": "Spāre",
                "article": "https://en.wikipedia.org/wiki/Sp%C4%81re_Station"
            }
        },
        {
            "type": "Feature",
            "geometry": {
                "type": "Point",
                "coordinates": [
                    22.537844,
                    57.143978
                ]
            },
            "properties": {
                "name": "Stende",
                "article": "https://en.wikipedia.org/wiki/Stende_Station"
            }
        },
        {
            "type": "Feature",
            "geometry": {
                "type": "Point",
                "coordinates": [
                    21.365353,
                    56.548917
                ]
            },
            "properties": {
                "name": "Tadaiķi",
                "article": "https://en.wikipedia.org/wiki/Tadai%C4%B7i_Station"
            }
        },
        {
            "type": "Feature",
            "geometry": {
                "type": "Point",
                "coordinates": [
                    21.254161,
                    56.531006
                ]
            },
            "properties": {
                "name": "Tore",
                "article": "https://en.wikipedia.org/wiki/Tore_Station"
            }
        },
        {
            "type": "Feature",
            "geometry": {
                "type": "Point",
                "coordinates": [
                    24.089483,
                    56.932486
                ]
            },
            "properties": {
                "name": "Torņakalns",
                "article": "https://en.wikipedia.org/wiki/Tor%C5%86akalns_Station"
            }
        },
        {
            "type": "Feature",
            "geometry": {
                "type": "Point",
                "coordinates": [
                    24.073778,
                    56.887922
                ]
            },
            "properties": {
                "name": "Tīraine",
                "article": "https://en.wikipedia.org/wiki/T%C4%ABraine_Station"
            }
        },
        {
            "type": "Feature",
            "geometry": {
                "type": "Point",
                "coordinates": [
                    22.011144,
                    57.281858
                ]
            },
            "properties": {
                "name": "Ugāle",
                "article": "https://en.wikipedia.org/wiki/Ug%C4%81le_Station"
            }
        },
        {
            "type": "Feature",
            "geometry": {
                "type": "Point",
                "coordinates": [
                    22.169889,
                    57.250575
                ]
            },
            "properties": {
                "name": "Usma",
                "article": "https://en.wikipedia.org/wiki/Usma_Station"
            }
        },
        {
            "type": "Feature",
            "geometry": {
                "type": "Point",
                "coordinates": [
                    24.156953,
                    56.944022
                ]
            },
            "properties": {
                "name": "Vagonu Parks",
                "article": "https://en.wikipedia.org/wiki/Vagonu_Parks_Station"
            }
        },
        {
            "type": "Feature",
            "geometry": {
                "type": "Point",
                "coordinates": [
                    21.669797,
                    57.384147
                ]
            },
            "properties": {
                "name": "Ventspils II",
                "article": "https://en.wikipedia.org/wiki/Ventspils_II_Station"
            }
        },
        {
            "type": "Feature",
            "geometry": {
                "type": "Point",
                "coordinates": [
                    21.597455089,
                    57.393605483
                ]
            },
            "properties": {
                "name": "Ventspils",
                "article": "https://en.wikipedia.org/wiki/Ventspils_I_Station"
            }
        },
        {
            "type": "Feature",
            "geometry": {
                "type": "Point",
                "coordinates": [
                    23.585364,
                    56.615308
                ]
            },
            "properties": {
                "name": "Viesturi",
                "article": "https://en.wikipedia.org/wiki/Viesturi_Station"
            }
        },
        {
            "type": "Feature",
            "geometry": {
                "type": "Point",
                "coordinates": [
                    23.0006,
                    57.019086
                ]
            },
            "properties": {
                "name": "Zvāre",
                "article": "https://en.wikipedia.org/wiki/Zv%C4%81re_Station"
            }
        },
        {
            "type": "Feature",
            "geometry": {
                "type": "Point",
                "coordinates": [
                    24.718611,
                    56.746844
                ]
            },
            "properties": {
                "name": "Ķegums",
                "article": "https://en.wikipedia.org/wiki/%C4%B6egums_Station"
            }
        },
        {
            "type": "Feature",
            "geometry": {
                "type": "Point",
                "coordinates": [
                    24.210928,
                    56.904939
                ]
            },
            "properties": {
                "name": "Šķirotava",
                "article": "https://en.wikipedia.org/wiki/%C5%A0%C4%B7irotava_Station"
            }
        },
        {
            "type": "Feature",
            "geometry": {
                "type": "Point",
                "coordinates": [
                    24.841556,
                    57.183139
                ]
            },
            "properties": {
                "name": "Q9173643",
                "article": null
            }
        },
        {
            "type": "Feature",
            "geometry": {
                "type": "Point",
                "coordinates": [
                    24.78555556,
                    56.94861111
                ]
            },
            "properties": {
                "name": "Q10422380",
                "article": null
            }
        },
        {
            "type": "Feature",
            "geometry": {
                "type": "Point",
                "coordinates": [
                    24.185833,
                    56.918889
                ]
            },
            "properties": {
                "name": "Jāņavārti",
                "article": "https://en.wikipedia.org/wiki/J%C4%81%C5%86av%C4%81rti_Station"
            }
        },
        {
            "type": "Feature",
            "geometry": {
                "type": "Point",
                "coordinates": [
                    28.00621,
                    56.22016
                ]
            },
            "properties": {
                "name": "Plisūns",
                "article": null
            }
        },
        {
            "type": "Feature",
            "geometry": {
                "type": "Point",
                "coordinates": [
                    27.77916667,
                    56.28027778
                ]
            },
            "properties": {
                "name": "Loboržu ezers",
                "article": null
            }
        },
        {
            "type": "Feature",
            "geometry": {
                "type": "Point",
                "coordinates": [
                    27.71416667,
                    56.54944444
                ]
            },
            "properties": {
                "name": "Mazais Ludzas ezers",
                "article": null
            }
        },
        {
            "type": "Feature",
            "geometry": {
                "type": "Point",
                "coordinates": [
                    26.29694444,
                    55.75305556
                ]
            },
            "properties": {
                "name": "Laukesas",
                "article": null
            }
        },
        {
            "type": "Feature",
            "geometry": {
                "type": "Point",
                "coordinates": [
                    27.15694444,
                    56.15694444
                ]
            },
            "properties": {
                "name": "Geraņimovas Ilzas ezers",
                "article": null
            }
        },
        {
            "type": "Feature",
            "geometry": {
                "type": "Point",
                "coordinates": [
                    24.050833333,
                    57.043333333
                ]
            },
            "properties": {
                "name": "Mīlestības Saliņa",
                "article": null
            }
        },
        {
            "type": "Feature",
            "geometry": {
                "type": "Point",
                "coordinates": [
                    25.54777778,
                    56.1625
                ]
            },
            "properties": {
                "name": "Garajis",
                "article": null
            }
        },
        {
            "type": "Feature",
            "geometry": {
                "type": "Point",
                "coordinates": [
                    26.97138889,
                    57.60666667
                ]
            },
            "properties": {
                "name": "Lake Väike-Palkna",
                "article": "https://en.wikipedia.org/wiki/V%C3%A4ike-Palkna_Lake"
            }
        },
        {
            "type": "Feature",
            "geometry": {
                "type": "Point",
                "coordinates": [
                    26.9602,
                    57.5898
                ]
            },
            "properties": {
                "name": "Trumulītis",
                "article": null
            }
        },
        {
            "type": "Feature",
            "geometry": {
                "type": "Point",
                "coordinates": [
                    26.31666667,
                    55.8
                ]
            },
            "properties": {
                "name": "Lielais Ilgas ezers",
                "article": null
            }
        },
        {
            "type": "Feature",
            "geometry": {
                "type": "Point",
                "coordinates": [
                    26.23166667,
                    55.81555556
                ]
            },
            "properties": {
                "name": "Šalna",
                "article": null
            }
        },
        {
            "type": "Feature",
            "geometry": {
                "type": "Point",
                "coordinates": [
                    26.76583333,
                    57.18277778
                ]
            },
            "properties": {
                "name": "Gulbene",
                "article": null
            }
        },
        {
            "type": "Feature",
            "geometry": {
                "type": "Point",
                "coordinates": [
                    27.0,
                    56.26666667
                ]
            },
            "properties": {
                "name": "Feimaņu ezers",
                "article": null
            }
        },
        {
            "type": "Feature",
            "geometry": {
                "type": "Point",
                "coordinates": [
                    26.99753,
                    56.27529
                ]
            },
            "properties": {
                "name": "Feimaņu ezers",
                "article": null
            }
        },
        {
            "type": "Feature",
            "geometry": {
                "type": "Point",
                "coordinates": [
                    21.35333333,
                    56.61555556
                ]
            },
            "properties": {
                "name": "Q11835853",
                "article": null
            }
        },
        {
            "type": "Feature",
            "geometry": {
                "type": "Point",
                "coordinates": [
                    27.345,
                    56.51972222
                ]
            },
            "properties": {
                "name": "Rezekne II",
                "article": null
            }
        },
        {
            "type": "Feature",
            "geometry": {
                "type": "Point",
                "coordinates": [
                    21.459976713,
                    57.112496778
                ]
            },
            "properties": {
                "name": "Sārnates apmetne",
                "article": null
            }
        },
        {
            "type": "Feature",
            "geometry": {
                "type": "Point",
                "coordinates": [
                    25.0825,
                    57.33916667
                ]
            },
            "properties": {
                "name": "Ungurs",
                "article": null
            }
        },
        {
            "type": "Feature",
            "geometry": {
                "type": "Point",
                "coordinates": [
                    26.964965,
                    57.600008
                ]
            },
            "properties": {
                "name": "Q12375528",
                "article": null
            }
        },
        {
            "type": "Feature",
            "geometry": {
                "type": "Point",
                "coordinates": [
                    25.22353,
                    57.411878
                ]
            },
            "properties": {
                "name": "Q12377429",
                "article": null
            }
        },
        {
            "type": "Feature",
            "geometry": {
                "type": "Point",
                "coordinates": [
                    26.4536,
                    55.7078
                ]
            },
            "properties": {
                "name": "Kampuotis III",
                "article": null
            }
        },
        {
            "type": "Feature",
            "geometry": {
                "type": "Point",
                "coordinates": [
                    25.65277778,
                    56.35138889
                ]
            },
            "properties": {
                "name": "Q12677162",
                "article": null
            }
        },
        {
            "type": "Feature",
            "geometry": {
                "type": "Point",
                "coordinates": [
                    26.35,
                    55.85
                ]
            },
            "properties": {
                "name": "Lake Svente",
                "article": null
            }
        },
        {
            "type": "Feature",
            "geometry": {
                "type": "Point",
                "coordinates": [
                    27.65916667,
                    55.93777778
                ]
            },
            "properties": {
                "name": "Baltais",
                "article": null
            }
        },
        {
            "type": "Feature",
            "geometry": {
                "type": "Point",
                "coordinates": [
                    27.657772222,
                    55.932663888
                ]
            },
            "properties": {
                "name": "Melnezers Lake",
                "article": null
            }
        },
        {
            "type": "Feature",
            "geometry": {
                "type": "Point",
                "coordinates": [
                    24.10391,
                    56.947188
                ]
            },
            "properties": {
                "name": "11 November embankment",
                "article": null
            }
        },
        {
            "type": "Feature",
            "geometry": {
                "type": "Point",
                "coordinates": [
                    26.83805556,
                    57.58416667
                ]
            },
            "properties": {
                "name": "Liivajärv",
                "article": null
            }
        },
        {
            "type": "Feature",
            "geometry": {
                "type": "Point",
                "coordinates": [
                    24.205,
                    56.89889
                ]
            },
            "properties": {
                "name": "Latgales Street",
                "article": null
            }
        },
        {
            "type": "Feature",
            "geometry": {
                "type": "Point",
                "coordinates": [
                    24.101388888,
                    56.959166666
                ]
            },
            "properties": {
                "name": "Vīlandes Street",
                "article": null
            }
        },
        {
            "type": "Feature",
            "geometry": {
                "type": "Point",
                "coordinates": [
                    23.464172,
                    56.702464
                ]
            },
            "properties": {
                "name": "Līvbērze",
                "article": "https://en.wikipedia.org/wiki/L%C4%ABvb%C4%93rze_Station"
            }
        },
        {
            "type": "Feature",
            "geometry": {
                "type": "Point",
                "coordinates": [
                    21.692625,
                    56.620478
                ]
            },
            "properties": {
                "name": "Kalvene",
                "article": "https://en.wikipedia.org/wiki/Kalvene_Station"
            }
        },
        {
            "type": "Feature",
            "geometry": {
                "type": "Point",
                "coordinates": [
                    24.432777777,
                    57.286277777
                ]
            },
            "properties": {
                "name": "Ķīšupe",
                "article": "https://en.wikipedia.org/wiki/%C4%B6%C4%AB%C5%A1upe_Station"
            }
        },
        {
            "type": "Feature",
            "geometry": {
                "type": "Point",
                "coordinates": [
                    24.505797,
                    56.839567
                ]
            },
            "properties": {
                "name": "Ikšķile",
                "article": "https://en.wikipedia.org/wiki/Ik%C5%A1%C4%B7ile_Station"
            }
        },
        {
            "type": "Feature",
            "geometry": {
                "type": "Point",
                "coordinates": [
                    21.86833333,
                    56.36472222
                ]
            },
            "properties": {
                "name": "Kalčių Lake",
                "article": null
            }
        },
        {
            "type": "Feature",
            "geometry": {
                "type": "Point",
                "coordinates": [
                    26.26277778,
                    55.77555556
                ]
            },
            "properties": {
                "name": "Kampiniškių Lake",
                "article": null
            }
        },
        {
            "type": "Feature",
            "geometry": {
                "type": "Point",
                "coordinates": [
                    22.9,
                    56.533333333
                ]
            },
            "properties": {
                "name": "Lielauces ezers",
                "article": null
            }
        },
        {
            "type": "Feature",
            "geometry": {
                "type": "Point",
                "coordinates": [
                    26.33944444,
                    55.79166667
                ]
            },
            "properties": {
                "name": "Meduma ezers",
                "article": null
            }
        },
        {
            "type": "Feature",
            "geometry": {
                "type": "Point",
                "coordinates": [
                    27.41083333,
                    56.2075
                ]
            },
            "properties": {
                "name": "Salājs",
                "article": null
            }
        },
        {
            "type": "Feature",
            "geometry": {
                "type": "Point",
                "coordinates": [
                    26.34388889,
                    55.8125
                ]
            },
            "properties": {
                "name": "Q14917209",
                "article": null
            }
        },
        {
            "type": "Feature",
            "geometry": {
                "type": "Point",
                "coordinates": [
                    24.11556,
                    56.95556
                ]
            },
            "properties": {
                "name": "Elizabetes Street",
                "article": null
            }
        },
        {
            "type": "Feature",
            "geometry": {
                "type": "Point",
                "coordinates": [
                    26.002617,
                    57.753464
                ]
            },
            "properties": {
                "name": "Lugaži",
                "article": null
            }
        },
        {
            "type": "Feature",
            "geometry": {
                "type": "Point",
                "coordinates": [
                    24.0787,
                    56.9247
                ]
            },
            "properties": {
                "name": "Abavas Street",
                "article": null
            }
        },
        {
            "type": "Feature",
            "geometry": {
                "type": "Point",
                "coordinates": [
                    26.78805556,
                    55.77111111
                ]
            },
            "properties": {
                "name": "Q15218450",
                "article": null
            }
        },
        {
            "type": "Feature",
            "geometry": {
                "type": "Point",
                "coordinates": [
                    24.29865833,
                    56.92101389
                ]
            },
            "properties": {
                "name": "Acone railway station",
                "article": null
            }
        },
        {
            "type": "Feature",
            "geometry": {
                "type": "Point",
                "coordinates": [
                    27.3903,
                    56.559
                ]
            },
            "properties": {
                "name": "Adamova Lake",
                "article": null
            }
        },
        {
            "type": "Feature",
            "geometry": {
                "type": "Point",
                "coordinates": [
                    27.715555555,
                    56.196111111
                ]
            },
            "properties": {
                "name": "Q15218460",
                "article": null
            }
        },
        {
            "type": "Feature",
            "geometry": {
                "type": "Point",
                "coordinates": [
                    24.082,
                    56.92
                ]
            },
            "properties": {
                "name": "Adulienas Street",
                "article": null
            }
        },
        {
            "type": "Feature",
            "geometry": {
                "type": "Point",
                "coordinates": [
                    26.89113889,
                    56.17819444
                ]
            },
            "properties": {
                "name": "Aglona railway station",
                "article": null
            }
        },
        {
            "type": "Feature",
            "geometry": {
                "type": "Point",
                "coordinates": [
                    27.02555556,
                    56.12388889
                ]
            },
            "properties": {
                "name": "Aglona",
                "article": null
            }
        },
        {
            "type": "Feature",
            "geometry": {
                "type": "Point",
                "coordinates": [
                    24.72,
                    57.38194444
                ]
            },
            "properties": {
                "name": "Aijažu Ezers",
                "article": null
            }
        },
        {
            "type": "Feature",
            "geometry": {
                "type": "Point",
                "coordinates": [
                    25.57694444,
                    56.1575
                ]
            },
            "properties": {
                "name": "Q15218491",
                "article": null
            }
        },
        {
            "type": "Feature",
            "geometry": {
                "type": "Point",
                "coordinates": [
                    24.0393,
                    56.9442
                ]
            },
            "properties": {
                "name": "Aizputes street",
                "article": null
            }
        },
        {
            "type": "Feature",
            "geometry": {
                "type": "Point",
                "coordinates": [
                    24.078333333,
                    56.9175
                ]
            },
            "properties": {
                "name": "Aizupes iela",
                "article": null
            }
        },
        {
            "type": "Feature",
            "geometry": {
                "type": "Point",
                "coordinates": [
                    23.41583333,
                    57.02555556
                ]
            },
            "properties": {
                "name": "Q15218511",
                "article": null
            }
        },
        {
            "type": "Feature",
            "geometry": {
                "type": "Point",
                "coordinates": [
                    24.098,
                    56.933
                ]
            },
            "properties": {
                "name": "Akaču Street",
                "article": null
            }
        },
        {
            "type": "Feature",
            "geometry": {
                "type": "Point",
                "coordinates": [
                    24.47083333,
                    56.68527778
                ]
            },
            "properties": {
                "name": "Q15218512",
                "article": null
            }
        },
        {
            "type": "Feature",
            "geometry": {
                "type": "Point",
                "coordinates": [
                    24.096833333,
                    56.939777777
                ]
            },
            "properties": {
                "name": "Akmeņu street",
                "article": null
            }
        },
        {
            "type": "Feature",
            "geometry": {
                "type": "Point",
                "coordinates": [
                    27.0595,
                    56.04146
                ]
            },
            "properties": {
                "name": "Aksenovas Ezers",
                "article": null
            }
        },
        {
            "type": "Feature",
            "geometry": {
                "type": "Point",
                "coordinates": [
                    24.0002,
                    56.9512
                ]
            },
            "properties": {
                "name": "Akāciju Street",
                "article": null
            }
        },
        {
            "type": "Feature",
            "geometry": {
                "type": "Point",
                "coordinates": [
                    24.0822,
                    56.9414
                ]
            },
            "properties": {
                "name": "Aleksandra Grīna boulevard",
                "article": null
            }
        },
        {
            "type": "Feature",
            "geometry": {
                "type": "Point",
                "coordinates": [
                    24.14175,
                    56.959166666
                ]
            },
            "properties": {
                "name": "Aleksandra Čaka Street",
                "article": null
            }
        },
        {
            "type": "Feature",
            "geometry": {
                "type": "Point",
                "coordinates": [
                    25.5775,
                    56.63361111
                ]
            },
            "properties": {
                "name": "Alotene",
                "article": "https://en.wikipedia.org/wiki/Alotene_Station"
            }
        },
        {
            "type": "Feature",
            "geometry": {
                "type": "Point",
                "coordinates": [
                    24.0855,
                    56.9255
                ]
            },