{
    "type": "FeatureCollection",
    "features": [
        {
            "type": "Feature",
            "geometry": {
                "type": "Point",
                "coordinates": [
                    23.95,
                    32.083333333
                ]
            },
            "properties": {
                "name": "Tobruk",
                "article": "https://en.wikipedia.org/wiki/Tobruk"
            }
        },
        {
            "type": "Feature",
            "geometry": {
                "type": "Point",
                "coordinates": [
                    14.290496459,
                    32.638331884
                ]
            },
            "properties": {
                "name": "Leptis Magna",
                "article": "https://en.wikipedia.org/wiki/Leptis_Magna"
            }
        },
        {
            "type": "Feature",
            "geometry": {
                "type": "Point",
                "coordinates": [
                    9.5,
                    30.133333333
                ]
            },
            "properties": {
                "name": "Ghadames",
                "article": "https://en.wikipedia.org/wiki/Ghadames"
            }
        },
        {
            "type": "Feature",
            "geometry": {
                "type": "Point",
                "coordinates": [
                    12.48845,
                    32.79335
                ]
            },
            "properties": {
                "name": "Sabratha",
                "article": "https://en.wikipedia.org/wiki/Sabratha"
            }
        },
        {
            "type": "Feature",
            "geometry": {
                "type": "Point",
                "coordinates": [
                    12.485187948,
                    32.805401758
                ]
            },
            "properties": {
                "name": "Sabratha",
                "article": "https://en.wikipedia.org/wiki/Sabratha"
            }
        },
        {
            "type": "Feature",
            "geometry": {
                "type": "Point",
                "coordinates": [
                    14.5725,
                    32.463888888
                ]
            },
            "properties": {
                "name": "Zliten",
                "article": "https://en.wikipedia.org/wiki/Zliten"
            }
        },
        {
            "type": "Feature",
            "geometry": {
                "type": "Point",
                "coordinates": [
                    14.433333333,
                    27.033333333
                ]
            },
            "properties": {
                "name": "Ghat",
                "article": "https://en.wikipedia.org/wiki/Sabha,_Libya"
            }
        },
        {
            "type": "Feature",
            "geometry": {
                "type": "Point",
                "coordinates": [
                    10.175,
                    24.961111111
                ]
            },
            "properties": {
                "name": "Ghat",
                "article": "https://en.wikipedia.org/wiki/Ghat,_Libya"
            }
        },
        {
            "type": "Feature",
            "geometry": {
                "type": "Point",
                "coordinates": [
                    12.083333333,
                    32.933333333
                ]
            },
            "properties": {
                "name": "Zuwara",
                "article": "https://en.wikipedia.org/wiki/Zuwarah"
            }
        },
        {
            "type": "Feature",
            "geometry": {
                "type": "Point",
                "coordinates": [
                    13.98354,
                    31.74554
                ]
            },
            "properties": {
                "name": "Bani Walid",
                "article": "https://en.wikipedia.org/wiki/Bani_Walid"
            }
        },
        {
            "type": "Feature",
            "geometry": {
                "type": "Point",
                "coordinates": [
                    18.350277777,
                    30.629444444
                ]
            },
            "properties": {
                "name": "Sidra",
                "article": "https://en.wikipedia.org/wiki/Sidra,_Libya"
            }
        },
        {
            "type": "Feature",
            "geometry": {
                "type": "Point",
                "coordinates": [
                    10.333319444,
                    24.833429166
                ]
            },
            "properties": {
                "name": "Acacus Mountains",
                "article": "https://en.wikipedia.org/wiki/Acacus_Mountains"
            }
        },
        {
            "type": "Feature",
            "geometry": {
                "type": "Point",
                "coordinates": [
                    13.021111111,
                    32.530833333
                ]
            },
            "properties": {
                "name": "‘Aziziya",
                "article": "https://en.wikipedia.org/wiki/%CA%BDAziziya"
            }
        },
        {
            "type": "Feature",
            "geometry": {
                "type": "Point",
                "coordinates": [
                    23.45,
                    31.95
                ]
            },
            "properties": {
                "name": "Battle of Gazala",
                "article": "https://en.wikipedia.org/wiki/Battle_of_Gazala"
            }
        },
        {
            "type": "Feature",
            "geometry": {
                "type": "Point",
                "coordinates": [
                    21.712172,
                    32.758297
                ]
            },
            "properties": {
                "name": "Omar Al-Mukhtar University",
                "article": "https://en.wikipedia.org/wiki/Omar_Al-Mukhtar_University"
            }
        },
        {
            "type": "Feature",
            "geometry": {
                "type": "Point",
                "coordinates": [
                    12.7278,
                    32.7522
                ]
            },
            "properties": {
                "name": "Zawiya skirmish",
                "article": "https://en.wikipedia.org/wiki/Zawiya_skirmish"
            }
        },
        {
            "type": "Feature",
            "geometry": {
                "type": "Point",
                "coordinates": [
                    20.066666666,
                    32.116666666
                ]
            },
            "properties": {
                "name": "First Battle of Benghazi",
                "article": "https://en.wikipedia.org/wiki/First_Battle_of_Benghazi"
            }
        },
        {
            "type": "Feature",
            "geometry": {
                "type": "Point",
                "coordinates": [
                    18.086388888,
                    30.800833333
                ]
            },
            "properties": {
                "name": "Battle of Ajdabiya",
                "article": "https://en.wikipedia.org/wiki/Battle_of_Ajdabiya"
            }
        },
        {
            "type": "Feature",
            "geometry": {
                "type": "Point",
                "coordinates": [
                    20.22527778,
                    30.75555556
                ]
            },
            "properties": {
                "name": "Battle of Ajdabiya",
                "article": "https://en.wikipedia.org/wiki/Battle_of_Ajdabiya"
            }
        },
        {
            "type": "Feature",
            "geometry": {
                "type": "Point",
                "coordinates": [
                    13.933611111,
                    25.913611111
                ]
            },
            "properties": {
                "name": "Murzuk",
                "article": "https://en.wikipedia.org/wiki/Murzuk"
            }
        },
        {
            "type": "Feature",
            "geometry": {
                "type": "Point",
                "coordinates": [
                    19.573333333,
                    30.408888888
                ]
            },
            "properties": {
                "name": "Third Battle of Brega",
                "article": "https://en.wikipedia.org/wiki/Third_Battle_of_Brega"
            }
        },
        {
            "type": "Feature",
            "geometry": {
                "type": "Point",
                "coordinates": [
                    18.08638889,
                    30.80083333
                ]
            },
            "properties": {
                "name": "Battle of Bin Jawad",
                "article": "https://en.wikipedia.org/wiki/Battle_of_Bin_Jawad"
            }
        },
        {
            "type": "Feature",
            "geometry": {
                "type": "Point",
                "coordinates": [
                    13.1858,
                    32.9022
                ]
            },
            "properties": {
                "name": "Battle of Tripoli",
                "article": "https://en.wikipedia.org/wiki/Battle_of_Tripoli_(2011)"
            }
        },
        {
            "type": "Feature",
            "geometry": {
                "type": "Point",
                "coordinates": [
                    23.798333333,
                    22.101388888
                ]
            },
            "properties": {
                "name": "Arkenu craters",
                "article": "https://en.wikipedia.org/wiki/Arkenu_structures"
            }
        },
        {
            "type": "Feature",
            "geometry": {
                "type": "Point",
                "coordinates": [
                    13.98333333,
                    31.76666667
                ]
            },
            "properties": {
                "name": "Battle of Bani Walid",
                "article": "https://en.wikipedia.org/wiki/Battle_of_Bani_Walid"
            }
        },
        {
            "type": "Feature",
            "geometry": {
                "type": "Point",
                "coordinates": [
                    20.091111111,
                    32.109722222
                ]
            },
            "properties": {
                "name": "Euesperides",
                "article": null
            }
        },
        {
            "type": "Feature",
            "geometry": {
                "type": "Point",
                "coordinates": [
                    23.479766666,
                    31.593869444
                ]
            },
            "properties": {
                "name": "Battle of Bir Hakeim",
                "article": "https://en.wikipedia.org/wiki/Battle_of_Bir_Hakeim"
            }
        },
        {
            "type": "Feature",
            "geometry": {
                "type": "Point",
                "coordinates": [
                    18.0,
                    31.5
                ]
            },
            "properties": {
                "name": "First Gulf of Sidra offensive",
                "article": "https://en.wikipedia.org/wiki/First_Gulf_of_Sidra_offensive"
            }
        },
        {
            "type": "Feature",
            "geometry": {
                "type": "Point",
                "coordinates": [
                    19.206592,
                    22.0036734
                ]
            },
            "properties": {
                "name": "Bikku Bitti",
                "article": "https://en.wikipedia.org/wiki/Bikku_Bitti"
            }
        },
        {
            "type": "Feature",
            "geometry": {
                "type": "Point",
                "coordinates": [
                    23.48,
                    31.593888888
                ]
            },
            "properties": {
                "name": "Bir Hakeim",
                "article": "https://en.wikipedia.org/wiki/Bir_Hakeim"
            }
        },
        {
            "type": "Feature",
            "geometry": {
                "type": "Point",
                "coordinates": [
                    13.016666666,
                    32.166944444
                ]
            },
            "properties": {
                "name": "Gharyan",
                "article": "https://en.wikipedia.org/wiki/Gharyan"
            }
        },
        {
            "type": "Feature",
            "geometry": {
                "type": "Point",
                "coordinates": [
                    20.063888888,
                    32.104166666
                ]
            },
            "properties": {
                "name": "23rd July Lake",
                "article": "https://en.wikipedia.org/wiki/23rd_July_Lake"
            }
        },
        {
            "type": "Feature",
            "geometry": {
                "type": "Point",
                "coordinates": [
                    20.06666667,
                    32.11666667
                ]
            },
            "properties": {
                "name": "Second Battle of Benghazi",
                "article": "https://en.wikipedia.org/wiki/Second_Battle_of_Benghazi"
            }
        },
        {
            "type": "Feature",
            "geometry": {
                "type": "Point",
                "coordinates": [
                    12.526666666,
                    32.062777777
                ]
            },
            "properties": {
                "name": "Yafran",
                "article": "https://en.wikipedia.org/wiki/Yafran"
            }
        },
        {
            "type": "Feature",
            "geometry": {
                "type": "Point",
                "coordinates": [
                    15.248888888,
                    31.451111111
                ]
            },
            "properties": {
                "name": "Abu Qurayn",
                "article": "https://en.wikipedia.org/wiki/Abu_Qurayn"
            }
        },
        {
            "type": "Feature",
            "geometry": {
                "type": "Point",
                "coordinates": [
                    18.566111111,
                    30.478888888
                ]
            },
            "properties": {
                "name": "Battle of Ra's Lanuf",
                "article": "https://en.wikipedia.org/wiki/Battle_of_Ras_Lanuf"
            }
        },
        {
            "type": "Feature",
            "geometry": {
                "type": "Point",
                "coordinates": [
                    13.590313888,
                    30.391247222
                ]
            },
            "properties": {
                "name": "Gheriat esh-Shergia",
                "article": null
            }
        },
        {
            "type": "Feature",
            "geometry": {
                "type": "Point",
                "coordinates": [
                    13.590481,
                    30.391207
                ]
            },
            "properties": {
                "name": "Gheriat esh-Shergia",
                "article": null
            }
        },
        {
            "type": "Feature",
            "geometry": {
                "type": "Point",
                "coordinates": [
                    20.308611,
                    31.241111
                ]
            },
            "properties": {
                "name": "Beda Fomm",
                "article": "https://en.wikipedia.org/wiki/Beda_Fomm"
            }
        },
        {
            "type": "Feature",
            "geometry": {
                "type": "Point",
                "coordinates": [
                    15.412993,
                    30.578211
                ]
            },
            "properties": {
                "name": "Bu Njem (Gholaia)",
                "article": null
            }
        },
        {
            "type": "Feature",
            "geometry": {
                "type": "Point",
                "coordinates": [
                    15.413011111,
                    30.578197222
                ]
            },
            "properties": {
                "name": "Bu Njem (Gholaia)",
                "article": null
            }
        },
        {
            "type": "Feature",
            "geometry": {
                "type": "Point",
                "coordinates": [
                    15.940277777,
                    29.121111111
                ]
            },
            "properties": {
                "name": "Hun",
                "article": "https://en.wikipedia.org/wiki/Hun,_Libya"
            }
        },
        {
            "type": "Feature",
            "geometry": {
                "type": "Point",
                "coordinates": [
                    13.0111,
                    32.8172
                ]
            },
            "properties": {
                "name": "Janzur",
                "article": "https://en.wikipedia.org/wiki/Janzur"
            }
        },
        {
            "type": "Feature",
            "geometry": {
                "type": "Point",
                "coordinates": [
                    12.571666666,
                    32.756666666
                ]
            },
            "properties": {
                "name": "Surman",
                "article": "https://en.wikipedia.org/wiki/Surman,_Libya"
            }
        },
        {
            "type": "Feature",
            "geometry": {
                "type": "Point",
                "coordinates": [
                    13.4186,
                    30.4201
                ]
            },
            "properties": {
                "name": "Gheriat el-Garbia",
                "article": null
            }
        },
        {
            "type": "Feature",
            "geometry": {
                "type": "Point",
                "coordinates": [
                    13.418942,
                    30.420183
                ]
            },
            "properties": {
                "name": "Gheriat el-Garbia",
                "article": null
            }
        },
        {
            "type": "Feature",
            "geometry": {
                "type": "Point",
                "coordinates": [
                    14.569759,
                    30.965945
                ]
            },
            "properties": {
                "name": "Ghirza",
                "article": "https://en.wikipedia.org/wiki/Gerisa"
            }
        },
        {
            "type": "Feature",
            "geometry": {
                "type": "Point",
                "coordinates": [
                    15.09201667,
                    32.37753333
                ]
            },
            "properties": {
                "name": "Battle of Misrata",
                "article": "https://en.wikipedia.org/wiki/Battle_of_Misrata_(2011)"
            }
        },
        {
            "type": "Feature",
            "geometry": {
                "type": "Point",
                "coordinates": [
                    13.34,
                    32.881944444
                ]
            },
            "properties": {
                "name": "Tajura",
                "article": "https://en.wikipedia.org/wiki/Tajura"
            }
        },
        {
            "type": "Feature",
            "geometry": {
                "type": "Point",
                "coordinates": [
                    9.50833333,
                    30.14166667
                ]
            },
            "properties": {
                "name": "Limes Tripolitanus",
                "article": "https://en.wikipedia.org/wiki/Limes_Tripolitanus"
            }
        },
        {
            "type": "Feature",
            "geometry": {
                "type": "Point",
                "coordinates": [
                    16.588888888,
                    31.205277777
                ]
            },
            "properties": {
                "name": "Battle of Sirte",
                "article": "https://en.wikipedia.org/wiki/Battle_of_Sirte_(2011)"
            }
        },
        {
            "type": "Feature",
            "geometry": {
                "type": "Point",
                "coordinates": [
                    19.2,
                    30.2667
                ]
            },
            "properties": {
                "name": "Battle of El Agheila",
                "article": "https://en.wikipedia.org/wiki/Battle_of_El_Agheila"
            }
        },
        {
            "type": "Feature",
            "geometry": {
                "type": "Point",
                "coordinates": [
                    22.2667,
                    32.8667
                ]
            },
            "properties": {
                "name": "Athrun",
                "article": "https://en.wikipedia.org/wiki/Al-Athrun"
            }
        },
        {
            "type": "Feature",
            "geometry": {
                "type": "Point",
                "coordinates": [
                    25.095,
                    31.76
                ]
            },
            "properties": {
                "name": "Battle of Bardia",
                "article": "https://en.wikipedia.org/wiki/Battle_of_Bardia"
            }
        },
        {
            "type": "Feature",
            "geometry": {
                "type": "Point",
                "coordinates": [
                    13.223701439,
                    32.84903713
                ]
            },
            "properties": {
                "name": "University of Tripoli",
                "article": "https://en.wikipedia.org/wiki/University_of_Tripoli"
            }
        },
        {
            "type": "Feature",
            "geometry": {
                "type": "Point",
                "coordinates": [
                    23.2833,
                    24.1833
                ]
            },
            "properties": {
                "name": "Battle of Kufra",
                "article": "https://en.wikipedia.org/wiki/Capture_of_Kufra"
            }
        },
        {
            "type": "Feature",
            "geometry": {
                "type": "Point",
                "coordinates": [
                    23.96138889,
                    32.07611111
                ]
            },
            "properties": {
                "name": "Battle of Tobruk",
                "article": "https://en.wikipedia.org/wiki/Battle_of_Tobruk_(1911)"
            }
        },
        {
            "type": "Feature",
            "geometry": {
                "type": "Point",
                "coordinates": [
                    19.66694444,
                    30.435
                ]
            },
            "properties": {
                "name": "Fourth Battle of Brega",
                "article": "https://en.wikipedia.org/wiki/Fourth_Battle_of_Brega"
            }
        },
        {
            "type": "Feature",
            "geometry": {
                "type": "Point",
                "coordinates": [
                    14.704527777,
                    31.461833333
                ]
            },
            "properties": {
                "name": "Gasr Banat",
                "article": "https://en.wikipedia.org/wiki/Gasr_Banat"
            }
        },
        {
            "type": "Feature",
            "geometry": {
                "type": "Point",
                "coordinates": [
                    14.566666666,
                    32.466666666
                ]
            },
            "properties": {
                "name": "Battle of Zliten",
                "article": "https://en.wikipedia.org/wiki/Battle_of_Zliten"
            }
        },
        {
            "type": "Feature",
            "geometry": {
                "type": "Point",
                "coordinates": [
                    13.18746,
                    32.87519
                ]
            },
            "properties": {
                "name": "Tripoli",
                "article": "https://en.wikipedia.org/wiki/Tripoli,_Libya"
            }
        },
        {
            "type": "Feature",
            "geometry": {
                "type": "Point",
                "coordinates": [
                    21.755,
                    32.762777777
                ]
            },
            "properties": {
                "name": "Al Bayda",
                "article": "https://en.wikipedia.org/wiki/Bayda,_Libya"
            }
        },
        {
            "type": "Feature",
            "geometry": {
                "type": "Point",
                "coordinates": [
                    23.0053,
                    32.5325
                ]
            },
            "properties": {
                "name": "Umm al Rizam",
                "article": "https://en.wikipedia.org/wiki/Umm_al_Rizam"
            }
        },
        {
            "type": "Feature",
            "geometry": {
                "type": "Point",
                "coordinates": [
                    20.014444444,
                    31.657222222
                ]
            },
            "properties": {
                "name": "Qaminis",
                "article": "https://en.wikipedia.org/wiki/Qaminis"
            }
        },
        {
            "type": "Feature",
            "geometry": {
                "type": "Point",
                "coordinates": [
                    20.250277777,
                    31.668611111
                ]
            },
            "properties": {
                "name": "Suluq",
                "article": "https://en.wikipedia.org/wiki/Suluq"
            }
        },
        {
            "type": "Feature",
            "geometry": {
                "type": "Point",
                "coordinates": [
                    19.573888888,
                    30.406111111
                ]
            },
            "properties": {
                "name": "Brega",
                "article": "https://en.wikipedia.org/wiki/Brega"
            }
        },
        {
            "type": "Feature",
            "geometry": {
                "type": "Point",
                "coordinates": [
                    20.066666666,
                    32.116666666
                ]
            },
            "properties": {
                "name": "Benghazi",
                "article": "https://en.wikipedia.org/wiki/Benghazi"
            }
        },
        {
            "type": "Feature",
            "geometry": {
                "type": "Point",
                "coordinates": [
                    21.2528,
                    32.5619
                ]
            },
            "properties": {
                "name": "El Bayyada",
                "article": "https://en.wikipedia.org/wiki/El_Bayyada"
            }
        },
        {
            "type": "Feature",
            "geometry": {
                "type": "Point",
                "coordinates": [
                    15.090138888,
                    32.377777777
                ]
            },
            "properties": {
                "name": "Misrata",
                "article": "https://en.wikipedia.org/wiki/Misrata"
            }
        },
        {
            "type": "Feature",
            "geometry": {
                "type": "Point",
                "coordinates": [
                    10.981111111,
                    31.868611111
                ]
            },
            "properties": {
                "name": "Nalut",
                "article": "https://en.wikipedia.org/wiki/Nalut"
            }
        },
        {
            "type": "Feature",
            "geometry": {
                "type": "Point",
                "coordinates": [
                    23.3,
                    24.216666666
                ]
            },
            "properties": {
                "name": "Al Jawf",
                "article": "https://en.wikipedia.org/wiki/Al_Jawf,_Libya"
            }
        },
        {
            "type": "Feature",
            "geometry": {
                "type": "Point",
                "coordinates": [
                    22.028,
                    24.8994
                ]
            },
            "properties": {
                "name": "Buzema",
                "article": "https://en.wikipedia.org/wiki/Buzema"
            }
        },
        {
            "type": "Feature",
            "geometry": {
                "type": "Point",
                "coordinates": [
                    21.286944444,
                    29.108055555
                ]
            },
            "properties": {
                "name": "Awjila",
                "article": "https://en.wikipedia.org/wiki/Awjila"
            }
        },
        {
            "type": "Feature",
            "geometry": {
                "type": "Point",
                "coordinates": [
                    25.075,
                    31.76
                ]
            },
            "properties": {
                "name": "Bardia",
                "article": "https://en.wikipedia.org/wiki/Bardia"
            }
        },
        {
            "type": "Feature",
            "geometry": {
                "type": "Point",
                "coordinates": [
                    6.333333333,
                    34.333333333
                ]
            },
            "properties": {
                "name": "Lake Tritonis",
                "article": "https://en.wikipedia.org/wiki/Lake_Tritonis"
            }
        },
        {
            "type": "Feature",
            "geometry": {
                "type": "Point",
                "coordinates": [
                    17.75,
                    24.9
                ]
            },
            "properties": {
                "name": "Waw an Namus",
                "article": "https://en.wikipedia.org/wiki/Waw_an_Namus"
            }
        },
        {
            "type": "Feature",
            "geometry": {
                "type": "Point",
                "coordinates": [
                    10.45333333,
                    30.16277778
                ]
            },
            "properties": {
                "name": "Derje",
                "article": null
            }
        },
        {
            "type": "Feature",
            "geometry": {
                "type": "Point",
                "coordinates": [
                    14.268611111,
                    27.545833333
                ]
            },
            "properties": {
                "name": "Brak",
                "article": "https://en.wikipedia.org/wiki/Brak,_Libya"
            }
        },
        {
            "type": "Feature",
            "geometry": {
                "type": "Point",
                "coordinates": [
                    23.46666667,
                    31.61666667
                ]
            },
            "properties": {
                "name": "Battle at Bir el Harmat",
                "article": null
            }
        },
        {
            "type": "Feature",
            "geometry": {
                "type": "Point",
                "coordinates": [
                    12.766666666,
                    26.583333333
                ]
            },
            "properties": {
                "name": "Ubari",
                "article": "https://en.wikipedia.org/wiki/Ubari"
            }
        },
        {
            "type": "Feature",
            "geometry": {
                "type": "Point",
                "coordinates": [
                    24.922222222,
                    21.919444444
                ]
            },
            "properties": {
                "name": "Jebel Uweinat",
                "article": "https://en.wikipedia.org/wiki/Gabal_El_Uweinat"
            }
        },
        {
            "type": "Feature",
            "geometry": {
                "type": "Point",
                "coordinates": [
                    20.89277778,
                    32.49833333
                ]
            },
            "properties": {
                "name": "Olbia",
                "article": "https://en.wikipedia.org/wiki/Olbia,_Libya"
            }
        },
        {
            "type": "Feature",
            "geometry": {
                "type": "Point",
                "coordinates": [
                    13.634444444,
                    32.433888888
                ]
            },
            "properties": {
                "name": "Tarhuna",
                "article": "https://en.wikipedia.org/wiki/Tarhuna"
            }
        },
        {
            "type": "Feature",
            "geometry": {
                "type": "Point",
                "coordinates": [
                    23.3,
                    24.216666666
                ]
            },
            "properties": {
                "name": "Battle of Al Jawf",
                "article": null
            }
        },
        {
            "type": "Feature",
            "geometry": {
                "type": "Point",
                "coordinates": [
                    14.268611111,
                    27.545833333
                ]
            },
            "properties": {
                "name": "Battle of Brak",
                "article": null
            }
        },
        {
            "type": "Feature",
            "geometry": {
                "type": "Point",
                "coordinates": [
                    22.633333333,
                    32.766666666
                ]
            },
            "properties": {
                "name": "Battle of Derne",
                "article": "https://en.wikipedia.org/wiki/Battle_of_Derna_(1805)"
            }
        },
        {
            "type": "Feature",
            "geometry": {
                "type": "Point",
                "coordinates": [
                    13.01666667,
                    32.16972222
                ]
            },
            "properties": {
                "name": "Battle of Gharyan",
                "article": "https://en.wikipedia.org/wiki/Battle_of_Gharyan"
            }
        },
        {
            "type": "Feature",
            "geometry": {
                "type": "Point",
                "coordinates": [
                    13.634444444,
                    32.433888888
                ]
            },
            "properties": {
                "name": "Battle of Tarhuna",
                "article": null
            }
        },
        {
            "type": "Feature",
            "geometry": {
                "type": "Point",
                "coordinates": [
                    15.045833333,
                    31.984722222
                ]
            },
            "properties": {
                "name": "Battle of Tawergha",
                "article": "https://en.wikipedia.org/wiki/Battle_of_Tawergha"
            }
        },
        {
            "type": "Feature",
            "geometry": {
                "type": "Point",
                "coordinates": [
                    18.0,
                    31.5
                ]
            },
            "properties": {
                "name": "Second Gulf of Sidra offensive",
                "article": "https://en.wikipedia.org/wiki/Second_Gulf_of_Sidra_offensive"
            }
        },
        {
            "type": "Feature",
            "geometry": {
                "type": "Point",
                "coordinates": [
                    10.6625,
                    31.94222222
                ]
            },
            "properties": {
                "name": "Battle of Wazzin",
                "article": "https://en.wikipedia.org/wiki/Battle_of_Wazzin"
            }
        },
        {
            "type": "Feature",
            "geometry": {
                "type": "Point",
                "coordinates": [
                    12.727777777,
                    32.752222222
                ]
            },
            "properties": {
                "name": "Second Battle of Zawiya",
                "article": "https://en.wikipedia.org/wiki/Second_Battle_of_Zawiya"
            }
        },
        {
            "type": "Feature",
            "geometry": {
                "type": "Point",
                "coordinates": [
                    12.1703924,
                    25.7633811
                ]
            },
            "properties": {
                "name": "Wadi Mathendous",
                "article": "https://en.wikipedia.org/wiki/Wadi_Mathendous"
            }
        },
        {
            "type": "Feature",
            "geometry": {
                "type": "Point",
                "coordinates": [
                    13.2697,
                    32.8133
                ]
            },
            "properties": {
                "name": "Ain Zara",
                "article": "https://en.wikipedia.org/wiki/Ain_Zara"
            }
        },
        {
            "type": "Feature",
            "geometry": {
                "type": "Point",
                "coordinates": [
                    20.120277777,
                    30.952222222
                ]
            },
            "properties": {
                "name": "Zuwetina",
                "article": "https://en.wikipedia.org/wiki/Zuwetina"
            }
        },
        {
            "type": "Feature",
            "geometry": {
                "type": "Point",
                "coordinates": [
                    24.7375,
                    22.208888888
                ]
            },
            "properties": {
                "name": "Jabal Arkanu",
                "article": "https://en.wikipedia.org/wiki/Jabal_Arkanu"
            }
        },
        {
            "type": "Feature",
            "geometry": {
                "type": "Point",
                "coordinates": [
                    12.64111111,
                    32.72833333
                ]
            },
            "properties": {
                "name": "Es-Sabria",
                "article": null
            }
        },
        {
            "type": "Feature",
            "geometry": {
                "type": "Point",
                "coordinates": [
                    20.06506,
                    32.11331
                ]
            },
            "properties": {
                "name": "Bengasi central railway station",
                "article": null
            }
        },
        {
            "type": "Feature",
            "geometry": {
                "type": "Point",
                "coordinates": [
                    13.167543,
                    32.884633
                ]
            },
            "properties": {
                "name": "Tripoli central railway station",
                "article": null
            }
        },
        {
            "type": "Feature",
            "geometry": {
                "type": "Point",
                "coordinates": [
                    13.187805,
                    32.886511
                ]
            },
            "properties": {
                "name": "Tripoli Riccardo railway station",
                "article": null
            }
        },
        {
            "type": "Feature",
            "geometry": {
                "type": "Point",
                "coordinates": [
                    24.7375,
                    22.208888888
                ]
            },
            "properties": {
                "name": "Jabal Arkanu",
                "article": "https://en.wikipedia.org/wiki/Jabal_Arkanu"
            }
        },
        {
            "type": "Feature",
            "geometry": {
                "type": "Point",
                "coordinates": [
                    12.64111111,
                    32.72833333
                ]
            },
            "properties": {
                "name": "Es-Sabria",
                "article": null
            }
        },
        {
            "type": "Feature",
            "geometry": {
                "type": "Point",
                "coordinates": [
                    20.06506,
                    32.11331
                ]
            },
            "properties": {
                "name": "Bengasi central railway station",
                "article": null
            }
        },
        {
            "type": "Feature",
            "geometry": {
                "type": "Point",
                "coordinates": [
                    13.167543,
                    32.884633
                ]
            },
            "properties": {
                "name": "Tripoli central railway station",
                "article": null
            }
        },
        {
            "type": "Feature",
            "geometry": {
                "type": "Point",
                "coordinates": [
                    13.187805,
                    32.886511
                ]
            },
            "properties": {
                "name": "Tripoli Riccardo railway station",
                "article": null
            }
        },
        {
            "type": "Feature",
            "geometry": {
                "type": "Point",
                "coordinates": [
                    13.07638889,
                    32.7175
                ]
            },
            "properties": {
                "name": "Suani Ben Adem",
                "article": "https://en.wikipedia.org/wiki/Suani_Ben_Adem"
            }
        },
        {
            "type": "Feature",
            "geometry": {
                "type": "Point",
                "coordinates": [
                    21.741666666,
                    32.766388888
                ]
            },
            "properties": {
                "name": "Battle of Bayda",
                "article": "https://en.wikipedia.org/wiki/Battle_of_Bayda"
            }
        },
        {
            "type": "Feature",
            "geometry": {
                "type": "Point",
                "coordinates": [
                    21.831111,
                    21.683333
                ]
            },
            "properties": {
                "name": "Battle of Maaten al-Sarra",
                "article": "https://en.wikipedia.org/wiki/Battle_of_Maaten_al-Sarra"
            }
        },
        {
            "type": "Feature",
            "geometry": {
                "type": "Point",
                "coordinates": [
                    23.3,
                    24.183333333
                ]
            },
            "properties": {
                "name": "2012 Kufra conflict",
                "article": "https://en.wikipedia.org/wiki/2012_Kufra_conflict"
            }
        },
        {
            "type": "Feature",
            "geometry": {
                "type": "Point",
                "coordinates": [
                    13.1671,
                    32.8919
                ]
            },
            "properties": {
                "name": "Al Fateh Tower",
                "article": "https://en.wikipedia.org/wiki/Tripoli_Tower"
            }
        },
        {
            "type": "Feature",
            "geometry": {
                "type": "Point",
                "coordinates": [
                    20.06072,
                    32.12145
                ]
            },
            "properties": {
                "name": "Benghazi Municipal Hall",
                "article": "https://en.wikipedia.org/wiki/Benghazi_Municipal_Hall"
            }
        },
        {
            "type": "Feature",
            "geometry": {
                "type": "Point",
                "coordinates": [
                    11.33083333,
                    32.00472222
                ]
            },
            "properties": {
                "name": "Tiji",
                "article": null
            }
        },
        {
            "type": "Feature",
            "geometry": {
                "type": "Point",
                "coordinates": [
                    11.3314,
                    32.0047
                ]
            },
            "properties": {
                "name": "Tiji",
                "article": null
            }
        },
        {
            "type": "Feature",
            "geometry": {
                "type": "Point",
                "coordinates": [
                    13.1858,
                    32.9022
                ]
            },
            "properties": {
                "name": "Second Battle of Tripoli Harbor",
                "article": "https://en.wikipedia.org/wiki/Second_Battle_of_Tripoli_Harbor"
            }
        },
        {
            "type": "Feature",
            "geometry": {
                "type": "Point",
                "coordinates": [
                    22.7927,
                    23.2205
                ]
            },
            "properties": {
                "name": "Jebel Sherif",
                "article": "https://en.wikipedia.org/wiki/Jebel_Sherif"
            }
        },
        {
            "type": "Feature",
            "geometry": {
                "type": "Point",
                "coordinates": [
                    21.715833333,
                    32.590277777
                ]
            },
            "properties": {
                "name": "Slonta",
                "article": "https://en.wikipedia.org/wiki/Slonta"
            }
        },
        {
            "type": "Feature",
            "geometry": {
                "type": "Point",
                "coordinates": [
                    20.223611111,
                    31.093055555
                ]
            },
            "properties": {
                "name": "Sultan",
                "article": "https://en.wikipedia.org/wiki/Sultan,_Libya"
            }
        },
        {
            "type": "Feature",
            "geometry": {
                "type": "Point",
                "coordinates": [
                    20.05789,
                    32.11814
                ]
            },
            "properties": {
                "name": "Parliament of Cyrenaica",
                "article": null
            }
        },
        {
            "type": "Feature",
            "geometry": {
                "type": "Point",
                "coordinates": [
                    21.7359581,
                    32.75995255
                ]
            },
            "properties": {
                "name": "Alsells Tower, Bayda",
                "article": null
            }
        },
        {
            "type": "Feature",
            "geometry": {
                "type": "Point",
                "coordinates": [
                    20.05795,
                    32.11682
                ]
            },
            "properties": {
                "name": "el-Manar Palace",
                "article": null
            }
        },
        {
            "type": "Feature",
            "geometry": {
                "type": "Point",
                "coordinates": [
                    21.862467,
                    32.822325
                ]
            },
            "properties": {
                "name": "Temple of Zeus",
                "article": "https://en.wikipedia.org/wiki/Temple_of_Zeus,_Cyrene"
            }
        },
        {
            "type": "Feature",
            "geometry": {
                "type": "Point",
                "coordinates": [
                    16.591666666,
                    31.207222222
                ]
            },
            "properties": {
                "name": "2016 Sirte offensive",
                "article": "https://en.wikipedia.org/wiki/Battle_of_Sirte_(2016)"
            }
        },
        {
            "type": "Feature",
            "geometry": {
                "type": "Point",
                "coordinates": [
                    20.086169444,
                    32.120647222
                ]
            },
            "properties": {
                "name": "Battle of Kuwayfia",
                "article": "https://en.wikipedia.org/wiki/Battle_of_Benghazi_(1911)"
            }
        },
        {
            "type": "Feature",
            "geometry": {
                "type": "Point",
                "coordinates": [
                    22.051388888,
                    32.902777777
                ]
            },
            "properties": {
                "name": "Haua Fteah",
                "article": "https://en.wikipedia.org/wiki/Haua_Fteah"
            }
        },
        {
            "type": "Feature",
            "geometry": {
                "type": "Point",
                "coordinates": [
                    23.28228,
                    32.23263
                ]
            },
            "properties": {
                "name": "Jazīrat al ‘Ulbah",
                "article": null
            }
        },
        {
            "type": "Feature",
            "geometry": {
                "type": "Point",
                "coordinates": [
                    12.485,
                    32.80528
                ]
            },
            "properties": {
                "name": "Archaeological Site of Sabratha",
                "article": "https://en.wikipedia.org/wiki/Archaeological_Site_of_Sabratha"
            }
        },
        {
            "type": "Feature",
            "geometry": {
                "type": "Point",
                "coordinates": [
                    13.011111111,
                    32.817222222
                ]
            },
            "properties": {
                "name": "Battle of Zanzur",
                "article": "https://en.wikipedia.org/wiki/Battles_of_Zanzur_(1912)"
            }
        },
        {
            "type": "Feature",
            "geometry": {
                "type": "Point",
                "coordinates": [
                    22.266667,
                    32.183333
                ]
            },
            "properties": {
                "name": "Action at Mechili, 24 January 1941",
                "article": "https://en.wikipedia.org/wiki/Action_at_Mechili"
            }
        },
        {
            "type": "Feature",
            "geometry": {
                "type": "Point",
                "coordinates": [
                    35.86667,
                    33.73972
                ]
            },
            "properties": {
                "name": "Tell Shaikh Hassan al Rai",
                "article": "https://en.wikipedia.org/wiki/Tell_Shaikh_Hassan_al_Rai"
            }
        },
        {
            "type": "Feature",
            "geometry": {
                "type": "Point",
                "coordinates": [
                    12.850527777,
                    32.164888888
                ]
            },
            "properties": {
                "name": "al raabita",
                "article": null
            }
        },
        {
            "type": "Feature",
            "geometry": {
                "type": "Point",
                "coordinates": [
                    13.269722,
                    32.813333
                ]
            },
            "properties": {
                "name": "Battle of Ain Zara",
                "article": "https://en.wikipedia.org/wiki/Battle_of_Ain_Zara"
            }
        },
        {
            "type": "Feature",
            "geometry": {
                "type": "Point",
                "coordinates": [
                    14.433333333,
                    27.033333333
                ]
            },
            "properties": {
                "name": "Battle of Sebha",
                "article": null
            }
        },
        {
            "type": "Feature",
            "geometry": {
                "type": "Point",
                "coordinates": [
                    15.092016666,
                    32.377533333
                ]
            },
            "properties": {
                "name": "Battle of Misrata",
                "article": "https://en.wikipedia.org/wiki/Battle_of_Misrata_(1912)"
            }
        },
        {
            "type": "Feature",
            "geometry": {
                "type": "Point",
                "coordinates": [
                    13.191344444,
                    32.887227777
                ]
            },
            "properties": {
                "name": "Battle of Tripoli",
                "article": "https://en.wikipedia.org/wiki/Battle_of_Tripoli_(1911)"
            }
        },
        {
            "type": "Feature",
            "geometry": {
                "type": "Point",
                "coordinates": [
                    24.5169,
                    29.7425
                ]
            },
            "properties": {
                "name": "Siege of Giarabub",
                "article": "https://en.wikipedia.org/wiki/Siege_of_Giarabub"
            }
        },
        {
            "type": "Feature",
            "geometry": {
                "type": "Point",
                "coordinates": [
                    13.016666666,
                    32.169722222
                ]
            },
            "properties": {
                "name": "Gharyan volcanic field",
                "article": null
            }
        },
        {
            "type": "Feature",
            "geometry": {
                "type": "Point",
                "coordinates": [
                    20.066666666,
                    32.116666666
                ]
            },
            "properties": {
                "name": "Fourth Battle of Benghazi",
                "article": "https://en.wikipedia.org/wiki/Battle_of_Benghazi_(2014%E2%80%932017)"
            }
        },
        {
            "type": "Feature",
            "geometry": {
                "type": "Point",
                "coordinates": [
                    12.467619444,
                    31.652377777
                ]
            },
            "properties": {
                "name": "Centenarium Gasr Duib",
                "article": null
            }
        },
        {
            "type": "Feature",
            "geometry": {
                "type": "Point",
                "coordinates": [
                    12.98019722,
                    31.44493333
                ]
            },
            "properties": {
                "name": "Q19287774",
                "article": null
            }
        },
        {
            "type": "Feature",
            "geometry": {
                "type": "Point",
                "coordinates": [
                    12.678183333,
                    31.6405
                ]
            },
            "properties": {
                "name": "Qasr Wamis",
                "article": null
            }
        },
        {
            "type": "Feature",
            "geometry": {
                "type": "Point",
                "coordinates": [
                    14.297775,
                    31.822108333
                ]
            },
            "properties": {
                "name": "Q20190850",
                "article": null
            }
        },
        {
            "type": "Feature",
            "geometry": {
                "type": "Point",
                "coordinates": [
                    13.508051,
                    26.087511
                ]
            },
            "properties": {
                "name": "Tasawah",
                "article": null
            }
        },
        {
            "type": "Feature",
            "geometry": {
                "type": "Point",
                "coordinates": [
                    13.37280556,
                    32.23968333
                ]
            },
            "properties": {
                "name": "Kastell Thenadassa",
                "article": null
            }
        },
        {
            "type": "Feature",
            "geometry": {
                "type": "Point",
                "coordinates": [
                    14.2859,
                    32.6389
                ]
            },
            "properties": {
                "name": "Arch of Marcus Aurelius",
                "article": null
            }
        },
        {
            "type": "Feature",
            "geometry": {
                "type": "Point",
                "coordinates": [
                    12.694444444,
                    32.068333333
                ]
            },
            "properties": {
                "name": "Battle of Kikla",
                "article": "https://en.wikipedia.org/wiki/Battle_of_Kikla_(2014)"
            }
        },
        {
            "type": "Feature",
            "geometry": {
                "type": "Point",
                "coordinates": [
                    23.166111111,
                    32.391666666
                ]
            },
            "properties": {
                "name": "Q27487688",
                "article": null
            }
        },
        {
            "type": "Feature",
            "geometry": {
                "type": "Point",
                "coordinates": [
                    24.092222222,
                    32.015833333
                ]
            },
            "properties": {
                "name": "Q27487717",
                "article": null
            }
        },
        {
            "type": "Feature",
            "geometry": {
                "type": "Point",
                "coordinates": [
                    20.06207,
                    32.12618
                ]
            },
            "properties": {
                "name": "Sīdī Khuraybīsh",
                "article": null
            }
        },
        {
            "type": "Feature",
            "geometry": {
                "type": "Point",
                "coordinates": [
                    22.0405,
                    24.2609
                ]
            },
            "properties": {
                "name": "Q27488601",
                "article": null
            }
        },
        {
            "type": "Feature",
            "geometry": {
                "type": "Point",
                "coordinates": [
                    24.9158,
                    23.6983
                ]
            },
            "properties": {
                "name": "Jabal Rukn",
                "article": null
            }
        },
        {
            "type": "Feature",
            "geometry": {
                "type": "Point",
                "coordinates": [
                    22.498888888,
                    32.838333333
                ]
            },
            "properties": {
                "name": "Q27489207",
                "article": null
            }
        },
        {
            "type": "Feature",
            "geometry": {
                "type": "Point",
                "coordinates": [
                    23.154722222,
                    32.414444444
                ]
            },
            "properties": {
                "name": "Q27489343",
                "article": null
            }
        },
        {
            "type": "Feature",
            "geometry": {
                "type": "Point",
                "coordinates": [
                    24.478611111,
                    31.995
                ]
            },
            "properties": {
                "name": "Q27490102",
                "article": null
            }
        },
        {
            "type": "Feature",
            "geometry": {
                "type": "Point",
                "coordinates": [
                    24.866666666,
                    22.616666666
                ]
            },
            "properties": {
                "name": "Q27490556",
                "article": null
            }
        },
        {
            "type": "Feature",
            "geometry": {
                "type": "Point",
                "coordinates": [
                    23.23557,
                    32.37399
                ]
            },
            "properties": {
                "name": "Barda‘ah",
                "article": null
            }
        },
        {
            "type": "Feature",
            "geometry": {
                "type": "Point",
                "coordinates": [
                    23.95,
                    25.533333333
                ]
            },
            "properties": {
                "name": "Q27490759",
                "article": null
            }
        },
        {
            "type": "Feature",
            "geometry": {
                "type": "Point",
                "coordinates": [
                    12.989722222,
                    32.168888888
                ]
            },
            "properties": {
                "name": "Q27491057",
                "article": null
            }
        },
        {
            "type": "Feature",
            "geometry": {
                "type": "Point",
                "coordinates": [
                    11.02253,
                    31.84247
                ]
            },
            "properties": {
                "name": "Q27491072",
                "article": null
            }
        },
        {
            "type": "Feature",
            "geometry": {
                "type": "Point",
                "coordinates": [
                    13.497222222,
                    32.135277777
                ]
            },
            "properties": {
                "name": "Q27491081",
                "article": null
            }
        },
        {
            "type": "Feature",
            "geometry": {
                "type": "Point",
                "coordinates": [
                    20.933333333,
                    32.5
                ]
            },
            "properties": {
                "name": "Q27491135",
                "article": null
            }
        },
        {
            "type": "Feature",
            "geometry": {
                "type": "Point",
                "coordinates": [
                    24.666666666,
                    23.166666666
                ]
            },
            "properties": {
                "name": "Q27491235",
                "article": null
            }
        },
        {
            "type": "Feature",
            "geometry": {
                "type": "Point",
                "coordinates": [
                    13.44535,
                    32.13772
                ]
            },
            "properties": {
                "name": "Q27491847",
                "article": null
            }
        },
        {
            "type": "Feature",
            "geometry": {
                "type": "Point",
                "coordinates": [
                    13.2725,
                    32.183333333
                ]
            },
            "properties": {
                "name": "Al Qulayb al Usaywid",
                "article": null
            }
        },
        {
            "type": "Feature",
            "geometry": {
                "type": "Point",
                "coordinates": [
                    12.888611111,
                    31.9325
                ]
            },
            "properties": {
                "name": "Q27491871",
                "article": null
            }
        },
        {
            "type": "Feature",
            "geometry": {
                "type": "Point",
                "coordinates": [
                    12.85056,
                    32.06472
                ]
            },
            "properties": {
                "name": "Ra’s al Wādī",
                "article": null
            }
        },
        {
            "type": "Feature",
            "geometry": {
                "type": "Point",
                "coordinates": [
                    10.99149,
                    31.87473
                ]
            },
            "properties": {
                "name": "Q27491931",
                "article": null
            }
        },
        {
            "type": "Feature",
            "geometry": {
                "type": "Point",
                "coordinates": [
                    13.1675,
                    32.149444444
                ]
            },
            "properties": {
                "name": "Khashm az Zabs",
                "article": null
            }
        },
        {
            "type": "Feature",
            "geometry": {
                "type": "Point",
                "coordinates": [
                    13.18778,
                    32.03028
                ]
            },
            "properties": {
                "name": "Q27491982",
                "article": null
            }
        },
        {
            "type": "Feature",
            "geometry": {
                "type": "Point",
                "coordinates": [
                    13.08667,
                    32.21194
                ]
            },
            "properties": {
                "name": "Q27491997",
                "article": null
            }
        },
        {
            "type": "Feature",
            "geometry": {
                "type": "Point",
                "coordinates": [
                    12.725555555,
                    32.115833333
                ]
            },
            "properties": {
                "name": "Q27492028",
                "article": null
            }
        },
        {
            "type": "Feature",
            "geometry": {
                "type": "Point",
                "coordinates": [
                    10.9693,
                    31.9189
                ]
            },
            "properties": {
                "name": "Q27492040",
                "article": null
            }
        },
        {
            "type": "Feature",
            "geometry": {
                "type": "Point",
                "coordinates": [
                    11.08959,
                    31.88064
                ]
            },
            "properties": {
                "name": "Q27492063",
                "article": null
            }
        },
        {
            "type": "Feature",
            "geometry": {
                "type": "Point",
                "coordinates": [
                    13.09194,
                    32.20361
                ]
            },
            "properties": {
                "name": "Q27492559",
                "article": null
            }
        },
        {
            "type": "Feature",
            "geometry": {
                "type": "Point",
                "coordinates": [
                    13.110833333,
                    31.998611111
                ]
            },
            "properties": {
                "name": "Q27492564",
                "article": null
            }
        },
        {
            "type": "Feature",
            "geometry": {
                "type": "Point",
                "coordinates": [
                    11.017222222,
                    31.884722222
                ]
            },
            "properties": {
                "name": "Q27492571",
                "article": null
            }
        },
        {
            "type": "Feature",
            "geometry": {
                "type": "Point",
                "coordinates": [
                    12.9825,
                    31.5042
                ]
            },
            "properties": {
                "name": "Q27492791",
                "article": null
            }
        },
        {
            "type": "Feature",
            "geometry": {
                "type": "Point",
                "coordinates": [
                    13.288055555,
                    32.039722222
                ]
            },
            "properties": {
                "name": "Q27492579",
                "article": null
            }
        },
        {
            "type": "Feature",
            "geometry": {
                "type": "Point",
                "coordinates": [
                    10.881111111,
                    31.819444444
                ]
            },
            "properties": {
                "name": "Q27492600",
                "article": null
            }
        },
        {
            "type": "Feature",
            "geometry": {
                "type": "Point",
                "coordinates": [
                    10.91538,
                    31.84321
                ]
            },
            "properties": {
                "name": "Q27492604",
                "article": null
            }
        },
        {
            "type": "Feature",
            "geometry": {
                "type": "Point",
                "coordinates": [
                    13.230555555,
                    31.881666666
                ]
            },
            "properties": {
                "name": "Q27492611",
                "article": null
            }
        },
        {
            "type": "Feature",
            "geometry": {
                "type": "Point",
                "coordinates": [
                    13.2265,
                    31.9455
                ]
            },
            "properties": {
                "name": "Q27492665",
                "article": null
            }
        },
        {
            "type": "Feature",
            "geometry": {
                "type": "Point",
                "coordinates": [
                    11.07568,
                    31.88079
                ]
            },
            "properties": {
                "name": "Q27492693",
                "article": null
            }
        },
        {
            "type": "Feature",
            "geometry": {
                "type": "Point",
                "coordinates": [
                    13.325,
                    32.2669
                ]
            },
            "properties": {
                "name": "Q27492703",
                "article": null
            }
        },
        {
            "type": "Feature",
            "geometry": {
                "type": "Point",
                "coordinates": [
                    17.41667,
                    27.63333
                ]
            },
            "properties": {
                "name": "Q27492733",
                "article": null
            }
        },
        {
            "type": "Feature",
            "geometry": {
                "type": "Point",
                "coordinates": [
                    12.883333333,
                    31.433333333
                ]
            },
            "properties": {
                "name": "Q27492742",
                "article": null
            }
        },
        {
            "type": "Feature",
            "geometry": {
                "type": "Point",
                "coordinates": [
                    12.99,
                    31.2992
                ]
            },
            "properties": {
                "name": "Q27492743",
                "article": null
            }
        },
        {
            "type": "Feature",
            "geometry": {
                "type": "Point",
                "coordinates": [
                    13.20917,
                    32.22889
                ]
            },
            "properties": {
                "name": "Q27492748",
                "article": null
            }
        },
        {
            "type": "Feature",
            "geometry": {
                "type": "Point",
                "coordinates": [
                    13.4852,
                    32.01161
                ]
            },
            "properties": {
                "name": "Q27492769",
                "article": null
            }
        },
        {
            "type": "Feature",
            "geometry": {
                "type": "Point",
                "coordinates": [
                    13.430555555,
                    32.008333333
                ]
            },
            "properties": {
                "name": "Q27492781",
                "article": null
            }
        },
        {
            "type": "Feature",
            "geometry": {
                "type": "Point",
                "coordinates": [
                    13.43981,
                    32.16973
                ]
            },
            "properties": {
                "name": "Q27493231",
                "article": null
            }
        },
        {
            "type": "Feature",
            "geometry": {
                "type": "Point",
                "coordinates": [
                    13.43274,
                    32.2155
                ]
            },
            "properties": {
                "name": "Q27493242",
                "article": null
            }
        },
        {
            "type": "Feature",
            "geometry": {
                "type": "Point",
                "coordinates": [
                    13.42015,
                    32.2129
                ]
            },
            "properties": {
                "name": "Q27493243",
                "article": null
            }
        },
        {
            "type": "Feature",
            "geometry": {
                "type": "Point",
                "coordinates": [
                    10.918611111,
                    31.751666666
                ]
            },
            "properties": {
                "name": "Jabal Shawdhab",
                "article": null
            }
        },
        {
            "type": "Feature",
            "geometry": {
                "type": "Point",
                "coordinates": [
                    10.920555555,
                    31.805277777
                ]
            },
            "properties": {
                "name": "Khashm Shawdhab",
                "article": null
            }
        },
        {
            "type": "Feature",
            "geometry": {
                "type": "Point",
                "coordinates": [
                    12.861666666,
                    31.865
                ]
            },
            "properties": {
                "name": "Q27493280",
                "article": null
            }
        },
        {
            "type": "Feature",
            "geometry": {
                "type": "Point",
                "coordinates": [
                    13.271944444,
                    32.1075
                ]
            },
            "properties": {
                "name": "Q27493287",
                "article": null
            }
        },
        {
            "type": "Feature",
            "geometry": {
                "type": "Point",
                "coordinates": [
                    13.4613,
                    32.1451
                ]
            },
            "properties": {
                "name": "Q27493312",
                "article": null
            }
        },
        {
            "type": "Feature",
            "geometry": {
                "type": "Point",
                "coordinates": [
                    10.91132,
                    31.78028
                ]
            },
            "properties": {
                "name": "Q27493316",
                "article": null
            }
        },
        {
            "type": "Feature",
            "geometry": {
                "type": "Point",
                "coordinates": [
                    11.36355,
                    32.158
                ]
            },
            "properties": {
                "name": "Q27493322",
                "article": null
            }
        },
        {
            "type": "Feature",
            "geometry": {
                "type": "Point",
                "coordinates": [
                    13.378611111,
                    32.188333333
                ]
            },
            "properties": {
                "name": "Q27493326",
                "article": null
            }
        },
        {
            "type": "Feature",
            "geometry": {
                "type": "Point",
                "coordinates": [
                    12.847777777,
                    32.123055555
                ]
            },
            "properties": {
                "name": "Q27493342",
                "article": null
            }
        },
        {
            "type": "Feature",
            "geometry": {
                "type": "Point",
                "coordinates": [
                    12.669444444,
                    32.151666666
                ]
            },
            "properties": {
                "name": "Q27493340",
                "article": null
            }
        },
        {
            "type": "Feature",
            "geometry": {
                "type": "Point",
                "coordinates": [
                    12.920277777,
                    32.187222222
                ]
            },
            "properties": {
                "name": "Q27493396",
                "article": null
            }
        },
        {
            "type": "Feature",
            "geometry": {
                "type": "Point",
                "coordinates": [
                    12.745,
                    32.1083
                ]
            },
            "properties": {
                "name": "Q27493397",
                "article": null
            }
        },
        {
            "type": "Feature",
            "geometry": {
                "type": "Point",
                "coordinates": [
                    13.03,
                    32.222777777
                ]
            },
            "properties": {
                "name": "Q27493410",
                "article": null
            }
        },
        {
            "type": "Feature",
            "geometry": {
                "type": "Point",
                "coordinates": [
                    12.516111111,
                    32.126388888
                ]
            },
            "properties": {
                "name": "Q27493424",
                "article": null
            }
        },
        {
            "type": "Feature",
            "geometry": {
                "type": "Point",
                "coordinates": [
                    12.9275,
                    32.123611111
                ]
            },
            "properties": {
                "name": "Q27493516",
                "article": null
            }
        },
        {
            "type": "Feature",
            "geometry": {
                "type": "Point",
                "coordinates": [
                    13.242222222,
                    32.166666666
                ]
            },
            "properties": {
                "name": "Q27493517",
                "article": null
            }
        },
        {
            "type": "Feature",
            "geometry": {
                "type": "Point",
                "coordinates": [
                    13.68675,
                    32.59258
                ]
            },
            "properties": {
                "name": "Q27493526",
                "article": null
            }
        },
        {
            "type": "Feature",
            "geometry": {
                "type": "Point",
                "coordinates": [
                    13.30261,
                    32.11658
                ]
            },
            "properties": {
                "name": "Q27493542",
                "article": null
            }
        },
        {
            "type": "Feature",
            "geometry": {
                "type": "Point",
                "coordinates": [
                    12.2855,
                    32.0314
                ]
            },
            "properties": {
                "name": "Khashm ar Rakhmah",
                "article": null
            }
        },
        {
            "type": "Feature",
            "geometry": {
                "type": "Point",
                "coordinates": [
                    13.26626,
                    32.24741
                ]
            },
            "properties": {
                "name": "Q27493548",
                "article": null
            }
        },
        {
            "type": "Feature",
            "geometry": {
                "type": "Point",
                "coordinates": [
                    13.296944444,
                    32.0525
                ]
            },
            "properties": {
                "name": "Q27493562",
                "article": null
            }
        },
        {
            "type": "Feature",
            "geometry": {
                "type": "Point",
                "coordinates": [
                    13.21829,
                    31.87557
                ]
            },
            "properties": {
                "name": "Q27493563",
                "article": null
            }
        },
        {
            "type": "Feature",
            "geometry": {
                "type": "Point",
                "coordinates": [
                    13.2615,
                    32.0126
                ]
            },
            "properties": {
                "name": "Q27493567",
                "article": null
            }
        },
        {
            "type": "Feature",
            "geometry": {
                "type": "Point",
                "coordinates": [
                    11.16583,
                    31.8175
                ]
            },
            "properties": {
                "name": "Q27493568",
                "article": null
            }
        },
        {
            "type": "Feature",
            "geometry": {
                "type": "Point",
                "coordinates": [
                    13.01778,
                    32.01528
                ]
            },
            "properties": {
                "name": "Q27493702",
                "article": null
            }
        },
        {
            "type": "Feature",
            "geometry": {
                "type": "Point",
                "coordinates": [
                    12.828,
                    31.81958
                ]
            },
            "properties": {
                "name": "Q27493700",
                "article": null
            }
        },
        {
            "type": "Feature",
            "geometry": {
                "type": "Point",
                "coordinates": [
                    12.836111111,
                    31.846388888
                ]
            },
            "properties": {
                "name": "Q27493701",
                "article": null
            }
        },
        {
            "type": "Feature",
            "geometry": {
                "type": "Point",
                "coordinates": [
                    12.76315,
                    32.00994
                ]
            },
            "properties": {
                "name": "Q27493722",
                "article": null
            }
        },
        {
            "type": "Feature",
            "geometry": {
                "type": "Point",
                "coordinates": [
                    13.18417,
                    32.23917
                ]
            },
            "properties": {
                "name": "Q27493601",
                "article": null
            }
        },
        {
            "type": "Feature",
            "geometry": {
                "type": "Point",
                "coordinates": [
                    12.845,
                    31.3792
                ]
            },
            "properties": {
                "name": "Q27493631",
                "article": null
            }
        },
        {
            "type": "Feature",
            "geometry": {
                "type": "Point",
                "coordinates": [
                    13.044722222,
                    32.165833333
                ]
            },
            "properties": {
                "name": "Q27493644",
                "article": null
            }
        },
        {
            "type": "Feature",
            "geometry": {
                "type": "Point",
                "coordinates": [
                    13.003055555,
                    32.277222222
                ]
            },
            "properties": {
                "name": "Q27493650",
                "article": null
            }
        },
        {
            "type": "Feature",
            "geometry": {
                "type": "Point",
                "coordinates": [
                    13.47689,
                    32.16157
                ]
            },
            "properties": {
                "name": "Q27493668",
                "article": null
            }
        },
        {
            "type": "Feature",
            "geometry": {
                "type": "Point",
                "coordinates": [
                    13.43244,
                    32.19647
                ]
            },
            "properties": {
                "name": "Q27493673",
                "article": null
            }
        },
        {
            "type": "Feature",
            "geometry": {
                "type": "Point",
                "coordinates": [
                    13.098611111,
                    31.962777777
                ]
            },
            "properties": {
                "name": "Q27493942",
                "article": null
            }
        },
        {
            "type": "Feature",
            "geometry": {
                "type": "Point",
                "coordinates": [
                    13.288333333,
                    32.214722222
                ]
            },
            "properties": {
                "name": "Q27493947",
                "article": null
            }
        },
        {
            "type": "Feature",
            "geometry": {
                "type": "Point",
                "coordinates": [
                    13.46196,
                    32.40233
                ]
            },
            "properties": {
                "name": "Q27493962",
                "article": null
            }
        },
        {
            "type": "Feature",
            "geometry": {
                "type": "Point",
                "coordinates": [
                    13.192777777,
                    32.096666666
                ]
            },
            "properties": {
                "name": "Q27493990",
                "article": null
            }
        },
        {
            "type": "Feature",
            "geometry": {
                "type": "Point",
                "coordinates": [
                    13.0938,
                    32.14471
                ]
            },
            "properties": {
                "name": "Q27493989",
                "article": null
            }
        },
        {
            "type": "Feature",
            "geometry": {
                "type": "Point",
                "coordinates": [
                    13.3508,
                    31.4058
                ]
            },
            "properties": {
                "name": "Jabal an Nasamah",
                "article": null
            }
        },
        {
            "type": "Feature",
            "geometry": {
                "type": "Point",
                "coordinates": [
                    19.666666666,
                    23.333333333
                ]
            },
            "properties": {
                "name": "Jabal Nuqayy",
                "article": null
            }
        },
        {
            "type": "Feature",
            "geometry": {
                "type": "Point",
                "coordinates": [
                    13.42016,
                    32.14614
                ]
            },
            "properties": {
                "name": "Q27494036",
                "article": null
            }
        },
        {
            "type": "Feature",
            "geometry": {
                "type": "Point",
                "coordinates": [
                    11.88333,
                    31.93004
                ]
            },
            "properties": {
                "name": "Q27494056",
                "article": null
            }
        },
        {
            "type": "Feature",
            "geometry": {
                "type": "Point",
                "coordinates": [
                    13.8158,
                    32.5975
                ]
            },
            "properties": {
                "name": "Q27494078",
                "article": null
            }
        },
        {
            "type": "Feature",
            "geometry": {
                "type": "Point",
                "coordinates": [
                    14.166666666,
                    32.433333333
                ]
            },
            "properties": {
                "name": "Q27494113",
                "article": null
            }
        },
        {
            "type": "Feature",
            "geometry": {
                "type": "Point",
                "coordinates": [
                    12.936388888,
                    32.2
                ]
            },
            "properties": {
                "name": "Q27494141",
                "article": null
            }
        },
        {
            "type": "Feature",
            "geometry": {
                "type": "Point",
                "coordinates": [
                    13.4249,
                    32.0415
                ]
            },
            "properties": {
                "name": "Q27494159",
                "article": null
            }
        },
        {
            "type": "Feature",
            "geometry": {
                "type": "Point",
                "coordinates": [
                    12.901111111,
                    32.160277777
                ]
            },
            "properties": {
                "name": "Q27494171",
                "article": null
            }
        },
        {
            "type": "Feature",
            "geometry": {
                "type": "Point",
                "coordinates": [
                    12.8986,
                    32.21
                ]
            },
            "properties": {
                "name": "Q27494315",
                "article": null
            }
        },
        {
            "type": "Feature",
            "geometry": {
                "type": "Point",
                "coordinates": [
                    12.895833333,
                    32.171111111
                ]
            },
            "properties": {
                "name": "Q27494316",
                "article": null
            }
        },
        {
            "type": "Feature",
            "geometry": {
                "type": "Point",
                "coordinates": [
                    12.73442,
                    32.12094
                ]
            },
            "properties": {
                "name": "Q27494331",
                "article": null
            }
        },
        {
            "type": "Feature",
            "geometry": {
                "type": "Point",
                "coordinates": [
                    10.919444444,
                    31.810833333
                ]
            },
            "properties": {
                "name": "Q27494336",
                "article": null
            }
        },
        {
            "type": "Feature",
            "geometry": {
                "type": "Point",
                "coordinates": [
                    13.265,
                    32.196944444
                ]
            },
            "properties": {
                "name": "Q27494346",
                "article": null
            }
        },
        {
            "type": "Feature",
            "geometry": {
                "type": "Point",
                "coordinates": [
                    18.5817,
                    25.1358
                ]
            },
            "properties": {
                "name": "Q27494350",
                "article": null
            }
        },
        {
            "type": "Feature",
            "geometry": {
                "type": "Point",
                "coordinates": [
                    13.45514,
                    32.40374
                ]
            },
            "properties": {
                "name": "Ra's al Marqab",
                "article": null
            }
        },
        {
            "type": "Feature",
            "geometry": {
                "type": "Point",
                "coordinates": [
                    16.133333333,
                    25.966666666
                ]
            },
            "properties": {
                "name": "Q27494354",
                "article": null
            }
        },
        {
            "type": "Feature",
            "geometry": {
                "type": "Point",
                "coordinates": [
                    13.148611111,
                    32.227222222
                ]
            },
            "properties": {
                "name": "Q27494352",
                "article": null
            }
        },
        {
            "type": "Feature",
            "geometry": {
                "type": "Point",
                "coordinates": [
                    13.1775,
                    32.217777777
                ]
            },
            "properties": {
                "name": "Q27494353",
                "article": null
            }
        },
        {
            "type": "Feature",
            "geometry": {
                "type": "Point",
                "coordinates": [
                    10.88105,
                    31.77545
                ]
            },
            "properties": {
                "name": "Q27494371",
                "article": null
            }
        },
        {
            "type": "Feature",
            "geometry": {
                "type": "Point",
                "coordinates": [
                    13.25598,
                    32.22067
                ]
            },
            "properties": {
                "name": "Q27494368",
                "article": null
            }
        },
        {
            "type": "Feature",
            "geometry": {
                "type": "Point",
                "coordinates": [
                    13.29069,
                    32.13215
                ]
            },
            "properties": {
                "name": "Q27494374",
                "article": null
            }
        },
        {
            "type": "Feature",
            "geometry": {
                "type": "Point",
                "coordinates": [
                    10.80902,
                    31.89193
                ]
            },
            "properties": {
                "name": "Q27494392",
                "article": null
            }
        },
        {
            "type": "Feature",
            "geometry": {
                "type": "Point",
                "coordinates": [
                    12.9667,
                    31.2267
                ]
            },
            "properties": {
                "name": "Q27494411",
                "article": null
            }
        },
        {
            "type": "Feature",
            "geometry": {
                "type": "Point",
                "coordinates": [
                    13.10111,
                    32.15222
                ]
            },
            "properties": {
                "name": "Q27494412",
                "article": null
            }
        },
        {
            "type": "Feature",
            "geometry": {
                "type": "Point",
                "coordinates": [
                    13.12806,
                    32.24556
                ]
            },
            "properties": {
                "name": "Q27494439",
                "article": null
            }
        },
        {
            "type": "Feature",
            "geometry": {
                "type": "Point",
                "coordinates": [
                    13.1158,
                    31.8483
                ]
            },
            "properties": {
                "name": "Q27494442",
                "article": null
            }
        },
        {
            "type": "Feature",
            "geometry": {
                "type": "Point",
                "coordinates": [
                    13.44173,
                    32.2015
                ]
            },
            "properties": {
                "name": "Q27494443",
                "article": null
            }
        },
        {
            "type": "Feature",
            "geometry": {
                "type": "Point",
                "coordinates": [
                    12.814166666,
                    31.673611111
                ]
            },
            "properties": {
                "name": "Q27494441",
                "article": null
            }
        },
        {
            "type": "Feature",
            "geometry": {
                "type": "Point",
                "coordinates": [
                    13.294722222,
                    32.243055555
                ]
            },
            "properties": {
                "name": "Q27494478",
                "article": null
            }
        },
        {
            "type": "Feature",
            "geometry": {
                "type": "Point",
                "coordinates": [
                    13.300555555,
                    32.233055555
                ]
            },
            "properties": {
                "name": "Q27494477",
                "article": null
            }
        },
        {
            "type": "Feature",
            "geometry": {
                "type": "Point",
                "coordinates": [
                    11.4767,
                    31.8628
                ]
            },
            "properties": {
                "name": "Q27494920",
                "article": null
            }
        },
        {
            "type": "Feature",
            "geometry": {
                "type": "Point",
                "coordinates": [
                    13.064722222,
                    32.169444444
                ]
            },
            "properties": {
                "name": "Q27495051",
                "article": null
            }
        },
        {
            "type": "Feature",
            "geometry": {
                "type": "Point",
                "coordinates": [
                    12.688611111,
                    31.527777777
                ]
            },
            "properties": {
                "name": "Q27495056",
                "article": null
            }
        },
        {
            "type": "Feature",
            "geometry": {
                "type": "Point",
                "coordinates": [
                    15.5,
                    29.166666666
                ]
            },
            "properties": {
                "name": "Jabal al Makhraq",
                "article": null
            }
        },
        {
            "type": "Feature",
            "geometry": {
                "type": "Point",
                "coordinates": [
                    13.206388888,
                    32.193333333
                ]
            },
            "properties": {
                "name": "Q27495067",
                "article": null
            }
        },
        {
            "type": "Feature",
            "geometry": {
                "type": "Point",
                "coordinates": [
                    12.11158,
                    32.00991
                ]
            },
            "properties": {
                "name": "Q27495079",
                "article": null
            }
        },
        {
            "type": "Feature",
            "geometry": {
                "type": "Point",
                "coordinates": [
                    13.334722222,
                    32.004444444
                ]
            },
            "properties": {
                "name": "Q27495573",
                "article": null
            }
        },