{
    "type": "FeatureCollection",
    "features": [
        {
            "type": "Feature",
            "geometry": {
                "type": "Point",
                "coordinates": [
                    -9.615,
                    16.661388888
                ]
            },
            "properties": {
                "name": "Ayoun el Atrous",
                "article": "https://en.wikipedia.org/wiki/Ayoun_el_Atrous"
            }
        },
        {
            "type": "Feature",
            "geometry": {
                "type": "Point",
                "coordinates": [
                    -17.033333333,
                    20.95
                ]
            },
            "properties": {
                "name": "Nouadhibou",
                "article": "https://en.wikipedia.org/wiki/Nouadhibou"
            }
        },
        {
            "type": "Feature",
            "geometry": {
                "type": "Point",
                "coordinates": [
                    -12.4725,
                    22.734444444
                ]
            },
            "properties": {
                "name": "Zouérat",
                "article": "https://en.wikipedia.org/wiki/Zou%C3%A9rat"
            }
        },
        {
            "type": "Feature",
            "geometry": {
                "type": "Point",
                "coordinates": [
                    -14.383333333,
                    19.75
                ]
            },
            "properties": {
                "name": "Akjoujt",
                "article": "https://en.wikipedia.org/wiki/Akjoujt"
            }
        },
        {
            "type": "Feature",
            "geometry": {
                "type": "Point",
                "coordinates": [
                    -13.66666667,
                    21.23333333
                ]
            },
            "properties": {
                "name": "Ben Amera",
                "article": "https://en.wikipedia.org/wiki/Ben_Amera"
            }
        },
        {
            "type": "Feature",
            "geometry": {
                "type": "Point",
                "coordinates": [
                    -11.404444444,
                    16.616388888
                ]
            },
            "properties": {
                "name": "Kiffa",
                "article": "https://en.wikipedia.org/wiki/Kiffa"
            }
        },
        {
            "type": "Feature",
            "geometry": {
                "type": "Point",
                "coordinates": [
                    -16.461388888,
                    20.603333333
                ]
            },
            "properties": {
                "name": "Arguin",
                "article": "https://en.wikipedia.org/wiki/Arguin"
            }
        },
        {
            "type": "Feature",
            "geometry": {
                "type": "Point",
                "coordinates": [
                    -7.968611111,
                    15.765555555
                ]
            },
            "properties": {
                "name": "Koumbi Saleh",
                "article": "https://en.wikipedia.org/wiki/Koumbi_Saleh"
            }
        },
        {
            "type": "Feature",
            "geometry": {
                "type": "Point",
                "coordinates": [
                    -13.05,
                    20.516666666
                ]
            },
            "properties": {
                "name": "Atar",
                "article": "https://en.wikipedia.org/wiki/Atar,_Mauritania"
            }
        },
        {
            "type": "Feature",
            "geometry": {
                "type": "Point",
                "coordinates": [
                    -8.1675,
                    16.244722222
                ]
            },
            "properties": {
                "name": "Timbédra",
                "article": "https://en.wikipedia.org/wiki/Timb%C3%A9dra"
            }
        },
        {
            "type": "Feature",
            "geometry": {
                "type": "Point",
                "coordinates": [
                    -16.491625,
                    19.70499444
                ]
            },
            "properties": {
                "name": "Kijji",
                "article": "https://en.wikipedia.org/wiki/Kijji"
            }
        },
        {
            "type": "Feature",
            "geometry": {
                "type": "Point",
                "coordinates": [
                    -16.40048056,
                    19.74173333
                ]
            },
            "properties": {
                "name": "Tidra",
                "article": "https://en.wikipedia.org/wiki/Tidra"
            }
        },
        {
            "type": "Feature",
            "geometry": {
                "type": "Point",
                "coordinates": [
                    -12.589444444,
                    22.663888888
                ]
            },
            "properties": {
                "name": "Kediet ej Jill",
                "article": "https://en.wikipedia.org/wiki/Kediet_ej_Jill"
            }
        },
        {
            "type": "Feature",
            "geometry": {
                "type": "Point",
                "coordinates": [
                    -8.304498,
                    21.062146
                ]
            },
            "properties": {
                "name": "Battle of Tabfarilla",
                "article": "https://en.wikipedia.org/wiki/Battle_of_Tabfarilla"
            }
        },
        {
            "type": "Feature",
            "geometry": {
                "type": "Point",
                "coordinates": [
                    -16.389,
                    19.867
                ]
            },
            "properties": {
                "name": "Nair",
                "article": "https://en.wikipedia.org/wiki/Nair_(Mauritania)"
            }
        },
        {
            "type": "Feature",
            "geometry": {
                "type": "Point",
                "coordinates": [
                    -11.523603,
                    18.546559
                ]
            },
            "properties": {
                "name": "Q11949674",
                "article": null
            }
        },
        {
            "type": "Feature",
            "geometry": {
                "type": "Point",
                "coordinates": [
                    -13.156944444,
                    16.221666666
                ]
            },
            "properties": {
                "name": "Legceïba",
                "article": null
            }
        },
        {
            "type": "Feature",
            "geometry": {
                "type": "Point",
                "coordinates": [
                    -16.28333333,
                    20.01666667
                ]
            },
            "properties": {
                "name": "Kiaone",
                "article": "https://en.wikipedia.org/wiki/Kiaone"
            }
        },
        {
            "type": "Feature",
            "geometry": {
                "type": "Point",
                "coordinates": [
                    -5.953333333,
                    15.865555555
                ]
            },
            "properties": {
                "name": "Battle of Bassiknou",
                "article": "https://en.wikipedia.org/wiki/Battle_of_Bassikounou"
            }
        },
        {
            "type": "Feature",
            "geometry": {
                "type": "Point",
                "coordinates": [
                    -13.399,
                    16.924
                ]
            },
            "properties": {
                "name": "Lac de Mâl",
                "article": "https://en.wikipedia.org/wiki/Lac_de_M%C3%A2l"
            }
        },
        {
            "type": "Feature",
            "geometry": {
                "type": "Point",
                "coordinates": [
                    -12.069,
                    16.58
                ]
            },
            "properties": {
                "name": "Le Bheyr",
                "article": null
            }
        },
        {
            "type": "Feature",
            "geometry": {
                "type": "Point",
                "coordinates": [
                    -15.396667,
                    16.848056
                ]
            },
            "properties": {
                "name": "Q24260545",
                "article": null
            }
        },
        {
            "type": "Feature",
            "geometry": {
                "type": "Point",
                "coordinates": [
                    -7.152777777,
                    15.618055555
                ]
            },
            "properties": {
                "name": "El Arch",
                "article": null
            }
        },
        {
            "type": "Feature",
            "geometry": {
                "type": "Point",
                "coordinates": [
                    -12.6583,
                    22.6625
                ]
            },
            "properties": {
                "name": "Q27729954",
                "article": null
            }
        },
        {
            "type": "Feature",
            "geometry": {
                "type": "Point",
                "coordinates": [
                    -11.76318,
                    22.50311
                ]
            },
            "properties": {
                "name": "Q27730069",
                "article": null
            }
        },
        {
            "type": "Feature",
            "geometry": {
                "type": "Point",
                "coordinates": [
                    -7.3133,
                    19.5108
                ]
            },
            "properties": {
                "name": "Adrar Toussasset",
                "article": null
            }
        },
        {
            "type": "Feature",
            "geometry": {
                "type": "Point",
                "coordinates": [
                    -8.5798,
                    23.1874
                ]
            },
            "properties": {
                "name": "Q27730096",
                "article": null
            }
        },
        {
            "type": "Feature",
            "geometry": {
                "type": "Point",
                "coordinates": [
                    -10.655277777,
                    23.789166666
                ]
            },
            "properties": {
                "name": "Zednes",
                "article": null
            }
        },
        {
            "type": "Feature",
            "geometry": {
                "type": "Point",
                "coordinates": [
                    -12.555555555,
                    22.653611111
                ]
            },
            "properties": {
                "name": "Anâguer es Seyâla",
                "article": null
            }
        },
        {
            "type": "Feature",
            "geometry": {
                "type": "Point",
                "coordinates": [
                    -11.18841,
                    25.4816
                ]
            },
            "properties": {
                "name": "Q27730523",
                "article": null
            }
        },
        {
            "type": "Feature",
            "geometry": {
                "type": "Point",
                "coordinates": [
                    -11.809,
                    16.9967
                ]
            },
            "properties": {
                "name": "Q27730544",
                "article": null
            }
        },
        {
            "type": "Feature",
            "geometry": {
                "type": "Point",
                "coordinates": [
                    -11.7436,
                    16.9719
                ]
            },
            "properties": {
                "name": "Q27730545",
                "article": null
            }
        },
        {
            "type": "Feature",
            "geometry": {
                "type": "Point",
                "coordinates": [
                    -12.7514,
                    20.6093
                ]
            },
            "properties": {
                "name": "Q27730603",
                "article": null
            }
        },
        {
            "type": "Feature",
            "geometry": {
                "type": "Point",
                "coordinates": [
                    -5.38271,
                    16.09993
                ]
            },
            "properties": {
                "name": "Q27730669",
                "article": null
            }
        },
        {
            "type": "Feature",
            "geometry": {
                "type": "Point",
                "coordinates": [
                    -10.123333333,
                    16.793333333
                ]
            },
            "properties": {
                "name": "Gleïbât Oûlâd Dâoûd",
                "article": null
            }
        },
        {
            "type": "Feature",
            "geometry": {
                "type": "Point",
                "coordinates": [
                    -11.7496,
                    25.5909
                ]
            },
            "properties": {
                "name": "Q27730999",
                "article": null
            }
        },
        {
            "type": "Feature",
            "geometry": {
                "type": "Point",
                "coordinates": [
                    -16.67553,
                    20.69651
                ]
            },
            "properties": {
                "name": "Q27731046",
                "article": null
            }
        },
        {
            "type": "Feature",
            "geometry": {
                "type": "Point",
                "coordinates": [
                    -12.45,
                    19.616666666
                ]
            },
            "properties": {
                "name": "Massif de Sbaya",
                "article": null
            }
        },
        {
            "type": "Feature",
            "geometry": {
                "type": "Point",
                "coordinates": [
                    -16.34692,
                    19.67921
                ]
            },
            "properties": {
                "name": "Serenni",
                "article": null
            }
        },
        {
            "type": "Feature",
            "geometry": {
                "type": "Point",
                "coordinates": [
                    -12.0508,
                    15.0633
                ]
            },
            "properties": {
                "name": "Massif de Mbalou",
                "article": null
            }
        },
        {
            "type": "Feature",
            "geometry": {
                "type": "Point",
                "coordinates": [
                    -8.1391,
                    16.2956
                ]
            },
            "properties": {
                "name": "Q27731580",
                "article": null
            }
        },
        {
            "type": "Feature",
            "geometry": {
                "type": "Point",
                "coordinates": [
                    -16.383333333,
                    19.85
                ]
            },
            "properties": {
                "name": "Q27732252",
                "article": null
            }
        },
        {
            "type": "Feature",
            "geometry": {
                "type": "Point",
                "coordinates": [
                    -12.566666666,
                    22.65
                ]
            },
            "properties": {
                "name": "Guelb Jdareyat",
                "article": null
            }
        },
        {
            "type": "Feature",
            "geometry": {
                "type": "Point",
                "coordinates": [
                    -12.533333333,
                    22.65
                ]
            },
            "properties": {
                "name": "Guelb Jdareyat",
                "article": null
            }
        },
        {
            "type": "Feature",
            "geometry": {
                "type": "Point",
                "coordinates": [
                    -16.16142,
                    19.84975
                ]
            },
            "properties": {
                "name": "Q27732312",
                "article": null
            }
        },
        {
            "type": "Feature",
            "geometry": {
                "type": "Point",
                "coordinates": [
                    -12.64,
                    22.643333333
                ]
            },
            "properties": {
                "name": "Khneg Ḍbâ'",
                "article": null
            }
        },
        {
            "type": "Feature",
            "geometry": {
                "type": "Point",
                "coordinates": [
                    -16.283333333,
                    20.016666666
                ]
            },
            "properties": {
                "name": "Q27732386",
                "article": null
            }
        },
        {
            "type": "Feature",
            "geometry": {
                "type": "Point",
                "coordinates": [
                    -16.296388888,
                    20.015555555
                ]
            },
            "properties": {
                "name": "Q27732387",
                "article": null
            }
        },
        {
            "type": "Feature",
            "geometry": {
                "type": "Point",
                "coordinates": [
                    -16.484722222,
                    19.702777777
                ]
            },
            "properties": {
                "name": "Kîji",
                "article": null
            }
        },
        {
            "type": "Feature",
            "geometry": {
                "type": "Point",
                "coordinates": [
                    -12.6,
                    22.683333333
                ]
            },
            "properties": {
                "name": "Gâret el Kounta",
                "article": null
            }
        },
        {
            "type": "Feature",
            "geometry": {
                "type": "Point",
                "coordinates": [
                    -13.0,
                    19.2
                ]
            },
            "properties": {
                "name": "Krekra",
                "article": null
            }
        },
        {
            "type": "Feature",
            "geometry": {
                "type": "Point",
                "coordinates": [
                    -15.9785,
                    18.08581
                ]
            },
            "properties": {
                "name": "Nouakchott",
                "article": "https://en.wikipedia.org/wiki/Nouakchott"
            }
        },
        {
            "type": "Feature",
            "geometry": {
                "type": "Point",
                "coordinates": [
                    -11.809722222,
                    17.015833333
                ]
            },
            "properties": {
                "name": "El Metreyoûgha",
                "article": null
            }
        },
        {
            "type": "Feature",
            "geometry": {
                "type": "Point",
                "coordinates": [
                    -10.4356,
                    16.6102
                ]
            },
            "properties": {
                "name": "Q27731799",
                "article": null
            }
        },
        {
            "type": "Feature",
            "geometry": {
                "type": "Point",
                "coordinates": [
                    -11.5348,
                    17.1427
                ]
            },
            "properties": {
                "name": "Q27731852",
                "article": null
            }
        },
        {
            "type": "Feature",
            "geometry": {
                "type": "Point",
                "coordinates": [
                    -10.5235,
                    16.4558
                ]
            },
            "properties": {
                "name": "Q27732476",
                "article": null
            }
        },
        {
            "type": "Feature",
            "geometry": {
                "type": "Point",
                "coordinates": [
                    -16.49494,
                    20.62572
                ]
            },
            "properties": {
                "name": "Q27732525",
                "article": null
            }
        },
        {
            "type": "Feature",
            "geometry": {
                "type": "Point",
                "coordinates": [
                    -11.369444444,
                    17.390277777
                ]
            },
            "properties": {
                "name": "Gandeïga",
                "article": null
            }
        },
        {
            "type": "Feature",
            "geometry": {
                "type": "Point",
                "coordinates": [
                    -8.4439,
                    18.4223
                ]
            },
            "properties": {
                "name": "Q27732971",
                "article": null
            }
        },
        {
            "type": "Feature",
            "geometry": {
                "type": "Point",
                "coordinates": [
                    -11.448888888,
                    25.178055555
                ]
            },
            "properties": {
                "name": "Kedia Guemgoum",
                "article": null
            }
        },
        {
            "type": "Feature",
            "geometry": {
                "type": "Point",
                "coordinates": [
                    -12.633333333,
                    22.683333333
                ]
            },
            "properties": {
                "name": "Gleïb el Hamara",
                "article": null
            }
        },
        {
            "type": "Feature",
            "geometry": {
                "type": "Point",
                "coordinates": [
                    -12.331111111,
                    20.769166666
                ]
            },
            "properties": {
                "name": "Echeghel",
                "article": null
            }
        },
        {
            "type": "Feature",
            "geometry": {
                "type": "Point",
                "coordinates": [
                    -11.6846,
                    16.0493
                ]
            },
            "properties": {
                "name": "Q27733624",
                "article": null
            }
        },
        {
            "type": "Feature",
            "geometry": {
                "type": "Point",
                "coordinates": [
                    -8.176944444,
                    18.061388888
                ]
            },
            "properties": {
                "name": "Enji",
                "article": null
            }
        },
        {
            "type": "Feature",
            "geometry": {
                "type": "Point",
                "coordinates": [
                    -17.016666666,
                    21.033333333
                ]
            },
            "properties": {
                "name": "Q27733649",
                "article": null
            }
        },
        {
            "type": "Feature",
            "geometry": {
                "type": "Point",
                "coordinates": [
                    -10.8154,
                    16.4629
                ]
            },
            "properties": {
                "name": "Q27734407",
                "article": null
            }
        },
        {
            "type": "Feature",
            "geometry": {
                "type": "Point",
                "coordinates": [
                    -16.266666666,
                    20.05
                ]
            },
            "properties": {
                "name": "Q27734514",
                "article": null
            }
        },
        {
            "type": "Feature",
            "geometry": {
                "type": "Point",
                "coordinates": [
                    -12.016666666,
                    18.566666666
                ]
            },
            "properties": {
                "name": "Guelb Dbâgh",
                "article": null
            }
        },
        {
            "type": "Feature",
            "geometry": {
                "type": "Point",
                "coordinates": [
                    -10.531666666,
                    16.040555555
                ]
            },
            "properties": {
                "name": "Guelb Djafarât",
                "article": null
            }
        },
        {
            "type": "Feature",
            "geometry": {
                "type": "Point",
                "coordinates": [
                    -16.483333333,
                    20.616666666
                ]
            },
            "properties": {
                "name": "Q27738079",
                "article": null
            }
        },
        {
            "type": "Feature",
            "geometry": {
                "type": "Point",
                "coordinates": [
                    -16.524722222,
                    19.936111111
                ]
            },
            "properties": {
                "name": "Q27738089",
                "article": null
            }
        },
        {
            "type": "Feature",
            "geometry": {
                "type": "Point",
                "coordinates": [
                    -12.3187,
                    15.4522
                ]
            },
            "properties": {
                "name": "Q27738156",
                "article": null
            }
        },
        {
            "type": "Feature",
            "geometry": {
                "type": "Point",
                "coordinates": [
                    -14.46472,
                    18.73028
                ]
            },
            "properties": {
                "name": "Q27743439",
                "article": null
            }
        },
        {
            "type": "Feature",
            "geometry": {
                "type": "Point",
                "coordinates": [
                    -16.458333333,
                    16.089444444
                ]
            },
            "properties": {
                "name": "Q27743495",
                "article": null
            }
        },
        {
            "type": "Feature",
            "geometry": {
                "type": "Point",
                "coordinates": [
                    -12.533333333,
                    22.633333333
                ]
            },
            "properties": {
                "name": "Guelb Aderg",
                "article": null
            }
        },
        {
            "type": "Feature",
            "geometry": {
                "type": "Point",
                "coordinates": [
                    -11.2896,
                    17.4684
                ]
            },
            "properties": {
                "name": "Q27748445",
                "article": null
            }
        },
        {
            "type": "Feature",
            "geometry": {
                "type": "Point",
                "coordinates": [
                    -10.181666666,
                    16.901388888
                ]
            },
            "properties": {
                "name": "El Khomsânîyé",
                "article": null
            }
        },
        {
            "type": "Feature",
            "geometry": {
                "type": "Point",
                "coordinates": [
                    -10.573055555,
                    16.324166666
                ]
            },
            "properties": {
                "name": "Gleïb el 'Aïch",
                "article": null
            }
        },
        {
            "type": "Feature",
            "geometry": {
                "type": "Point",
                "coordinates": [
                    -10.523888888,
                    16.303888888
                ]
            },
            "properties": {
                "name": "Gleïb el Ghabra",
                "article": null
            }
        },
        {
            "type": "Feature",
            "geometry": {
                "type": "Point",
                "coordinates": [
                    -10.2208,
                    16.7274
                ]
            },
            "properties": {
                "name": "Q27748530",
                "article": null
            }
        },
        {
            "type": "Feature",
            "geometry": {
                "type": "Point",
                "coordinates": [
                    -10.2797,
                    16.6693
                ]
            },
            "properties": {
                "name": "Q27748531",
                "article": null
            }
        },
        {
            "type": "Feature",
            "geometry": {
                "type": "Point",
                "coordinates": [
                    -11.6945,
                    16.8999
                ]
            },
            "properties": {
                "name": "Q27748592",
                "article": null
            }
        },
        {
            "type": "Feature",
            "geometry": {
                "type": "Point",
                "coordinates": [
                    -16.389166666,
                    19.8575
                ]
            },
            "properties": {
                "name": "En Nâyer",
                "article": null
            }
        },
        {
            "type": "Feature",
            "geometry": {
                "type": "Point",
                "coordinates": [
                    -13.2128,
                    20.5744
                ]
            },
            "properties": {
                "name": "Q27749213",
                "article": null
            }
        },
        {
            "type": "Feature",
            "geometry": {
                "type": "Point",
                "coordinates": [
                    -12.724166666,
                    20.633888888
                ]
            },
            "properties": {
                "name": "Goûr Amogjâr",
                "article": "https://en.wikipedia.org/wiki/Agrour_Amogjar"
            }
        },
        {
            "type": "Feature",
            "geometry": {
                "type": "Point",
                "coordinates": [
                    -16.473055555,
                    19.629444444
                ]
            },
            "properties": {
                "name": "Chedded",
                "article": null
            }
        },
        {
            "type": "Feature",
            "geometry": {
                "type": "Point",
                "coordinates": [
                    -16.331944444,
                    19.7825
                ]
            },
            "properties": {
                "name": "Ajoueïr",
                "article": null
            }
        },
        {
            "type": "Feature",
            "geometry": {
                "type": "Point",
                "coordinates": [
                    -16.483055555,
                    19.643611111
                ]
            },
            "properties": {
                "name": "Q27754221",
                "article": null
            }
        },
        {
            "type": "Feature",
            "geometry": {
                "type": "Point",
                "coordinates": [
                    -16.280277777,
                    19.875
                ]
            },
            "properties": {
                "name": "Aouâtîl",
                "article": null
            }
        },
        {
            "type": "Feature",
            "geometry": {
                "type": "Point",
                "coordinates": [
                    -16.428611111,
                    16.3775
                ]
            },
            "properties": {
                "name": "Gadianguer",
                "article": null
            }
        },
        {
            "type": "Feature",
            "geometry": {
                "type": "Point",
                "coordinates": [
                    -15.416666666,
                    16.616666666
                ]
            },
            "properties": {
                "name": "Guidayo",
                "article": null
            }
        },
        {
            "type": "Feature",
            "geometry": {
                "type": "Point",
                "coordinates": [
                    -13.2,
                    15.65
                ]
            },
            "properties": {
                "name": "Q49301566",
                "article": null
            }
        },
        {
            "type": "Feature",
            "geometry": {
                "type": "Point",
                "coordinates": [
                    -16.383055555,
                    16.475833333
                ]
            },
            "properties": {
                "name": "Q49313328",
                "article": null
            }
        },
        {
            "type": "Feature",
            "geometry": {
                "type": "Point",
                "coordinates": [
                    -11.323888888,
                    15.853611111
                ]
            },
            "properties": {
                "name": "Q49314364",
                "article": null
            }
        },
        {
            "type": "Feature",
            "geometry": {
                "type": "Point",
                "coordinates": [
                    -12.466667,
                    22.683333
                ]
            },
            "properties": {
                "name": "Battle of Zouérat",
                "article": null
            }
        },
        {
            "type": "Feature",
            "geometry": {
                "type": "Point",
                "coordinates": [
                    -9.58694,
                    25.91778
                ]
            },
            "properties": {
                "name": "Battle of Ain Ben Tili",
                "article": "https://en.wikipedia.org/wiki/Battle_of_Ain_Ben_Tili_(January_1976)"
            }
        },
        {
            "type": "Feature",
            "geometry": {
                "type": "Point",
                "coordinates": [
                    -15.283333333,
                    16.866666666
                ]
            },
            "properties": {
                "name": "Lake R'Kiz",
                "article": "https://en.wikipedia.org/wiki/Lake_R%27Kiz"
            }
        },
        {
            "type": "Feature",
            "geometry": {
                "type": "Point",
                "coordinates": [
                    -10.427777777,
                    17.422222222
                ]
            },
            "properties": {
                "name": "Archaelogical Sites of Tegdaoust",
                "article": null
            }
        },
        {
            "type": "Feature",
            "geometry": {
                "type": "Point",
                "coordinates": [
                    -13.111111111,
                    20.405277777
                ]
            },
            "properties": {
                "name": "Cultural Landscape of Azougui",
                "article": null
            }
        },
        {
            "type": "Feature",
            "geometry": {
                "type": "Point",
                "coordinates": [
                    -13.0580352,
                    21.2975613
                ]
            },
            "properties": {
                "name": "Choum railway station",
                "article": null
            }
        },
        {
            "type": "Feature",
            "geometry": {
                "type": "Point",
                "coordinates": [
                    -12.466667,
                    22.683333
                ]
            },
            "properties": {
                "name": "Battle of Zouérat",
                "article": null
            }
        },
        {
            "type": "Feature",
            "geometry": {
                "type": "Point",
                "coordinates": [
                    -9.58694,
                    25.91778
                ]
            },
            "properties": {
                "name": "Battle of Ain Ben Tili",
                "article": "https://en.wikipedia.org/wiki/Battle_of_Ain_Ben_Tili_(January_1976)"
            }
        },
        {
            "type": "Feature",
            "geometry": {
                "type": "Point",
                "coordinates": [
                    -15.283333333,
                    16.866666666
                ]
            },
            "properties": {
                "name": "Lake R'Kiz",
                "article": "https://en.wikipedia.org/wiki/Lake_R%27Kiz"
            }
        },
        {
            "type": "Feature",
            "geometry": {
                "type": "Point",
                "coordinates": [
                    -15.97222222,
                    20.16722222
                ]
            },
            "properties": {
                "name": "Q123581971",
                "article": null
            }
        }
    ]
}