{
    "type": "FeatureCollection",
    "features": [
        {
            "type": "Feature",
            "geometry": {
                "type": "Point",
                "coordinates": [
                    29.483333333,
                    46.833333333
                ]
            },
            "properties": {
                "name": "Bender",
                "article": "https://en.wikipedia.org/wiki/Bender,_Moldova"
            }
        },
        {
            "type": "Feature",
            "geometry": {
                "type": "Point",
                "coordinates": [
                    29.00055556,
                    47.76638889
                ]
            },
            "properties": {
                "name": "Rîbnița",
                "article": "https://en.wikipedia.org/wiki/R%C3%AEbni%C8%9Ba"
            }
        },
        {
            "type": "Feature",
            "geometry": {
                "type": "Point",
                "coordinates": [
                    29.91333333,
                    46.62222222
                ]
            },
            "properties": {
                "name": "Dnestrovsc",
                "article": "https://en.wikipedia.org/wiki/Dnestrovsc"
            }
        },
        {
            "type": "Feature",
            "geometry": {
                "type": "Point",
                "coordinates": [
                    28.657222222,
                    46.300277777
                ]
            },
            "properties": {
                "name": "Comrat",
                "article": "https://en.wikipedia.org/wiki/Comrat"
            }
        },
        {
            "type": "Feature",
            "geometry": {
                "type": "Point",
                "coordinates": [
                    28.823055555,
                    47.383055555
                ]
            },
            "properties": {
                "name": "Orhei",
                "article": "https://en.wikipedia.org/wiki/Orhei"
            }
        },
        {
            "type": "Feature",
            "geometry": {
                "type": "Point",
                "coordinates": [
                    28.194444444,
                    45.9075
                ]
            },
            "properties": {
                "name": "Cahul",
                "article": "https://en.wikipedia.org/wiki/Cahul"
            }
        },
        {
            "type": "Feature",
            "geometry": {
                "type": "Point",
                "coordinates": [
                    29.230833333,
                    46.881666666
                ]
            },
            "properties": {
                "name": "Anenii Noi",
                "article": "https://en.wikipedia.org/wiki/Anenii_Noi"
            }
        },
        {
            "type": "Feature",
            "geometry": {
                "type": "Point",
                "coordinates": [
                    28.829981,
                    47.027649
                ]
            },
            "properties": {
                "name": "National Opera and Ballet Theatre of Moldova",
                "article": "https://en.wikipedia.org/wiki/Maria_Bie%C8%99u_National_Opera_and_Ballet_Theatre"
            }
        },
        {
            "type": "Feature",
            "geometry": {
                "type": "Point",
                "coordinates": [
                    28.13305556,
                    45.59444444
                ]
            },
            "properties": {
                "name": "Lake Beleu",
                "article": null
            }
        },
        {
            "type": "Feature",
            "geometry": {
                "type": "Point",
                "coordinates": [
                    28.777777777,
                    46.943055555
                ]
            },
            "properties": {
                "name": "Ialoveni",
                "article": "https://en.wikipedia.org/wiki/Ialoveni"
            }
        },
        {
            "type": "Feature",
            "geometry": {
                "type": "Point",
                "coordinates": [
                    29.70777778,
                    46.72527778
                ]
            },
            "properties": {
                "name": "Slobozia, Slobozia District",
                "article": "https://en.wikipedia.org/wiki/Slobozia,_Moldova"
            }
        },
        {
            "type": "Feature",
            "geometry": {
                "type": "Point",
                "coordinates": [
                    28.819444444,
                    46.975277777
                ]
            },
            "properties": {
                "name": "Codru",
                "article": "https://en.wikipedia.org/wiki/Codru,_Moldova"
            }
        },
        {
            "type": "Feature",
            "geometry": {
                "type": "Point",
                "coordinates": [
                    28.365555555,
                    47.499722222
                ]
            },
            "properties": {
                "name": "Telenești",
                "article": "https://en.wikipedia.org/wiki/Telene%C8%99ti"
            }
        },
        {
            "type": "Feature",
            "geometry": {
                "type": "Point",
                "coordinates": [
                    29.413888888,
                    46.644166666
                ]
            },
            "properties": {
                "name": "Căușeni",
                "article": "https://en.wikipedia.org/wiki/C%C4%83u%C8%99eni"
            }
        },
        {
            "type": "Feature",
            "geometry": {
                "type": "Point",
                "coordinates": [
                    29.166666666,
                    47.266666666
                ]
            },
            "properties": {
                "name": "Dubăsari",
                "article": "https://en.wikipedia.org/wiki/Dub%C4%83sari"
            }
        },
        {
            "type": "Feature",
            "geometry": {
                "type": "Point",
                "coordinates": [
                    28.961388888,
                    46.333611111
                ]
            },
            "properties": {
                "name": "Basarabeasca",
                "article": "https://en.wikipedia.org/wiki/Basarabeasca"
            }
        },
        {
            "type": "Feature",
            "geometry": {
                "type": "Point",
                "coordinates": [
                    28.2975,
                    48.155833333
                ]
            },
            "properties": {
                "name": "Soroca",
                "article": "https://en.wikipedia.org/wiki/Soroca"
            }
        },
        {
            "type": "Feature",
            "geometry": {
                "type": "Point",
                "coordinates": [
                    27.795833333,
                    47.204166666
                ]
            },
            "properties": {
                "name": "Ungheni",
                "article": "https://en.wikipedia.org/wiki/Ungheni"
            }
        },
        {
            "type": "Feature",
            "geometry": {
                "type": "Point",
                "coordinates": [
                    27.483333333,
                    48.416666666
                ]
            },
            "properties": {
                "name": "Ocnița",
                "article": "https://en.wikipedia.org/wiki/Ocni%C8%9Ba"
            }
        },
        {
            "type": "Feature",
            "geometry": {
                "type": "Point",
                "coordinates": [
                    29.161388888,
                    47.216666666
                ]
            },
            "properties": {
                "name": "Criuleni",
                "article": "https://en.wikipedia.org/wiki/Criuleni"
            }
        },
        {
            "type": "Feature",
            "geometry": {
                "type": "Point",
                "coordinates": [
                    28.402777777,
                    45.684166666
                ]
            },
            "properties": {
                "name": "Vulcănești",
                "article": "https://en.wikipedia.org/wiki/Vulc%C4%83ne%C8%99ti"
            }
        },
        {
            "type": "Feature",
            "geometry": {
                "type": "Point",
                "coordinates": [
                    28.830277777,
                    46.055
                ]
            },
            "properties": {
                "name": "Ceadîr-Lunga",
                "article": "https://en.wikipedia.org/wiki/Cead%C3%AEr-Lunga"
            }
        },
        {
            "type": "Feature",
            "geometry": {
                "type": "Point",
                "coordinates": [
                    28.308055555,
                    47.254444444
                ]
            },
            "properties": {
                "name": "Călărași",
                "article": "https://en.wikipedia.org/wiki/C%C4%83l%C4%83ra%C8%99i,_Moldova"
            }
        },
        {
            "type": "Feature",
            "geometry": {
                "type": "Point",
                "coordinates": [
                    27.553643,
                    47.956088
                ]
            },
            "properties": {
                "name": "Rîșcani",
                "article": "https://en.wikipedia.org/wiki/R%C3%AE%C8%99cani"
            }
        },
        {
            "type": "Feature",
            "geometry": {
                "type": "Point",
                "coordinates": [
                    29.29638889,
                    47.15361111
                ]
            },
            "properties": {
                "name": "Grigoriopol",
                "article": "https://en.wikipedia.org/wiki/Grigoriopol"
            }
        },
        {
            "type": "Feature",
            "geometry": {
                "type": "Point",
                "coordinates": [
                    27.745,
                    46.605
                ]
            },
            "properties": {
                "name": "Battle of Vaslui",
                "article": "https://en.wikipedia.org/wiki/Battle_of_Vaslui"
            }
        },
        {
            "type": "Feature",
            "geometry": {
                "type": "Point",
                "coordinates": [
                    28.735,
                    47.073888888
                ]
            },
            "properties": {
                "name": "Vatra",
                "article": "https://en.wikipedia.org/wiki/Vatra,_Moldova"
            }
        },
        {
            "type": "Feature",
            "geometry": {
                "type": "Point",
                "coordinates": [
                    28.861388888,
                    47.138888888
                ]
            },
            "properties": {
                "name": "Cricova",
                "article": "https://en.wikipedia.org/wiki/Cricova"
            }
        },
        {
            "type": "Feature",
            "geometry": {
                "type": "Point",
                "coordinates": [
                    28.593611111,
                    46.825833333
                ]
            },
            "properties": {
                "name": "Hîncești",
                "article": "https://en.wikipedia.org/wiki/H%C3%AEnce%C8%99ti"
            }
        },
        {
            "type": "Feature",
            "geometry": {
                "type": "Point",
                "coordinates": [
                    27.305,
                    48.168055555
                ]
            },
            "properties": {
                "name": "Edineț",
                "article": "https://en.wikipedia.org/wiki/Edine%C8%9B"
            }
        },
        {
            "type": "Feature",
            "geometry": {
                "type": "Point",
                "coordinates": [
                    27.258611111,
                    47.858333333
                ]
            },
            "properties": {
                "name": "Costești",
                "article": "https://en.wikipedia.org/wiki/Coste%C8%99ti,_R%C3%AE%C8%99cani"
            }
        },
        {
            "type": "Feature",
            "geometry": {
                "type": "Point",
                "coordinates": [
                    26.803888888,
                    48.265277777
                ]
            },
            "properties": {
                "name": "Lipcani",
                "article": "https://en.wikipedia.org/wiki/Lipcani"
            }
        },
        {
            "type": "Feature",
            "geometry": {
                "type": "Point",
                "coordinates": [
                    27.585277777,
                    48.224444444
                ]
            },
            "properties": {
                "name": "Dondușeni",
                "article": "https://en.wikipedia.org/wiki/Dondu%C8%99eni"
            }
        },
        {
            "type": "Feature",
            "geometry": {
                "type": "Point",
                "coordinates": [
                    28.8201,
                    47.0234
                ]
            },
            "properties": {
                "name": "National Museum of Ethnography and Natural History",
                "article": null
            }
        },
        {
            "type": "Feature",
            "geometry": {
                "type": "Point",
                "coordinates": [
                    29.663055555,
                    46.515277777
                ]
            },
            "properties": {
                "name": "Ștefan Vodă",
                "article": "https://en.wikipedia.org/wiki/%C8%98tefan_Vod%C4%83"
            }
        },
        {
            "type": "Feature",
            "geometry": {
                "type": "Point",
                "coordinates": [
                    28.610277777,
                    47.141388888
                ]
            },
            "properties": {
                "name": "Strășeni",
                "article": "https://en.wikipedia.org/wiki/Str%C4%83%C8%99eni"
            }
        },
        {
            "type": "Feature",
            "geometry": {
                "type": "Point",
                "coordinates": [
                    27.812643,
                    48.030766
                ]
            },
            "properties": {
                "name": "Drochia",
                "article": "https://en.wikipedia.org/wiki/Drochia"
            }
        },
        {
            "type": "Feature",
            "geometry": {
                "type": "Point",
                "coordinates": [
                    28.668888888,
                    45.9
                ]
            },
            "properties": {
                "name": "Taraclia",
                "article": "https://en.wikipedia.org/wiki/Taraclia"
            }
        },
        {
            "type": "Feature",
            "geometry": {
                "type": "Point",
                "coordinates": [
                    28.784166666,
                    46.52
                ]
            },
            "properties": {
                "name": "Cimișlia",
                "article": "https://en.wikipedia.org/wiki/Cimi%C8%99lia"
            }
        },
        {
            "type": "Feature",
            "geometry": {
                "type": "Point",
                "coordinates": [
                    27.085,
                    48.362777777
                ]
            },
            "properties": {
                "name": "Briceni",
                "article": "https://en.wikipedia.org/wiki/Briceni"
            }
        },
        {
            "type": "Feature",
            "geometry": {
                "type": "Point",
                "coordinates": [
                    28.7,
                    48.03333333
                ]
            },
            "properties": {
                "name": "Camenca",
                "article": "https://en.wikipedia.org/wiki/Camenca"
            }
        },
        {
            "type": "Feature",
            "geometry": {
                "type": "Point",
                "coordinates": [
                    28.301388888,
                    47.893333333
                ]
            },
            "properties": {
                "name": "Florești",
                "article": "https://en.wikipedia.org/wiki/Flore%C8%99ti,_Moldova"
            }
        },
        {
            "type": "Feature",
            "geometry": {
                "type": "Point",
                "coordinates": [
                    28.301388888,
                    47.893333333
                ]
            },
            "properties": {
                "name": "Florești",
                "article": "https://en.wikipedia.org/wiki/Flore%C8%99ti,_Moldova"
            }
        },
        {
            "type": "Feature",
            "geometry": {
                "type": "Point",
                "coordinates": [
                    27.709166666,
                    47.573611111
                ]
            },
            "properties": {
                "name": "Fălești",
                "article": "https://en.wikipedia.org/wiki/F%C4%83le%C8%99ti"
            }
        },
        {
            "type": "Feature",
            "geometry": {
                "type": "Point",
                "coordinates": [
                    28.178333333,
                    47.081388888
                ]
            },
            "properties": {
                "name": "Nisporeni",
                "article": "https://en.wikipedia.org/wiki/Nisporeni"
            }
        },
        {
            "type": "Feature",
            "geometry": {
                "type": "Point",
                "coordinates": [
                    28.255277777,
                    46.478611111
                ]
            },
            "properties": {
                "name": "Leova",
                "article": "https://en.wikipedia.org/wiki/Leova"
            }
        },
        {
            "type": "Feature",
            "geometry": {
                "type": "Point",
                "coordinates": [
                    28.141944444,
                    47.640555555
                ]
            },
            "properties": {
                "name": "Sîngerei",
                "article": "https://en.wikipedia.org/wiki/S%C3%AEngerei"
            }
        },
        {
            "type": "Feature",
            "geometry": {
                "type": "Point",
                "coordinates": [
                    28.200833333,
                    46.278055555
                ]
            },
            "properties": {
                "name": "Cantemir",
                "article": "https://en.wikipedia.org/wiki/Cantemir,_Moldova"
            }
        },
        {
            "type": "Feature",
            "geometry": {
                "type": "Point",
                "coordinates": [
                    28.796666666,
                    47.815277777
                ]
            },
            "properties": {
                "name": "Șoldănești",
                "article": "https://en.wikipedia.org/wiki/%C8%98old%C4%83ne%C8%99ti"
            }
        },
        {
            "type": "Feature",
            "geometry": {
                "type": "Point",
                "coordinates": [
                    28.962222222,
                    47.749166666
                ]
            },
            "properties": {
                "name": "Rezina",
                "article": "https://en.wikipedia.org/wiki/Rezina"
            }
        },
        {
            "type": "Feature",
            "geometry": {
                "type": "Point",
                "coordinates": [
                    27.514444444,
                    47.770833333
                ]
            },
            "properties": {
                "name": "Glodeni",
                "article": "https://en.wikipedia.org/wiki/Glodeni"
            }
        },
        {
            "type": "Feature",
            "geometry": {
                "type": "Point",
                "coordinates": [
                    28.30547778,
                    48.16121667
                ]
            },
            "properties": {
                "name": "Soroca Fort",
                "article": "https://en.wikipedia.org/wiki/Soroca_Fort"
            }
        },
        {
            "type": "Feature",
            "geometry": {
                "type": "Point",
                "coordinates": [
                    27.385277777,
                    48.110833333
                ]
            },
            "properties": {
                "name": "Cupcini",
                "article": "https://en.wikipedia.org/wiki/Cupcini"
            }
        },
        {
            "type": "Feature",
            "geometry": {
                "type": "Point",
                "coordinates": [
                    27.598611111,
                    48.4075
                ]
            },
            "properties": {
                "name": "Frunză",
                "article": "https://en.wikipedia.org/wiki/Frunz%C4%83,_Ocni%C8%9Ba"
            }
        },
        {
            "type": "Feature",
            "geometry": {
                "type": "Point",
                "coordinates": [
                    29.046111111,
                    46.678888888
                ]
            },
            "properties": {
                "name": "Căinari",
                "article": "https://en.wikipedia.org/wiki/C%C4%83inari"
            }
        },
        {
            "type": "Feature",
            "geometry": {
                "type": "Point",
                "coordinates": [
                    28.9725,
                    47.301388888
                ]
            },
            "properties": {
                "name": "Old Orhei",
                "article": "https://en.wikipedia.org/wiki/Old_Orhei"
            }
        },
        {
            "type": "Feature",
            "geometry": {
                "type": "Point",
                "coordinates": [
                    28.870277777,
                    47.0875
                ]
            },
            "properties": {
                "name": "Stăuceni",
                "article": "https://en.wikipedia.org/wiki/St%C4%83uceni,_Chi%C8%99in%C4%83u"
            }
        },
        {
            "type": "Feature",
            "geometry": {
                "type": "Point",
                "coordinates": [
                    27.926111111,
                    47.786111111
                ]
            },
            "properties": {
                "name": "Bălți-Slobozia railway station",
                "article": null
            }
        },
        {
            "type": "Feature",
            "geometry": {
                "type": "Point",
                "coordinates": [
                    28.835277777,
                    47.022777777
                ]
            },
            "properties": {
                "name": "Chișinău",
                "article": "https://en.wikipedia.org/wiki/Chi%C8%99in%C4%83u"
            }
        },
        {
            "type": "Feature",
            "geometry": {
                "type": "Point",
                "coordinates": [
                    28.091666666,
                    47.217666666
                ]
            },
            "properties": {
                "name": "Bălănești Hill",
                "article": "https://en.wikipedia.org/wiki/B%C4%83l%C4%83ne%C8%99ti_Hill"
            }
        },
        {
            "type": "Feature",
            "geometry": {
                "type": "Point",
                "coordinates": [
                    28.2475,
                    47.868611111
                ]
            },
            "properties": {
                "name": "Mărculești",
                "article": "https://en.wikipedia.org/wiki/M%C4%83rcule%C8%99ti"
            }
        },
        {
            "type": "Feature",
            "geometry": {
                "type": "Point",
                "coordinates": [
                    27.793888888,
                    48.43
                ]
            },
            "properties": {
                "name": "Otaci",
                "article": "https://en.wikipedia.org/wiki/Otaci"
            }
        },
        {
            "type": "Feature",
            "geometry": {
                "type": "Point",
                "coordinates": [
                    29.075555555,
                    47.091666666
                ]
            },
            "properties": {
                "name": "Vadul lui Vodă",
                "article": "https://en.wikipedia.org/wiki/Vadul_lui_Vod%C4%83"
            }
        },
        {
            "type": "Feature",
            "geometry": {
                "type": "Point",
                "coordinates": [
                    28.068611111,
                    47.816111111
                ]
            },
            "properties": {
                "name": "Biruința",
                "article": "https://en.wikipedia.org/wiki/Biruin%C8%9Ba"
            }
        },
        {
            "type": "Feature",
            "geometry": {
                "type": "Point",
                "coordinates": [
                    28.382777777,
                    47.857777777
                ]
            },
            "properties": {
                "name": "Ghindești",
                "article": "https://en.wikipedia.org/wiki/Ghinde%C8%99ti"
            }
        },
        {
            "type": "Feature",
            "geometry": {
                "type": "Point",
                "coordinates": [
                    28.9775,
                    46.913055555
                ]
            },
            "properties": {
                "name": "Sîngera",
                "article": "https://en.wikipedia.org/wiki/S%C3%AEngera"
            }
        },
        {
            "type": "Feature",
            "geometry": {
                "type": "Point",
                "coordinates": [
                    28.965555555,
                    46.154722222
                ]
            },
            "properties": {
                "name": "Tvardița",
                "article": "https://en.wikipedia.org/wiki/Tvardi%C8%9Ba"
            }
        },
        {
            "type": "Feature",
            "geometry": {
                "type": "Point",
                "coordinates": [
                    28.396777777,
                    45.371444444
                ]
            },
            "properties": {
                "name": "Lake Kahul",
                "article": null
            }
        },
        {
            "type": "Feature",
            "geometry": {
                "type": "Point",
                "coordinates": [
                    27.99534,
                    47.36924
                ]
            },
            "properties": {
                "name": "Cornești",
                "article": "https://en.wikipedia.org/wiki/Corne%C8%99ti_(town),_Ungheni"
            }
        },
        {
            "type": "Feature",
            "geometry": {
                "type": "Point",
                "coordinates": [
                    29.80472223,
                    46.6513889
                ]
            },
            "properties": {
                "name": "Crasnoe",
                "article": "https://en.wikipedia.org/wiki/Crasnoe"
            }
        },
        {
            "type": "Feature",
            "geometry": {
                "type": "Point",
                "coordinates": [
                    29.385833333,
                    47.2375
                ]
            },
            "properties": {
                "name": "Maiac",
                "article": "https://en.wikipedia.org/wiki/Maiac"
            }
        },
        {
            "type": "Feature",
            "geometry": {
                "type": "Point",
                "coordinates": [
                    29.5767,
                    46.8319
                ]
            },
            "properties": {
                "name": "New Tiraspol",
                "article": "https://en.wikipedia.org/wiki/Tiraspolul_Nou"
            }
        },
        {
            "type": "Feature",
            "geometry": {
                "type": "Point",
                "coordinates": [
                    28.7625,
                    47.017777777
                ]
            },
            "properties": {
                "name": "Durlești",
                "article": "https://en.wikipedia.org/wiki/Durle%C8%99ti"
            }
        },
        {
            "type": "Feature",
            "geometry": {
                "type": "Point",
                "coordinates": [
                    28.436666666,
                    46.4275
                ]
            },
            "properties": {
                "name": "Iargara",
                "article": "https://en.wikipedia.org/wiki/Iargara"
            }
        },
        {
            "type": "Feature",
            "geometry": {
                "type": "Point",
                "coordinates": [
                    29.472583333,
                    46.850694444
                ]
            },
            "properties": {
                "name": "Bendery-3 railway station",
                "article": null
            }
        },
        {
            "type": "Feature",
            "geometry": {
                "type": "Point",
                "coordinates": [
                    29.47175,
                    46.827055555
                ]
            },
            "properties": {
                "name": "Bendery-1",
                "article": null
            }
        },
        {
            "type": "Feature",
            "geometry": {
                "type": "Point",
                "coordinates": [
                    29.475694444,
                    46.842916666
                ]
            },
            "properties": {
                "name": "Bendery-2",
                "article": null
            }
        },
        {
            "type": "Feature",
            "geometry": {
                "type": "Point",
                "coordinates": [
                    28.857722222,
                    47.011533333
                ]
            },
            "properties": {
                "name": "Yuri Gagarin avenue, Chișinău",
                "article": null
            }
        },
        {
            "type": "Feature",
            "geometry": {
                "type": "Point",
                "coordinates": [
                    28.851911111,
                    47.013630555
                ]
            },
            "properties": {
                "name": "Constantin Negruzzi avenue, Chișinău",
                "article": null
            }
        },
        {
            "type": "Feature",
            "geometry": {
                "type": "Point",
                "coordinates": [
                    28.841888888,
                    47.040416666
                ]
            },
            "properties": {
                "name": "Visterniceni",
                "article": null
            }
        },
        {
            "type": "Feature",
            "geometry": {
                "type": "Point",
                "coordinates": [
                    29.166666666,
                    47.266666666
                ]
            },
            "properties": {
                "name": "Goian Island",
                "article": "https://en.wikipedia.org/wiki/Goian_Island"
            }
        },
        {
            "type": "Feature",
            "geometry": {
                "type": "Point",
                "coordinates": [
                    27.731111111,
                    48.104444444
                ]
            },
            "properties": {
                "name": "Ghizdita (loc. st. c. f.)",
                "article": null
            }
        },
        {
            "type": "Feature",
            "geometry": {
                "type": "Point",
                "coordinates": [
                    29.629388888,
                    46.847611111
                ]
            },
            "properties": {
                "name": "Tiraspol railway station",
                "article": "https://en.wikipedia.org/wiki/Tiraspol_railway_station"
            }
        },
        {
            "type": "Feature",
            "geometry": {
                "type": "Point",
                "coordinates": [
                    28.84919,
                    47.03734
                ]
            },
            "properties": {
                "name": "Chișinău Circus",
                "article": null
            }
        },
        {
            "type": "Feature",
            "geometry": {
                "type": "Point",
                "coordinates": [
                    28.859722222,
                    47.0125
                ]
            },
            "properties": {
                "name": "Chișinău railway station",
                "article": "https://en.wikipedia.org/wiki/Chi%C8%99in%C4%83u_railway_station"
            }
        },
        {
            "type": "Feature",
            "geometry": {
                "type": "Point",
                "coordinates": [
                    28.601111111,
                    47.858611111
                ]
            },
            "properties": {
                "name": "Q4225283",
                "article": null
            }
        },
        {
            "type": "Feature",
            "geometry": {
                "type": "Point",
                "coordinates": [
                    28.796517539,
                    46.8604631
                ]
            },
            "properties": {
                "name": "Q4235354",
                "article": null
            }
        },
        {
            "type": "Feature",
            "geometry": {
                "type": "Point",
                "coordinates": [
                    29.957378,
                    46.717808
                ]
            },
            "properties": {
                "name": "Livada",
                "article": null
            }
        },
        {
            "type": "Feature",
            "geometry": {
                "type": "Point",
                "coordinates": [
                    29.63361111,
                    46.83694444
                ]
            },
            "properties": {
                "name": "State Drama Theatre Nadejda Aronetskaya",
                "article": null
            }
        },
        {
            "type": "Feature",
            "geometry": {
                "type": "Point",
                "coordinates": [
                    28.864388,
                    47.052062
                ]
            },
            "properties": {
                "name": "Q4304253",
                "article": null
            }
        },
        {
            "type": "Feature",
            "geometry": {
                "type": "Point",
                "coordinates": [
                    28.83521667,
                    47.02234167
                ]
            },
            "properties": {
                "name": "Organ Hall of Chișinău",
                "article": null
            }
        },
        {
            "type": "Feature",
            "geometry": {
                "type": "Point",
                "coordinates": [
                    27.879444444,
                    47.856388888
                ]
            },
            "properties": {
                "name": "Pelinia (loc. st. c. f.)",
                "article": null
            }
        },
        {
            "type": "Feature",
            "geometry": {
                "type": "Point",
                "coordinates": [
                    29.6111,
                    46.8363
                ]
            },
            "properties": {
                "name": "Suvorov Square",
                "article": "https://en.wikipedia.org/wiki/Suvorov_Square_(Tiraspol)"
            }
        },
        {
            "type": "Feature",
            "geometry": {
                "type": "Point",
                "coordinates": [
                    29.62944444,
                    46.84694444
                ]
            },
            "properties": {
                "name": "Q4377856",
                "article": null
            }
        },
        {
            "type": "Feature",
            "geometry": {
                "type": "Point",
                "coordinates": [
                    28.445278,
                    47.835
                ]
            },
            "properties": {
                "name": "Q4395568",
                "article": null
            }
        },
        {
            "type": "Feature",
            "geometry": {
                "type": "Point",
                "coordinates": [
                    28.786636111,
                    47.030047222
                ]
            },
            "properties": {
                "name": "Alba Iulia avenue, Chișinău",
                "article": null
            }
        },
        {
            "type": "Feature",
            "geometry": {
                "type": "Point",
                "coordinates": [
                    29.600583333,
                    46.839277777
                ]
            },
            "properties": {
                "name": "Q4472366",
                "article": null
            }
        },
        {
            "type": "Feature",
            "geometry": {
                "type": "Point",
                "coordinates": [
                    28.4897,
                    47.9078
                ]
            },
            "properties": {
                "name": "Q4475960",
                "article": null
            }
        },
        {
            "type": "Feature",
            "geometry": {
                "type": "Point",
                "coordinates": [
                    28.4053,
                    47.8433
                ]
            },
            "properties": {
                "name": "Țîra railway station",
                "article": null
            }
        },
        {
            "type": "Feature",
            "geometry": {
                "type": "Point",
                "coordinates": [
                    28.8343,
                    47.023
                ]
            },
            "properties": {
                "name": "Chișinău City Hall",
                "article": "https://en.wikipedia.org/wiki/Chi%C8%99in%C4%83u_City_Hall"
            }
        },
        {
            "type": "Feature",
            "geometry": {
                "type": "Point",
                "coordinates": [
                    28.81722222,
                    47.02222222
                ]
            },
            "properties": {
                "name": "Sfatul Țării Palace",
                "article": "https://en.wikipedia.org/wiki/Sfatul_%C8%9A%C4%83rii_Palace"
            }
        },
        {
            "type": "Feature",
            "geometry": {
                "type": "Point",
                "coordinates": [
                    28.8343,
                    47.023
                ]
            },
            "properties": {
                "name": "Chișinău City Hall",
                "article": "https://en.wikipedia.org/wiki/Chi%C8%99in%C4%83u_City_Hall"
            }
        },
        {
            "type": "Feature",
            "geometry": {
                "type": "Point",
                "coordinates": [
                    28.828782493,
                    47.023502867
                ]
            },
            "properties": {
                "name": "Chișinău Theological Seminary",
                "article": "https://en.wikipedia.org/wiki/Chi%C8%99in%C4%83u_Theological_Seminary"
            }
        },
        {
            "type": "Feature",
            "geometry": {
                "type": "Point",
                "coordinates": [
                    28.456944444,
                    47.188611111
                ]
            },
            "properties": {
                "name": "Bucovăț",
                "article": "https://en.wikipedia.org/wiki/Bucov%C4%83%C8%9B"
            }
        },
        {
            "type": "Feature",
            "geometry": {
                "type": "Point",
                "coordinates": [
                    28.15333333,
                    45.79916667
                ]
            },
            "properties": {
                "name": "Q12102338",
                "article": null
            }
        },
        {
            "type": "Feature",
            "geometry": {
                "type": "Point",
                "coordinates": [
                    29.21694444,
                    47.75944444
                ]
            },
            "properties": {
                "name": "Cobasna (stație c.f.)",
                "article": null
            }
        },
        {
            "type": "Feature",
            "geometry": {
                "type": "Point",
                "coordinates": [
                    29.868611111,
                    46.802222222
                ]
            },
            "properties": {
                "name": "Novosavitskaia",
                "article": null
            }
        },
        {
            "type": "Feature",
            "geometry": {
                "type": "Point",
                "coordinates": [
                    28.86339,
                    47.03778
                ]
            },
            "properties": {
                "name": "Chapel-Memorial to the Russian Army and Bulgarian Volunteers in Chișinău",
                "article": null
            }
        },
        {
            "type": "Feature",
            "geometry": {
                "type": "Point",
                "coordinates": [
                    27.924687656,
                    47.759440559
                ]
            },
            "properties": {
                "name": "Casa Bodescu",
                "article": null
            }
        },
        {
            "type": "Feature",
            "geometry": {
                "type": "Point",
                "coordinates": [
                    28.831434,
                    47.024011
                ]
            },
            "properties": {
                "name": "Government House, Chișinău",
                "article": "https://en.wikipedia.org/wiki/Government_House,_Chi%C8%99in%C4%83u"
            }
        },
        {
            "type": "Feature",
            "geometry": {
                "type": "Point",
                "coordinates": [
                    27.920720955,
                    47.759124465
                ]
            },
            "properties": {
                "name": "House, Ștefan cel Mare, 79, Bălți",
                "article": null
            }
        },
        {
            "type": "Feature",
            "geometry": {
                "type": "Point",
                "coordinates": [
                    27.924836,
                    47.756095
                ]
            },
            "properties": {
                "name": "House, Hotin, 26, Bălți",
                "article": null
            }
        },
        {
            "type": "Feature",
            "geometry": {
                "type": "Point",
                "coordinates": [
                    27.91,
                    47.761111
                ]
            },
            "properties": {
                "name": "Bălți-Oraș Railway Station",
                "article": null
            }
        },
        {
            "type": "Feature",
            "geometry": {
                "type": "Point",
                "coordinates": [
                    29.4142,
                    46.9139
                ]
            },
            "properties": {
                "name": "Lake Salas",
                "article": null
            }
        },
        {
            "type": "Feature",
            "geometry": {
                "type": "Point",
                "coordinates": [
                    28.153979,
                    45.803516
                ]
            },
            "properties": {
                "name": "Q16653023",
                "article": null
            }
        },
        {
            "type": "Feature",
            "geometry": {
                "type": "Point",
                "coordinates": [
                    29.605953469,
                    46.835557762
                ]
            },
            "properties": {
                "name": "Q16675830",
                "article": null
            }
        },
        {
            "type": "Feature",
            "geometry": {
                "type": "Point",
                "coordinates": [
                    28.271856578,
                    47.125290676
                ]
            },
            "properties": {
                "name": "Mansion of Zamfirache Ralli",
                "article": "https://en.wikipedia.org/wiki/Ralli_family_mansion"
            }
        },
        {
            "type": "Feature",
            "geometry": {
                "type": "Point",
                "coordinates": [
                    28.385,
                    46.115
                ]
            },
            "properties": {
                "name": "Battle of Coștangalia",
                "article": "https://en.wikipedia.org/wiki/Battle_of_Co%C8%99tangalia"
            }
        },
        {
            "type": "Feature",
            "geometry": {
                "type": "Point",
                "coordinates": [
                    27.927268508,
                    47.75744608
                ]
            },
            "properties": {
                "name": "Casa Hagi Marcarov",
                "article": null
            }
        },
        {
            "type": "Feature",
            "geometry": {
                "type": "Point",
                "coordinates": [
                    28.983652777,
                    46.325105555
                ]
            },
            "properties": {
                "name": "Basarabeasca railway station",
                "article": null
            }
        },
        {
            "type": "Feature",
            "geometry": {
                "type": "Point",
                "coordinates": [
                    27.485,
                    48.405555555
                ]
            },
            "properties": {
                "name": "Ocnița railway station",
                "article": null
            }
        },
        {
            "type": "Feature",
            "geometry": {
                "type": "Point",
                "coordinates": [
                    28.9912342,
                    47.76634
                ]
            },
            "properties": {
                "name": "Rîbnița railway station",
                "article": null
            }
        },
        {
            "type": "Feature",
            "geometry": {
                "type": "Point",
                "coordinates": [
                    29.84528,
                    46.65329
                ]
            },
            "properties": {
                "name": "Q19706988",
                "article": null
            }
        },
        {
            "type": "Feature",
            "geometry": {
                "type": "Point",
                "coordinates": [
                    28.384359,
                    47.256685
                ]
            },
            "properties": {
                "name": "Mansion of Dinu Ruso in Păulești",
                "article": null
            }
        },
        {
            "type": "Feature",
            "geometry": {
                "type": "Point",
                "coordinates": [
                    27.800027777,
                    47.203472222
                ]
            },
            "properties": {
                "name": "Ungheni railway station",
                "article": null
            }
        },
        {
            "type": "Feature",
            "geometry": {
                "type": "Point",
                "coordinates": [
                    27.346374024,
                    48.263351437
                ]
            },
            "properties": {
                "name": "Cantacuzino mansion in Poiana",
                "article": null
            }
        },
        {
            "type": "Feature",
            "geometry": {
                "type": "Point",
                "coordinates": [
                    28.671232878,
                    47.289296531
                ]
            },
            "properties": {
                "name": "Memorial house of Alexandru Donici in Donici, Orhei",
                "article": null
            }
        },
        {
            "type": "Feature",
            "geometry": {
                "type": "Point",
                "coordinates": [
                    28.8367,
                    47.0318
                ]
            },
            "properties": {
                "name": "Memorial house of Aleksandr Pushkin, Chișinău",
                "article": "https://en.wikipedia.org/wiki/House-Museum_of_Alexander_Pushkin"
            }
        },
        {
            "type": "Feature",
            "geometry": {
                "type": "Point",
                "coordinates": [
                    28.826549447,
                    47.020622402
                ]
            },
            "properties": {
                "name": "Memorial house of Alexey Shchusev, Chișinău",
                "article": null
            }
        },
        {
            "type": "Feature",
            "geometry": {
                "type": "Point",
                "coordinates": [
                    28.973180337,
                    47.300786705
                ]
            },
            "properties": {
                "name": "Getic fort of Butuceni",
                "article": null
            }
        },
        {
            "type": "Feature",
            "geometry": {
                "type": "Point",
                "coordinates": [
                    27.864194117,
                    48.161085834
                ]
            },
            "properties": {
                "name": "Mansion of Ohanowicz family in Mîndîc",
                "article": null
            }
        },
        {
            "type": "Feature",
            "geometry": {
                "type": "Point",
                "coordinates": [
                    27.429289636,
                    48.259739071
                ]
            },
            "properties": {
                "name": "Biberi mansion",
                "article": null
            }
        },
        {
            "type": "Feature",
            "geometry": {
                "type": "Point",
                "coordinates": [
                    27.557592111,
                    48.313384666
                ]
            },
            "properties": {
                "name": "Cazimir mansion",
                "article": null
            }
        },
        {
            "type": "Feature",
            "geometry": {
                "type": "Point",
                "coordinates": [
                    28.623742013,
                    47.738801438
                ]
            },
            "properties": {
                "name": "Mansion in Răspopeni",
                "article": null
            }
        },
        {
            "type": "Feature",
            "geometry": {
                "type": "Point",
                "coordinates": [
                    28.857560547,
                    47.285793373
                ]
            },
            "properties": {
                "name": "Mansion of Balioz family",
                "article": null
            }
        },
        {
            "type": "Feature",
            "geometry": {
                "type": "Point",
                "coordinates": [
                    28.904054925,
                    47.401883279
                ]
            },
            "properties": {
                "name": "Bogdasarov mansion in Piatra",
                "article": null
            }
        },
        {
            "type": "Feature",
            "geometry": {
                "type": "Point",
                "coordinates": [
                    28.112999621,
                    47.322722516
                ]
            },
            "properties": {
                "name": "Mansion of Ciolac-Malski family",
                "article": null
            }
        },
        {
            "type": "Feature",
            "geometry": {
                "type": "Point",
                "coordinates": [
                    29.192907417,
                    47.133522096
                ]
            },
            "properties": {
                "name": "Mansion of Donici family in Dubăsarii Vechi",
                "article": null
            }
        },
        {
            "type": "Feature",
            "geometry": {
                "type": "Point",
                "coordinates": [
                    28.098051336,
                    46.963315732
                ]
            },
            "properties": {
                "name": "Mansion of Gonata in Zberoaia",
                "article": null
            }
        },
        {
            "type": "Feature",
            "geometry": {
                "type": "Point",
                "coordinates": [
                    29.404740833,
                    46.940277777
                ]
            },
            "properties": {
                "name": "Mansion of Janovski in Gura Bîcului",
                "article": null
            }
        },
        {
            "type": "Feature",
            "geometry": {
                "type": "Point",
                "coordinates": [
                    28.895787168,
                    47.360653482
                ]
            },
            "properties": {
                "name": "Mansion of Lazo in Piatra",
                "article": null
            }
        },
        {
            "type": "Feature",
            "geometry": {
                "type": "Point",
                "coordinates": [
                    29.290154078,
                    46.891958489
                ]
            },
            "properties": {
                "name": "Mimi mansion",
                "article": null
            }
        },
        {
            "type": "Feature",
            "geometry": {
                "type": "Point",
                "coordinates": [
                    28.708442878,
                    47.228606538
                ]
            },
            "properties": {
                "name": "Romanov villa in Romănești, Strășeni",
                "article": null
            }
        },
        {
            "type": "Feature",
            "geometry": {
                "type": "Point",
                "coordinates": [
                    28.035718086,
                    47.878943479
                ]
            },
            "properties": {
                "name": "Leonard mansion in Cubolta",
                "article": null
            }
        },
        {
            "type": "Feature",
            "geometry": {
                "type": "Point",
                "coordinates": [
                    27.484316004,
                    47.660881652
                ]
            },
            "properties": {
                "name": "Leonardi-Buznea mansion",
                "article": null
            }
        },
        {
            "type": "Feature",
            "geometry": {
                "type": "Point",
                "coordinates": [
                    28.297789376,
                    48.162823823
                ]
            },
            "properties": {
                "name": "Q20431677",
                "article": null
            }
        },
        {
            "type": "Feature",
            "geometry": {
                "type": "Point",
                "coordinates": [
                    28.975544552,
                    47.686648935
                ]
            },
            "properties": {
                "name": "Mansion of Apostolopulo in Saharna",
                "article": null
            }
        },
        {
            "type": "Feature",
            "geometry": {
                "type": "Point",
                "coordinates": [
                    28.395633684,
                    48.003065059
                ]
            },
            "properties": {
                "name": "Bjozowskz mansion in Soloneț",
                "article": null
            }
        },
        {
            "type": "Feature",
            "geometry": {
                "type": "Point",
                "coordinates": [
                    27.431103806,
                    48.386055993
                ]
            },
            "properties": {
                "name": "Mansion of Constantin Stamati",
                "article": null
            }
        },
        {
            "type": "Feature",
            "geometry": {
                "type": "Point",
                "coordinates": [
                    28.55787,
                    47.929875
                ]
            },
            "properties": {
                "name": "Bogdan mansion in Cuhureștii de Sus",
                "article": null
            }
        },
        {
            "type": "Feature",
            "geometry": {
                "type": "Point",
                "coordinates": [
                    27.657472222,
                    48.165916666
                ]
            },
            "properties": {
                "name": "Mansion of Manolache Negruzzi",
                "article": null
            }
        },
        {
            "type": "Feature",
            "geometry": {
                "type": "Point",
                "coordinates": [
                    27.18154432,
                    48.086502985
                ]
            },
            "properties": {
                "name": "Mansion of Vasile Stroiescu",
                "article": null
            }
        },
        {
            "type": "Feature",
            "geometry": {
                "type": "Point",
                "coordinates": [
                    27.515361618,
                    48.228438608
                ]
            },
            "properties": {
                "name": "Dombrovski mansion in Rediul Mare, Dondușeni",
                "article": null
            }
        },
        {
            "type": "Feature",
            "geometry": {
                "type": "Point",
                "coordinates": [
                    27.673694244,
                    48.207905289
                ]
            },
            "properties": {
                "name": "Pommer mansion",
                "article": null
            }
        },
        {
            "type": "Feature",
            "geometry": {
                "type": "Point",
                "coordinates": [
                    27.507584777,
                    47.779850416
                ]
            },
            "properties": {
                "name": "Ponsă mansion",
                "article": null
            }
        },
        {
            "type": "Feature",
            "geometry": {
                "type": "Point",
                "coordinates": [
                    28.057784944,
                    48.330053083
                ]
            },
            "properties": {
                "name": "Vinogradski mansion",
                "article": null
            }
        },
        {
            "type": "Feature",
            "geometry": {
                "type": "Point",
                "coordinates": [
                    26.800436697,
                    48.266578582
                ]
            },
            "properties": {
                "name": "Rosetti-Roznovanu mansion in Lipcani",
                "article": null
            }
        },
        {
            "type": "Feature",
            "geometry": {
                "type": "Point",
                "coordinates": [
                    29.074734222,
                    47.096403611
                ]
            },
            "properties": {
                "name": "Sicard Villa",
                "article": null
            }
        },
        {
            "type": "Feature",
            "geometry": {
                "type": "Point",
                "coordinates": [
                    27.922777777,
                    47.760555555
                ]
            },
            "properties": {
                "name": "Building, Ștefan cel Mare, 60, Bălți",
                "article": null
            }
        },
        {
            "type": "Feature",
            "geometry": {
                "type": "Point",
                "coordinates": [
                    28.978267628,
                    47.30637797
                ]
            },
            "properties": {
                "name": "Q20433417",
                "article": null
            }
        },
        {
            "type": "Feature",
            "geometry": {
                "type": "Point",
                "coordinates": [
                    28.297529244,
                    48.153855741
                ]
            },
            "properties": {
                "name": "Building of the former Zemstva of Soroca",
                "article": null
            }
        },
        {
            "type": "Feature",
            "geometry": {
                "type": "Point",
                "coordinates": [
                    28.297775616,
                    48.156129389
                ]
            },
            "properties": {
                "name": "Old hotel building in Soroca",
                "article": null
            }
        },
        {
            "type": "Feature",
            "geometry": {
                "type": "Point",
                "coordinates": [
                    28.291200186,
                    48.161020226
                ]
            },
            "properties": {
                "name": "Old agronomical school of Soroca",
                "article": null
            }
        },
        {
            "type": "Feature",
            "geometry": {
                "type": "Point",
                "coordinates": [
                    28.2828432,
                    48.224800897
                ]
            },
            "properties": {
                "name": "Building of former credit association of Cosăuți",
                "article": null
            }
        },
        {
            "type": "Feature",
            "geometry": {
                "type": "Point",
                "coordinates": [
                    27.56153698,
                    47.953833503
                ]
            },
            "properties": {
                "name": "Rîșcani hospital",
                "article": null
            }
        },
        {
            "type": "Feature",
            "geometry": {
                "type": "Point",
                "coordinates": [
                    27.916363,
                    47.219666
                ]
            },
            "properties": {
                "name": "Building of former primary school of Cetireni",
                "article": null
            }
        },
        {
            "type": "Feature",
            "geometry": {
                "type": "Point",
                "coordinates": [
                    28.835175,
                    47.020421
                ]
            },
            "properties": {
                "name": "Urban mansion of Inglezi",
                "article": null
            }
        },
        {
            "type": "Feature",
            "geometry": {
                "type": "Point",
                "coordinates": [
                    28.9315,
                    46.2611
                ]
            },
            "properties": {
                "name": "Culma railway station",
                "article": null
            }
        },
        {
            "type": "Feature",
            "geometry": {
                "type": "Point",
                "coordinates": [
                    28.830354,
                    47.021853
                ]
            },
            "properties": {
                "name": "Building of Dadiani's former girls gymnasium in Chișinău",
                "article": null
            }
        },
        {
            "type": "Feature",
            "geometry": {
                "type": "Point",
                "coordinates": [
                    28.821377,
                    47.023901
                ]
            },
            "properties": {
                "name": "Muzeul zemstvei",
                "article": null
            }
        },
        {
            "type": "Feature",
            "geometry": {
                "type": "Point",
                "coordinates": [
                    28.842558333,
                    47.014025
                ]
            },
            "properties": {
                "name": "House on Ismail 17 street, Chișinău",
                "article": null
            }
        },
        {
            "type": "Feature",
            "geometry": {
                "type": "Point",
                "coordinates": [
                    28.838194444,
                    47.034444444
                ]
            },
            "properties": {
                "name": "Moara roșie",
                "article": null
            }
        },
        {
            "type": "Feature",
            "geometry": {
                "type": "Point",
                "coordinates": [
                    29.58917,
                    46.79111
                ]
            },
            "properties": {
                "name": "Lacul Liman",
                "article": null
            }
        },
        {
            "type": "Feature",
            "geometry": {
                "type": "Point",
                "coordinates": [
                    28.830702,
                    47.026111
                ]
            },
            "properties": {
                "name": "Building, Ștefan cel Mare, 148",
                "article": null
            }
        },
        {
            "type": "Feature",
            "geometry": {
                "type": "Point",
                "coordinates": [
                    28.825838888,
                    47.028805555
                ]
            },
            "properties": {
                "name": "Vladimir Hertza's urban villa",
                "article": null
            }
        },
        {
            "type": "Feature",
            "geometry": {
                "type": "Point",
                "coordinates": [
                    28.827225469,
                    47.023091821
                ]
            },
            "properties": {
                "name": "Mikhail Karchevski's Realschule in Chișinău",
                "article": null
            }
        },
        {
            "type": "Feature",
            "geometry": {
                "type": "Point",
                "coordinates": [
                    28.829944444,
                    47.020638888
                ]
            },
            "properties": {
                "name": "Building of Zemstva's former girls gymnasium in Chișinău",
                "article": null
            }
        },
        {
            "type": "Feature",
            "geometry": {
                "type": "Point",
                "coordinates": [
                    28.830887993,
                    47.020067303
                ]
            },
            "properties": {
                "name": "Rîșcanu-Derojinschi urban mansion",
                "article": null
            }
        },
        {
            "type": "Feature",
            "geometry": {
                "type": "Point",
                "coordinates": [
                    27.809972222,
                    48.030722222
                ]
            },
            "properties": {
                "name": "Drochia railway station",
                "article": null
            }
        },
        {
            "type": "Feature",
            "geometry": {
                "type": "Point",
                "coordinates": [
                    27.609111111,
                    48.235333333
                ]
            },
            "properties": {
                "name": "Dondușeni railway station",
                "article": null
            }
        },
        {
            "type": "Feature",
            "geometry": {
                "type": "Point",
                "coordinates": [
                    26.79025,
                    48.360861111
                ]
            },
            "properties": {
                "name": "Medveja railway station",
                "article": null
            }
        },
        {
            "type": "Feature",
            "geometry": {
                "type": "Point",
                "coordinates": [
                    28.9325,
                    46.949388888
                ]
            },
            "properties": {
                "name": "Revaca railway station",
                "article": "https://en.wikipedia.org/wiki/Revaca_railway_station"
            }
        },
        {
            "type": "Feature",
            "geometry": {
                "type": "Point",
                "coordinates": [
                    28.820947784,
                    47.026687521
                ]
            },
            "properties": {
                "name": "Urban mansion of Mimi",
                "article": null
            }
        },
        {
            "type": "Feature",
            "geometry": {
                "type": "Point",
                "coordinates": [
                    29.273528024,
                    46.87227529
                ]
            },
            "properties": {
                "name": "Q108258743",
                "article": null
            }
        },
        {
            "type": "Feature",
            "geometry": {
                "type": "Point",
                "coordinates": [
                    29.26809945,
                    46.871844991
                ]
            },
            "properties": {
                "name": "Q108258740",
                "article": null
            }
        },
        {
            "type": "Feature",
            "geometry": {
                "type": "Point",
                "coordinates": [
                    29.27245896,
                    46.87426262
                ]
            },
            "properties": {
                "name": "Q108258741",
                "article": null
            }
        },
        {
            "type": "Feature",
            "geometry": {
                "type": "Point",
                "coordinates": [
                    29.17389959,
                    46.936115376
                ]
            },
            "properties": {
                "name": "Q108258747",
                "article": null
            }
        },
        {
            "type": "Feature",
            "geometry": {
                "type": "Point",
                "coordinates": [
                    29.134875581,
                    46.925222613
                ]
            },
            "properties": {
                "name": "Q108258752",
                "article": null
            }
        },
        {
            "type": "Feature",
            "geometry": {
                "type": "Point",
                "coordinates": [
                    29.27670389,
                    46.888173468
                ]
            },
            "properties": {
                "name": "Q108258766",
                "article": null
            }
        },
        {
            "type": "Feature",
            "geometry": {
                "type": "Point",
                "coordinates": [
                    29.393627107,
                    46.906373182
                ]
            },
            "properties": {
                "name": "Q108258770",
                "article": null
            }
        },
        {
            "type": "Feature",
            "geometry": {
                "type": "Point",
                "coordinates": [
                    29.370119998,
                    46.894783244
                ]
            },
            "properties": {
                "name": "Q108258782",
                "article": null
            }
        },
        {
            "type": "Feature",
            "geometry": {
                "type": "Point",
                "coordinates": [
                    29.040642768,
                    46.885539239
                ]
            },
            "properties": {
                "name": "Q108258790",
                "article": null
            }
        },
        {
            "type": "Feature",
            "geometry": {
                "type": "Point",
                "coordinates": [
                    29.366539174,
                    46.892392094
                ]
            },
            "properties": {
                "name": "Q108258789",
                "article": null
            }
        },
        {
            "type": "Feature",
            "geometry": {
                "type": "Point",
                "coordinates": [
                    29.044584485,
                    46.915390389
                ]
            },
            "properties": {
                "name": "Q108258794",
                "article": null
            }
        },
        {
            "type": "Feature",
            "geometry": {
                "type": "Point",
                "coordinates": [
                    29.193311649,
                    46.859713759
                ]
            },
            "properties": {
                "name": "Q108258798",
                "article": null
            }
        },
        {
            "type": "Feature",
            "geometry": {
                "type": "Point",
                "coordinates": [
                    29.110421976,
                    46.914390769
                ]
            },
            "properties": {
                "name": "Q108258796",
                "article": null
            }
        },
        {
            "type": "Feature",
            "geometry": {
                "type": "Point",
                "coordinates": [
                    29.1548674,
                    46.975413794
                ]
            },
            "properties": {
                "name": "Q108258807",
                "article": null
            }
        },
        {
            "type": "Feature",
            "geometry": {
                "type": "Point",
                "coordinates": [
                    29.238883226,
                    46.908338624
                ]
            },
            "properties": {
                "name": "Q108258804",
                "article": null
            }
        },
        {
            "type": "Feature",
            "geometry": {
                "type": "Point",
                "coordinates": [
                    29.170316541,
                    46.974715821
                ]
            },
            "properties": {
                "name": "Q108258814",
                "article": null
            }
        },
        {
            "type": "Feature",
            "geometry": {
                "type": "Point",
                "coordinates": [
                    29.170415346,
                    46.98091642
                ]
            },
            "properties": {
                "name": "Q108258815",
                "article": null
            }
        },
        {
            "type": "Feature",
            "geometry": {
                "type": "Point",
                "coordinates": [
                    29.238883226,
                    46.908338624
                ]
            },
            "properties": {
                "name": "Q108258804",
                "article": null
            }
        },
        {
            "type": "Feature",
            "geometry": {
                "type": "Point",
                "coordinates": [
                    29.083566195,
                    46.901643784
                ]
            },
            "properties": {
                "name": "Q108258955",
                "article": null
            }
        },
        {
            "type": "Feature",
            "geometry": {
                "type": "Point",
                "coordinates": [
                    29.264930391,
                    46.797441303
                ]
            },
            "properties": {
                "name": "Q108258958",
                "article": null
            }
        },
        {
            "type": "Feature",
            "geometry": {
                "type": "Point",
                "coordinates": [
                    29.162541861,
                    46.898095709
                ]
            },
            "properties": {
                "name": "Q108258962",
                "article": null
            }
        },
        {
            "type": "Feature",
            "geometry": {
                "type": "Point",
                "coordinates": [
                    29.146429239,
                    46.906387998
                ]
            },
            "properties": {
                "name": "Q108258963",
                "article": null
            }
        },
        {
            "type": "Feature",
            "geometry": {
                "type": "Point",
                "coordinates": [
                    28.25782184,
                    47.257750539
                ]
            },
            "properties": {
                "name": "Q108258971",
                "article": null
            }
        },
        {
            "type": "Feature",
            "geometry": {
                "type": "Point",
                "coordinates": [
                    29.435167871,
                    46.871555356
                ]
            },
            "properties": {
                "name": "Q108258968",
                "article": null
            }
        },
        {
            "type": "Feature",
            "geometry": {
                "type": "Point",
                "coordinates": [
                    29.476491642,
                    46.871838302
                ]
            },
            "properties": {
                "name": "Q108258969",
                "article": null
            }
        },
        {
            "type": "Feature",
            "geometry": {
                "type": "Point",
                "coordinates": [
                    28.323142768,
                    47.247525545
                ]
            },
            "properties": {
                "name": "Q108258976",
                "article": null
            }
        },
        {
            "type": "Feature",
            "geometry": {
                "type": "Point",
                "coordinates": [
                    29.070889794,
                    47.022716658
                ]
            },
            "properties": {
                "name": "Q108259179",
                "article": null
            }
        },
        {
            "type": "Feature",
            "geometry": {
                "type": "Point",
                "coordinates": [
                    28.943251318,
                    47.116400224
                ]
            },
            "properties": {
                "name": "Q108259185",
                "article": null
            }
        },
        {
            "type": "Feature",
            "geometry": {
                "type": "Point",
                "coordinates": [
                    28.945647023,
                    47.041446005
                ]
            },
            "properties": {
                "name": "Q108259190",
                "article": null
            }
        },
        {
            "type": "Feature",
            "geometry": {
                "type": "Point",
                "coordinates": [
                    29.190467925,
                    47.104198813
                ]
            },
            "properties": {
                "name": "Q108259191",
                "article": null
            }
        },
        {
            "type": "Feature",
            "geometry": {
                "type": "Point",
                "coordinates": [
                    29.157509434,
                    47.092956316
                ]
            },
            "properties": {
                "name": "Q108259196",
                "article": null
            }
        },
        {
            "type": "Feature",
            "geometry": {
                "type": "Point",
                "coordinates": [
                    29.191276004,
                    47.094947303
                ]
            },
            "properties": {
                "name": "Q108259197",
                "article": null
            }
        },
        {
            "type": "Feature",
            "geometry": {
                "type": "Point",
                "coordinates": [
                    29.058940236,
                    47.123729296
                ]
            },
            "properties": {
                "name": "Q108259201",
                "article": null
            }
        },
        {
            "type": "Feature",
            "geometry": {
                "type": "Point",
                "coordinates": [
                    29.059593191,
                    47.204108082
                ]
            },
            "properties": {
                "name": "Q108259204",
                "article": null
            }
        },
        {
            "type": "Feature",
            "geometry": {
                "type": "Point",
                "coordinates": [
                    28.79979544,
                    47.159706126
                ]
            },
            "properties": {
                "name": "Q108259208",
                "article": null
            }
        },
        {
            "type": "Feature",
            "geometry": {
                "type": "Point",
                "coordinates": [
                    29.190277821,
                    47.140133042
                ]
            },
            "properties": {
                "name": "Q108259209",
                "article": null
            }
        },
        {
            "type": "Feature",
            "geometry": {
                "type": "Point",
                "coordinates": [
                    29.248312768,
                    47.0380928
                ]
            },
            "properties": {
                "name": "Q108259215",
                "article": null
            }
        },
        {
            "type": "Feature",
            "geometry": {
                "type": "Point",
                "coordinates": [
                    28.818923193,
                    47.113473124
                ]
            },
            "properties": {
                "name": "Q108259220",
                "article": null
            }
        },
        {
            "type": "Feature",
            "geometry": {
                "type": "Point",
                "coordinates": [
                    28.94925136,
                    47.235586468
                ]
            },
            "properties": {
                "name": "Q108259225",
                "article": null
            }
        },
        {
            "type": "Feature",
            "geometry": {
                "type": "Point",
                "coordinates": [
                    28.905688721,
                    47.24772015
                ]
            },
            "properties": {
                "name": "Q108259228",
                "article": null
            }
        },
        {
            "type": "Feature",
            "geometry": {
                "type": "Point",
                "coordinates": [
                    28.975832213,
                    47.132764451
                ]
            },
            "properties": {
                "name": "Q108259229",
                "article": null
            }
        },
        {
            "type": "Feature",
            "geometry": {
                "type": "Point",
                "coordinates": [
                    28.927650978,
                    47.13473266
                ]
            },
            "properties": {
                "name": "Q108259232",
                "article": null
            }
        },
        {
            "type": "Feature",
            "geometry": {
                "type": "Point",
                "coordinates": [
                    28.893441412,
                    47.219555348
                ]
            },
            "properties": {
                "name": "Q108259242",
                "article": null
            }
        },
        {
            "type": "Feature",
            "geometry": {
                "type": "Point",
                "coordinates": [
                    29.003670567,
                    47.202870409
                ]
            },
            "properties": {
                "name": "Q108259246",
                "article": null
            }
        },
        {
            "type": "Feature",
            "geometry": {
                "type": "Point",
                "coordinates": [
                    29.041664951,
                    47.257385614
                ]
            },
            "properties": {
                "name": "Q108259247",
                "article": null
            }
        },
        {
            "type": "Feature",
            "geometry": {
                "type": "Point",
                "coordinates": [
                    29.003633076,
                    47.222363734
                ]
            },
            "properties": {
                "name": "Mansion in Izbiște",
                "article": null
            }
        },
        {
            "type": "Feature",
            "geometry": {
                "type": "Point",
                "coordinates": [
                    29.031837243,
                    47.247195362
                ]
            },
            "properties": {
                "name": "Q108259250",
                "article": null
            }
        },
        {
            "type": "Feature",
            "geometry": {
                "type": "Point",
                "coordinates": [
                    29.008001923,
                    47.263747714
                ]
            },
            "properties": {
                "name": "Q108259259",
                "article": null
            }
        },
        {
            "type": "Feature",
            "geometry": {
                "type": "Point",
                "coordinates": [
                    29.013136132,
                    47.291849166
                ]
            },
            "properties": {
                "name": "Q108259256",
                "article": null
            }
        },
        {
            "type": "Feature",
            "geometry": {
                "type": "Point",
                "coordinates": [
                    28.975392875,
                    47.295211421
                ]
            },
            "properties": {
                "name": "Q108259257",
                "article": null
            }
        },
        {
            "type": "Feature",
            "geometry": {
                "type": "Point",
                "coordinates": [
                    28.965968432,
                    47.298148178
                ]
            },
            "properties": {
                "name": "Q108259266",
                "article": null
            }
        },
        {
            "type": "Feature",
            "geometry": {
                "type": "Point",
                "coordinates": [
                    28.816722895,
                    47.15546685
                ]
            },
            "properties": {
                "name": "Q108259277",
                "article": null
            }
        },
        {
            "type": "Feature",
            "geometry": {
                "type": "Point",
                "coordinates": [
                    28.82482,
                    47.02423
                ]
            },
            "properties": {
                "name": "Palace of the Republic",
                "article": "https://en.wikipedia.org/wiki/Palace_of_the_Republic,_Chi%C8%99in%C4%83u"
            }
        },
        {
            "type": "Feature",
            "geometry": {
                "type": "Point",
                "coordinates": [
                    28.833611111,
                    47.021388888
                ]
            },
            "properties": {
                "name": "Building of the former Red Cross of Hîrbovăț monastery",
                "article": null
            }
        },
        {
            "type": "Feature",
            "geometry": {
                "type": "Point",
                "coordinates": [
                    28.2026006,
                    45.4715644
                ]
            },
            "properties": {
                "name": "Giurgiulești railway station",
                "article": null
            }
        },
        {
            "type": "Feature",
            "geometry": {
                "type": "Point",
                "coordinates": [
                    28.82109434,
                    47.019785824
                ]
            },
            "properties": {
                "name": "Building of Yulia von Heyking's former girls gymnasium in Chișinău",
                "article": null
            }
        },
        {
            "type": "Feature",
            "geometry": {
                "type": "Point",
                "coordinates": [
                    26.7863311,
                    48.2902247
                ]
            },
            "properties": {
                "name": "Lipcani railway station",
                "article": null
            }
        },
        {
            "type": "Feature",
            "geometry": {
                "type": "Point",
                "coordinates": [
                    27.7361103,
                    48.4505306
                ]
            },
            "properties": {
                "name": "Vălcineț railway station",
                "article": null
            }
        },
        {
            "type": "Feature",
            "geometry": {
                "type": "Point",
                "coordinates": [
                    28.3345217,
                    47.2443425
                ]
            },
            "properties": {
                "name": "Călăraşi railway station",
                "article": null
            }
        },
        {
            "type": "Feature",
            "geometry": {
                "type": "Point",
                "coordinates": [
                    28.9063339,
                    46.9795367
                ]
            },
            "properties": {
                "name": "Chișinău III railway station",
                "article": null
            }
        },
        {
            "type": "Feature",
            "geometry": {
                "type": "Point",
                "coordinates": [
                    26.6736747,
                    48.2692858
                ]
            },
            "properties": {
                "name": "Criva railway station",
                "article": null
            }
        },
        {
            "type": "Feature",
            "geometry": {
                "type": "Point",
                "coordinates": [
                    27.6483367,
                    48.1647831
                ]
            },
            "properties": {
                "name": "Tîrnova railway station",
                "article": null
            }
        },
        {
            "type": "Feature",
            "geometry": {
                "type": "Point",
                "coordinates": [
                    27.8368817,
                    47.9543917
                ]
            },
            "properties": {
                "name": "Sofia railway station",
                "article": null
            }
        },
        {
            "type": "Feature",
            "geometry": {
                "type": "Point",
                "coordinates": [
                    28.8985925,
                    46.3590311
                ]
            },
            "properties": {
                "name": "Abaclia railway station",
                "article": null
            }
        },
        {
            "type": "Feature",
            "geometry": {
                "type": "Point",
                "coordinates": [
                    28.5319394,
                    45.7591214
                ]
            },
            "properties": {
                "name": "Greceni railway station",
                "article": null
            }
        },
        {
            "type": "Feature",
            "geometry": {
                "type": "Point",
                "coordinates": [
                    28.6501822,
                    45.9246731
                ]
            },
            "properties": {
                "name": "Taraclia railway station",
                "article": null
            }
        },
        {
            "type": "Feature",
            "geometry": {
                "type": "Point",
                "coordinates": [
                    28.8375183,
                    46.0758431
                ]
            },
            "properties": {
                "name": "Ceadîr-Lunga railway station",
                "article": null
            }
        },
        {
            "type": "Feature",
            "geometry": {
                "type": "Point",
                "coordinates": [
                    28.4826664,
                    45.6848461
                ]
            },
            "properties": {
                "name": "Vulcănești railway station",
                "article": null
            }
        },
        {
            "type": "Feature",
            "geometry": {
                "type": "Point",
                "coordinates": [
                    27.6353794,
                    48.4410306
                ]
            },
            "properties": {
                "name": "Verejeni railway station",
                "article": null
            }
        },
        {
            "type": "Feature",
            "geometry": {
                "type": "Point",
                "coordinates": [
                    27.5761014,
                    48.4391814
                ]
            },
            "properties": {
                "name": "Naslavcea railway station",
                "article": null
            }
        },
        {
            "type": "Feature",
            "geometry": {
                "type": "Point",
                "coordinates": [
                    27.5983592,
                    48.4122153
                ]
            },
            "properties": {
                "name": "Gîrbova railway station",
                "article": null
            }
        },
        {
            "type": "Feature",
            "geometry": {
                "type": "Point",
                "coordinates": [
                    28.627168671,
                    47.182241757
                ]
            },
            "properties": {
                "name": "Ivănuș mansion",
                "article": null
            }
        },
        {
            "type": "Feature",
            "geometry": {
                "type": "Point",
                "coordinates": [
                    29.291666666,
                    46.891666666
                ]
            },
            "properties": {
                "name": "Bulboaca railway station",
                "article": null
            }
        },
        {
            "type": "Feature",
            "geometry": {
                "type": "Point",
                "coordinates": [
                    28.831404157,
                    47.01965862
                ]
            },
            "properties": {
                "name": "House of Shapiro-Rosenfeld, Chișinău",
                "article": null
            }
        },
        {
            "type": "Feature",
            "geometry": {
                "type": "Point",
                "coordinates": [
                    28.8296645,
                    47.020902035
                ]
            },
            "properties": {
                "name": "Urban villa of Semigradov",
                "article": null
            }
        },
        {
            "type": "Feature",
            "geometry": {
                "type": "Point",
                "coordinates": [
                    28.819038888,
                    47.021788888
                ]
            },
            "properties": {
                "name": "Urban villa, Alexei Mateevici, 103",
                "article": null
            }
        },
        {
            "type": "Feature",
            "geometry": {
                "type": "Point",
                "coordinates": [
                    28.826825239,
                    47.018339171
                ]
            },
            "properties": {
                "name": "Building of the former Gubernial headquarters, Chișinău",
                "article": null
            }
        },
        {
            "type": "Feature",
            "geometry": {
                "type": "Point",
                "coordinates": [
                    28.822748968,
                    47.025541222
                ]
            },
            "properties": {
                "name": "Urban mansion of Dolivo-Dobrovolski",
                "article": null
            }
        },
        {
            "type": "Feature",
            "geometry": {
                "type": "Point",
                "coordinates": [
                    28.834849158,
                    47.02843256
                ]
            },
            "properties": {
                "name": "Urban mansion, Mitropolit Gavriil Bănulescu-Bodoni 53",
                "article": null
            }
        },
        {
            "type": "Feature",
            "geometry": {
                "type": "Point",
                "coordinates": [
                    28.821873094,
                    47.020117868
                ]
            },
            "properties": {
                "name": "House of Gheorghe Cupcea, Chișinău",
                "article": null
            }
        },
        {
            "type": "Feature",
            "geometry": {
                "type": "Point",
                "coordinates": [
                    29.292005,
                    46.891691944
                ]
            },
            "properties": {
                "name": "Mimi winery",
                "article": "https://en.wikipedia.org/wiki/Mimi_Castle"
            }
        },
        {
            "type": "Feature",
            "geometry": {
                "type": "Point",
                "coordinates": [
                    28.820547661,
                    47.020264503
                ]
            },
            "properties": {
                "name": "Former retirement home founded by Eufrosinia Veazemskaia",
                "article": null
            }
        },