{
    "type": "FeatureCollection",
    "features": [
        {
            "type": "Feature",
            "geometry": {
                "type": "Point",
                "coordinates": [
                    4.466666666,
                    52.166666666
                ]
            },
            "properties": {
                "name": "Oegstgeest",
                "article": "https://en.wikipedia.org/wiki/Oegstgeest"
            }
        },
        {
            "type": "Feature",
            "geometry": {
                "type": "Point",
                "coordinates": [
                    5.83205,
                    50.86523
                ]
            },
            "properties": {
                "name": "Valkenburg",
                "article": null
            }
        },
        {
            "type": "Feature",
            "geometry": {
                "type": "Point",
                "coordinates": [
                    6.195,
                    52.14
                ]
            },
            "properties": {
                "name": "Zutphen",
                "article": "https://en.wikipedia.org/wiki/Zutphen"
            }
        },
        {
            "type": "Feature",
            "geometry": {
                "type": "Point",
                "coordinates": [
                    4.968056,
                    51.833889
                ]
            },
            "properties": {
                "name": "Gorinchem railway station",
                "article": "https://en.wikipedia.org/wiki/Gorinchem_railway_station"
            }
        },
        {
            "type": "Feature",
            "geometry": {
                "type": "Point",
                "coordinates": [
                    5.97667,
                    53.10972
                ]
            },
            "properties": {
                "name": "Q129376",
                "article": null
            }
        },
        {
            "type": "Feature",
            "geometry": {
                "type": "Point",
                "coordinates": [
                    3.892267,
                    51.462106
                ]
            },
            "properties": {
                "name": "’s-Gravenpolder-’s-Heer Abtskerke railway station",
                "article": null
            }
        },
        {
            "type": "Feature",
            "geometry": {
                "type": "Point",
                "coordinates": [
                    4.893611111,
                    52.372777777
                ]
            },
            "properties": {
                "name": "Amsterdam",
                "article": "https://en.wikipedia.org/wiki/Amsterdam"
            }
        },
        {
            "type": "Feature",
            "geometry": {
                "type": "Point",
                "coordinates": [
                    6.5675,
                    53.218888888
                ]
            },
            "properties": {
                "name": "Groningen",
                "article": "https://en.wikipedia.org/wiki/Groningen"
            }
        },
        {
            "type": "Feature",
            "geometry": {
                "type": "Point",
                "coordinates": [
                    6.55,
                    53.0
                ]
            },
            "properties": {
                "name": "Assen",
                "article": "https://en.wikipedia.org/wiki/Assen"
            }
        },
        {
            "type": "Feature",
            "geometry": {
                "type": "Point",
                "coordinates": [
                    6.866666666,
                    53.316666666
                ]
            },
            "properties": {
                "name": "Appingedam",
                "article": "https://en.wikipedia.org/wiki/Appingedam"
            }
        },
        {
            "type": "Feature",
            "geometry": {
                "type": "Point",
                "coordinates": [
                    5.663055555,
                    51.964444444
                ]
            },
            "properties": {
                "name": "Wageningen",
                "article": "https://en.wikipedia.org/wiki/Wageningen"
            }
        },
        {
            "type": "Feature",
            "geometry": {
                "type": "Point",
                "coordinates": [
                    5.916666666,
                    51.983333333
                ]
            },
            "properties": {
                "name": "Arnhem",
                "article": "https://en.wikipedia.org/wiki/Arnhem"
            }
        },
        {
            "type": "Feature",
            "geometry": {
                "type": "Point",
                "coordinates": [
                    5.555,
                    52.025
                ]
            },
            "properties": {
                "name": "Veenendaal",
                "article": "https://en.wikipedia.org/wiki/Veenendaal"
            }
        },
        {
            "type": "Feature",
            "geometry": {
                "type": "Point",
                "coordinates": [
                    5.90583,
                    51.98354
                ]
            },
            "properties": {
                "name": "Willemsplein",
                "article": null
            }
        },
        {
            "type": "Feature",
            "geometry": {
                "type": "Point",
                "coordinates": [
                    5.987222222,
                    51.193333333
                ]
            },
            "properties": {
                "name": "Roermond",
                "article": "https://en.wikipedia.org/wiki/Roermond"
            }
        },
        {
            "type": "Feature",
            "geometry": {
                "type": "Point",
                "coordinates": [
                    6.0297,
                    50.9083
                ]
            },
            "properties": {
                "name": "Landgraaf",
                "article": "https://en.wikipedia.org/wiki/Landgraaf"
            }
        },
        {
            "type": "Feature",
            "geometry": {
                "type": "Point",
                "coordinates": [
                    5.966666666,
                    50.95
                ]
            },
            "properties": {
                "name": "Brunssum",
                "article": "https://en.wikipedia.org/wiki/Brunssum"
            }
        },
        {
            "type": "Feature",
            "geometry": {
                "type": "Point",
                "coordinates": [
                    5.3922,
                    51.5108
                ]
            },
            "properties": {
                "name": "Best",
                "article": "https://en.wikipedia.org/wiki/Best,_Netherlands"
            }
        },
        {
            "type": "Feature",
            "geometry": {
                "type": "Point",
                "coordinates": [
                    4.6356,
                    51.5706
                ]
            },
            "properties": {
                "name": "Etten-Leur",
                "article": "https://en.wikipedia.org/wiki/Etten-Leur"
            }
        },
        {
            "type": "Feature",
            "geometry": {
                "type": "Point",
                "coordinates": [
                    5.65559,
                    51.47968
                ]
            },
            "properties": {
                "name": "Helmond",
                "article": "https://en.wikipedia.org/wiki/Helmond"
            }
        },
        {
            "type": "Feature",
            "geometry": {
                "type": "Point",
                "coordinates": [
                    5.0911,
                    51.5572
                ]
            },
            "properties": {
                "name": "Tilburg",
                "article": null
            }
        },
        {
            "type": "Feature",
            "geometry": {
                "type": "Point",
                "coordinates": [
                    5.405,
                    51.42
                ]
            },
            "properties": {
                "name": "Veldhoven",
                "article": "https://en.wikipedia.org/wiki/Veldhoven"
            }
        },
        {
            "type": "Feature",
            "geometry": {
                "type": "Point",
                "coordinates": [
                    4.858055555,
                    52.301944444
                ]
            },
            "properties": {
                "name": "Amstelveen",
                "article": "https://en.wikipedia.org/wiki/Amstelveen"
            }
        },
        {
            "type": "Feature",
            "geometry": {
                "type": "Point",
                "coordinates": [
                    5.16111,
                    52.27333
                ]
            },
            "properties": {
                "name": "Bussum",
                "article": "https://en.wikipedia.org/wiki/Bussum"
            }
        },
        {
            "type": "Feature",
            "geometry": {
                "type": "Point",
                "coordinates": [
                    4.9625,
                    52.3439
                ]
            },
            "properties": {
                "name": "Diemen",
                "article": "https://en.wikipedia.org/wiki/Diemen"
            }
        },
        {
            "type": "Feature",
            "geometry": {
                "type": "Point",
                "coordinates": [
                    5.283333333,
                    52.7
                ]
            },
            "properties": {
                "name": "Enkhuizen",
                "article": "https://en.wikipedia.org/wiki/Enkhuizen"
            }
        },
        {
            "type": "Feature",
            "geometry": {
                "type": "Point",
                "coordinates": [
                    4.640555555,
                    52.380277777
                ]
            },
            "properties": {
                "name": "Haarlem",
                "article": "https://en.wikipedia.org/wiki/Haarlem"
            }
        },
        {
            "type": "Feature",
            "geometry": {
                "type": "Point",
                "coordinates": [
                    4.672777777,
                    52.510833333
                ]
            },
            "properties": {
                "name": "Heemskerk",
                "article": "https://en.wikipedia.org/wiki/Heemskerk"
            }
        },
        {
            "type": "Feature",
            "geometry": {
                "type": "Point",
                "coordinates": [
                    4.841,
                    52.668
                ]
            },
            "properties": {
                "name": "Heerhugowaard",
                "article": "https://en.wikipedia.org/wiki/Heerhugowaard"
            }
        },
        {
            "type": "Feature",
            "geometry": {
                "type": "Point",
                "coordinates": [
                    5.18,
                    52.23
                ]
            },
            "properties": {
                "name": "Hilversum",
                "article": "https://en.wikipedia.org/wiki/Hilversum"
            }
        },
        {
            "type": "Feature",
            "geometry": {
                "type": "Point",
                "coordinates": [
                    4.7019,
                    52.6011
                ]
            },
            "properties": {
                "name": "Heiloo",
                "article": "https://en.wikipedia.org/wiki/Heiloo"
            }
        },
        {
            "type": "Feature",
            "geometry": {
                "type": "Point",
                "coordinates": [
                    5.231666666,
                    52.254444444
                ]
            },
            "properties": {
                "name": "Laren",
                "article": "https://en.wikipedia.org/wiki/Laren,_North_Holland"
            }
        },
        {
            "type": "Feature",
            "geometry": {
                "type": "Point",
                "coordinates": [
                    4.963888888,
                    52.505
                ]
            },
            "properties": {
                "name": "Purmerend",
                "article": "https://en.wikipedia.org/wiki/Purmerend"
            }
        },
        {
            "type": "Feature",
            "geometry": {
                "type": "Point",
                "coordinates": [
                    5.0417,
                    52.3069
                ]
            },
            "properties": {
                "name": "Weesp",
                "article": "https://en.wikipedia.org/wiki/Weesp"
            }
        },
        {
            "type": "Feature",
            "geometry": {
                "type": "Point",
                "coordinates": [
                    5.0417,
                    52.3069
                ]
            },
            "properties": {
                "name": "Weesp",
                "article": "https://en.wikipedia.org/wiki/Weesp"
            }
        },
        {
            "type": "Feature",
            "geometry": {
                "type": "Point",
                "coordinates": [
                    5.04167,
                    52.3075
                ]
            },
            "properties": {
                "name": "Weesp",
                "article": "https://en.wikipedia.org/wiki/Weesp"
            }
        },
        {
            "type": "Feature",
            "geometry": {
                "type": "Point",
                "coordinates": [
                    5.04167,
                    52.3075
                ]
            },
            "properties": {
                "name": "Weesp",
                "article": "https://en.wikipedia.org/wiki/Weesp"
            }
        },
        {
            "type": "Feature",
            "geometry": {
                "type": "Point",
                "coordinates": [
                    6.793055555,
                    52.265555555
                ]
            },
            "properties": {
                "name": "Hengelo",
                "article": "https://en.wikipedia.org/wiki/Hengelo"
            }
        },
        {
            "type": "Feature",
            "geometry": {
                "type": "Point",
                "coordinates": [
                    5.919722222,
                    52.555
                ]
            },
            "properties": {
                "name": "Kampen",
                "article": "https://en.wikipedia.org/wiki/Kampen,_Overijssel"
            }
        },
        {
            "type": "Feature",
            "geometry": {
                "type": "Point",
                "coordinates": [
                    5.0422,
                    52.02
                ]
            },
            "properties": {
                "name": "IJsselstein",
                "article": "https://en.wikipedia.org/wiki/IJsselstein"
            }
        },
        {
            "type": "Feature",
            "geometry": {
                "type": "Point",
                "coordinates": [
                    5.0919,
                    52.0314
                ]
            },
            "properties": {
                "name": "Nieuwegein",
                "article": "https://en.wikipedia.org/wiki/Nieuwegein"
            }
        },
        {
            "type": "Feature",
            "geometry": {
                "type": "Point",
                "coordinates": [
                    5.4164,
                    52.0806
                ]
            },
            "properties": {
                "name": "Woudenberg",
                "article": "https://en.wikipedia.org/wiki/Woudenberg"
            }
        },
        {
            "type": "Feature",
            "geometry": {
                "type": "Point",
                "coordinates": [
                    5.1,
                    51.983333333
                ]
            },
            "properties": {
                "name": "Vianen",
                "article": "https://en.wikipedia.org/wiki/Vianen"
            }
        },
        {
            "type": "Feature",
            "geometry": {
                "type": "Point",
                "coordinates": [
                    5.549444,
                    53.182222
                ]
            },
            "properties": {
                "name": "Franeker railway station",
                "article": "https://en.wikipedia.org/wiki/Franeker_railway_station"
            }
        },
        {
            "type": "Feature",
            "geometry": {
                "type": "Point",
                "coordinates": [
                    6.584444444,
                    53.205
                ]
            },
            "properties": {
                "name": "Groningen Europapark railway station",
                "article": "https://en.wikipedia.org/wiki/Groningen_Europapark_railway_station"
            }
        },
        {
            "type": "Feature",
            "geometry": {
                "type": "Point",
                "coordinates": [
                    6.563889,
                    53.210556
                ]
            },
            "properties": {
                "name": "Groningen railway station",
                "article": "https://en.wikipedia.org/wiki/Groningen_railway_station"
            }
        },
        {
            "type": "Feature",
            "geometry": {
                "type": "Point",
                "coordinates": [
                    6.556388888,
                    53.23
                ]
            },
            "properties": {
                "name": "Groningen Noord railway station",
                "article": "https://en.wikipedia.org/wiki/Groningen_Noord_railway_station"
            }
        },
        {
            "type": "Feature",
            "geometry": {
                "type": "Point",
                "coordinates": [
                    5.79324,
                    53.19649
                ]
            },
            "properties": {
                "name": "Leeuwarden railway station",
                "article": "https://en.wikipedia.org/wiki/Leeuwarden_railway_station"
            }
        },
        {
            "type": "Feature",
            "geometry": {
                "type": "Point",
                "coordinates": [
                    5.816389,
                    53.198889
                ]
            },
            "properties": {
                "name": "Leeuwarden Achter de Hoven railway station",
                "article": "https://en.wikipedia.org/wiki/Leeuwarden_Achter_de_Hoven_railway_station"
            }
        },
        {
            "type": "Feature",
            "geometry": {
                "type": "Point",
                "coordinates": [
                    5.841667,
                    53.201944
                ]
            },
            "properties": {
                "name": "Leeuwarden Camminghaburen railway station",
                "article": "https://en.wikipedia.org/wiki/Leeuwarden_Camminghaburen_railway_station"
            }
        },
        {
            "type": "Feature",
            "geometry": {
                "type": "Point",
                "coordinates": [
                    5.775633,
                    53.211686
                ]
            },
            "properties": {
                "name": "Leeuwarden Halte railway station",
                "article": null
            }
        },
        {
            "type": "Feature",
            "geometry": {
                "type": "Point",
                "coordinates": [
                    6.518611,
                    53.361389
                ]
            },
            "properties": {
                "name": "Baflo railway station",
                "article": "https://en.wikipedia.org/wiki/Baflo_railway_station"
            }
        },
        {
            "type": "Feature",
            "geometry": {
                "type": "Point",
                "coordinates": [
                    6.519722,
                    53.330556
                ]
            },
            "properties": {
                "name": "Winsum railway station",
                "article": "https://en.wikipedia.org/wiki/Winsum_railway_station"
            }
        },
        {
            "type": "Feature",
            "geometry": {
                "type": "Point",
                "coordinates": [
                    5.66,
                    53.0325
                ]
            },
            "properties": {
                "name": "Sneek",
                "article": "https://en.wikipedia.org/wiki/Sneek"
            }
        },
        {
            "type": "Feature",
            "geometry": {
                "type": "Point",
                "coordinates": [
                    5.783333333,
                    53.2
                ]
            },
            "properties": {
                "name": "Leeuwarden",
                "article": "https://en.wikipedia.org/wiki/Leeuwarden"
            }
        },
        {
            "type": "Feature",
            "geometry": {
                "type": "Point",
                "coordinates": [
                    -68.2581,
                    12.1796
                ]
            },
            "properties": {
                "name": "Bonaire",
                "article": "https://en.wikipedia.org/wiki/Bonaire"
            }
        },
        {
            "type": "Feature",
            "geometry": {
                "type": "Point",
                "coordinates": [
                    -63.2375,
                    17.6325
                ]
            },
            "properties": {
                "name": "Saba",
                "article": "https://en.wikipedia.org/wiki/Saba_(island)"
            }
        },
        {
            "type": "Feature",
            "geometry": {
                "type": "Point",
                "coordinates": [
                    -62.966666666,
                    17.483333333
                ]
            },
            "properties": {
                "name": "Sint Eustatius",
                "article": "https://en.wikipedia.org/wiki/Sint_Eustatius"
            }
        },
        {
            "type": "Feature",
            "geometry": {
                "type": "Point",
                "coordinates": [
                    4.678333333,
                    51.795833333
                ]
            },
            "properties": {
                "name": "Dordrecht",
                "article": "https://en.wikipedia.org/wiki/Dordrecht"
            }
        },
        {
            "type": "Feature",
            "geometry": {
                "type": "Point",
                "coordinates": [
                    4.493333333,
                    52.061111111
                ]
            },
            "properties": {
                "name": "Zoetermeer",
                "article": "https://en.wikipedia.org/wiki/Zoetermeer"
            }
        },
        {
            "type": "Feature",
            "geometry": {
                "type": "Point",
                "coordinates": [
                    5.866666666,
                    51.0
                ]
            },
            "properties": {
                "name": "Sittard",
                "article": "https://en.wikipedia.org/wiki/Sittard"
            }
        },
        {
            "type": "Feature",
            "geometry": {
                "type": "Point",
                "coordinates": [
                    5.4022,
                    52.9428
                ]
            },
            "properties": {
                "name": "Hindeloopen",
                "article": "https://en.wikipedia.org/wiki/Hindeloopen"
            }
        },
        {
            "type": "Feature",
            "geometry": {
                "type": "Point",
                "coordinates": [
                    5.247,
                    51.81231
                ]
            },
            "properties": {
                "name": "Zaltbommel",
                "article": null
            }
        },
        {
            "type": "Feature",
            "geometry": {
                "type": "Point",
                "coordinates": [
                    5.833333333,
                    50.966666666
                ]
            },
            "properties": {
                "name": "Geleen",
                "article": "https://en.wikipedia.org/wiki/Geleen"
            }
        },
        {
            "type": "Feature",
            "geometry": {
                "type": "Point",
                "coordinates": [
                    5.05,
                    52.516666666
                ]
            },
            "properties": {
                "name": "Edam",
                "article": "https://en.wikipedia.org/wiki/Edam,_Netherlands"
            }
        },
        {
            "type": "Feature",
            "geometry": {
                "type": "Point",
                "coordinates": [
                    5.05,
                    52.516666666
                ]
            },
            "properties": {
                "name": "Edam",
                "article": "https://en.wikipedia.org/wiki/Edam,_Netherlands"
            }
        },
        {
            "type": "Feature",
            "geometry": {
                "type": "Point",
                "coordinates": [
                    3.9164,
                    51.6497
                ]
            },
            "properties": {
                "name": "Zierikzee",
                "article": "https://en.wikipedia.org/wiki/Zierikzee"
            }
        },
        {
            "type": "Feature",
            "geometry": {
                "type": "Point",
                "coordinates": [
                    6.091111111,
                    52.590833333
                ]
            },
            "properties": {
                "name": "Hasselt",
                "article": "https://en.wikipedia.org/wiki/Hasselt,_Overijssel"
            }
        },
        {
            "type": "Feature",
            "geometry": {
                "type": "Point",
                "coordinates": [
                    5.4272,
                    52.0119
                ]
            },
            "properties": {
                "name": "Leersum",
                "article": "https://en.wikipedia.org/wiki/Leersum"
            }
        },
        {
            "type": "Feature",
            "geometry": {
                "type": "Point",
                "coordinates": [
                    5.225555555,
                    52.375833333
                ]
            },
            "properties": {
                "name": "Almere",
                "article": "https://en.wikipedia.org/wiki/Almere"
            }
        },
        {
            "type": "Feature",
            "geometry": {
                "type": "Point",
                "coordinates": [
                    6.133333333,
                    52.016666666
                ]
            },
            "properties": {
                "name": "Doesburg",
                "article": "https://en.wikipedia.org/wiki/Doesburg"
            }
        },
        {
            "type": "Feature",
            "geometry": {
                "type": "Point",
                "coordinates": [
                    5.483333333,
                    52.516666666
                ]
            },
            "properties": {
                "name": "Lelystad",
                "article": "https://en.wikipedia.org/wiki/Lelystad"
            }
        },
        {
            "type": "Feature",
            "geometry": {
                "type": "Point",
                "coordinates": [
                    5.65167,
                    53.03222
                ]
            },
            "properties": {
                "name": "Sneek railway station",
                "article": "https://en.wikipedia.org/wiki/Sneek_railway_station"
            }
        },
        {
            "type": "Feature",
            "geometry": {
                "type": "Point",
                "coordinates": [
                    5.9725,
                    51.8769
                ]
            },
            "properties": {
                "name": "Gendt",
                "article": "https://en.wikipedia.org/wiki/Gendt"
            }
        },
        {
            "type": "Feature",
            "geometry": {
                "type": "Point",
                "coordinates": [
                    6.714722,
                    51.968056
                ]
            },
            "properties": {
                "name": "Winterswijk railway station",
                "article": "https://en.wikipedia.org/wiki/Winterswijk_railway_station"
            }
        },
        {
            "type": "Feature",
            "geometry": {
                "type": "Point",
                "coordinates": [
                    3.880556,
                    51.454503
                ]
            },
            "properties": {
                "name": "Nisse railway station",
                "article": null
            }
        },
        {
            "type": "Feature",
            "geometry": {
                "type": "Point",
                "coordinates": [
                    5.823333,
                    50.860278
                ]
            },
            "properties": {
                "name": "Cauberg",
                "article": "https://en.wikipedia.org/wiki/Cauberg"
            }
        },
        {
            "type": "Feature",
            "geometry": {
                "type": "Point",
                "coordinates": [
                    5.516666666,
                    52.333333333
                ]
            },
            "properties": {
                "name": "Zeewolde",
                "article": "https://en.wikipedia.org/wiki/Zeewolde"
            }
        },
        {
            "type": "Feature",
            "geometry": {
                "type": "Point",
                "coordinates": [
                    4.3,
                    51.5
                ]
            },
            "properties": {
                "name": "Bergen op Zoom",
                "article": "https://en.wikipedia.org/wiki/Bergen_op_Zoom"
            }
        },
        {
            "type": "Feature",
            "geometry": {
                "type": "Point",
                "coordinates": [
                    4.323889,
                    52.081111
                ]
            },
            "properties": {
                "name": "Den Haag Centraal railway station",
                "article": "https://en.wikipedia.org/wiki/Den_Haag_Centraal_railway_station"
            }
        },
        {
            "type": "Feature",
            "geometry": {
                "type": "Point",
                "coordinates": [
                    5.86111111,
                    52.51666667
                ]
            },
            "properties": {
                "name": "Drontermeer",
                "article": null
            }
        },
        {
            "type": "Feature",
            "geometry": {
                "type": "Point",
                "coordinates": [
                    5.3314,
                    53.4011
                ]
            },
            "properties": {
                "name": "Terschelling",
                "article": "https://en.wikipedia.org/wiki/Terschelling"
            }
        },
        {
            "type": "Feature",
            "geometry": {
                "type": "Point",
                "coordinates": [
                    4.4,
                    51.916666666
                ]
            },
            "properties": {
                "name": "Schiedam",
                "article": "https://en.wikipedia.org/wiki/Schiedam"
            }
        },
        {
            "type": "Feature",
            "geometry": {
                "type": "Point",
                "coordinates": [
                    4.9558,
                    53.2583
                ]
            },
            "properties": {
                "name": "Vlieland",
                "article": "https://en.wikipedia.org/wiki/Vlieland"
            }
        },
        {
            "type": "Feature",
            "geometry": {
                "type": "Point",
                "coordinates": [
                    6.225,
                    53.49
                ]
            },
            "properties": {
                "name": "Schiermonnikoog",
                "article": "https://en.wikipedia.org/wiki/Schiermonnikoog"
            }
        },
        {
            "type": "Feature",
            "geometry": {
                "type": "Point",
                "coordinates": [
                    4.35,
                    51.916666666
                ]
            },
            "properties": {
                "name": "Vlaardingen",
                "article": "https://en.wikipedia.org/wiki/Vlaardingen"
            }
        },
        {
            "type": "Feature",
            "geometry": {
                "type": "Point",
                "coordinates": [
                    -62.983333333,
                    17.483333333
                ]
            },
            "properties": {
                "name": "Oranjestad",
                "article": "https://en.wikipedia.org/wiki/Oranjestad,_Sint_Eustatius"
            }
        },
        {
            "type": "Feature",
            "geometry": {
                "type": "Point",
                "coordinates": [
                    4.6,
                    51.866666666
                ]
            },
            "properties": {
                "name": "Ridderkerk",
                "article": "https://en.wikipedia.org/wiki/Ridderkerk"
            }
        },
        {
            "type": "Feature",
            "geometry": {
                "type": "Point",
                "coordinates": [
                    6.695556,
                    53.120556
                ]
            },
            "properties": {
                "name": "Zuidlaardermeer",
                "article": "https://en.wikipedia.org/wiki/Zuidlaardermeer"
            }
        },
        {
            "type": "Feature",
            "geometry": {
                "type": "Point",
                "coordinates": [
                    5.96417,
                    52.6325
                ]
            },
            "properties": {
                "name": "Zwarte Meer",
                "article": null
            }
        },
        {
            "type": "Feature",
            "geometry": {
                "type": "Point",
                "coordinates": [
                    6.116666666,
                    53.05
                ]
            },
            "properties": {
                "name": "Zwarte Meer",
                "article": null
            }
        },
        {
            "type": "Feature",
            "geometry": {
                "type": "Point",
                "coordinates": [
                    5.475278,
                    51.439444
                ]
            },
            "properties": {
                "name": "De Admirant",
                "article": null
            }
        },
        {
            "type": "Feature",
            "geometry": {
                "type": "Point",
                "coordinates": [
                    5.548611111,
                    52.019722222
                ]
            },
            "properties": {
                "name": "Veenendaal Centrum railway station",
                "article": "https://en.wikipedia.org/wiki/Veenendaal_Centrum_railway_station"
            }
        },
        {
            "type": "Feature",
            "geometry": {
                "type": "Point",
                "coordinates": [
                    5.605833333,
                    52.665277777
                ]
            },
            "properties": {
                "name": "Urk",
                "article": "https://en.wikipedia.org/wiki/Urk"
            }
        },
        {
            "type": "Feature",
            "geometry": {
                "type": "Point",
                "coordinates": [
                    4.889444,
                    52.368611
                ]
            },
            "properties": {
                "name": "Spui",
                "article": "https://en.wikipedia.org/wiki/Spui_(Amsterdam)"
            }
        },
        {
            "type": "Feature",
            "geometry": {
                "type": "Point",
                "coordinates": [
                    4.9117,
                    52.2972
                ]
            },
            "properties": {
                "name": "Ouderkerk aan de Amstel",
                "article": "https://en.wikipedia.org/wiki/Ouderkerk_aan_de_Amstel"
            }
        },
        {
            "type": "Feature",
            "geometry": {
                "type": "Point",
                "coordinates": [
                    5.106666666,
                    52.458055555
                ]
            },
            "properties": {
                "name": "Marken",
                "article": "https://en.wikipedia.org/wiki/Marken"
            }
        },
        {
            "type": "Feature",
            "geometry": {
                "type": "Point",
                "coordinates": [
                    4.96444,
                    52.27861
                ]
            },
            "properties": {
                "name": "Abcoudermeer",
                "article": null
            }
        },
        {
            "type": "Feature",
            "geometry": {
                "type": "Point",
                "coordinates": [
                    6.916666666,
                    53.333333333
                ]
            },
            "properties": {
                "name": "Delfzijl",
                "article": "https://en.wikipedia.org/wiki/Delfzijl"
            }
        },
        {
            "type": "Feature",
            "geometry": {
                "type": "Point",
                "coordinates": [
                    5.671944,
                    52.027778
                ]
            },
            "properties": {
                "name": "Ede-Wageningen railway station",
                "article": "https://en.wikipedia.org/wiki/Ede-Wageningen_railway_station"
            }
        },
        {
            "type": "Feature",
            "geometry": {
                "type": "Point",
                "coordinates": [
                    5.3314,
                    53.4011
                ]
            },
            "properties": {
                "name": "Terschelling",
                "article": "https://en.wikipedia.org/wiki/Terschelling"
            }
        },
        {
            "type": "Feature",
            "geometry": {
                "type": "Point",
                "coordinates": [
                    4.4,
                    51.916666666
                ]
            },
            "properties": {
                "name": "Schiedam",
                "article": "https://en.wikipedia.org/wiki/Schiedam"
            }
        },
        {
            "type": "Feature",
            "geometry": {
                "type": "Point",
                "coordinates": [
                    4.9558,
                    53.2583
                ]
            },
            "properties": {
                "name": "Vlieland",
                "article": "https://en.wikipedia.org/wiki/Vlieland"
            }
        },
        {
            "type": "Feature",
            "geometry": {
                "type": "Point",
                "coordinates": [
                    6.225,
                    53.49
                ]
            },
            "properties": {
                "name": "Schiermonnikoog",
                "article": "https://en.wikipedia.org/wiki/Schiermonnikoog"
            }
        },
        {
            "type": "Feature",
            "geometry": {
                "type": "Point",
                "coordinates": [
                    4.35,
                    51.916666666
                ]
            },
            "properties": {
                "name": "Vlaardingen",
                "article": "https://en.wikipedia.org/wiki/Vlaardingen"
            }
        },
        {
            "type": "Feature",
            "geometry": {
                "type": "Point",
                "coordinates": [
                    -62.983333333,
                    17.483333333
                ]
            },
            "properties": {
                "name": "Oranjestad",
                "article": "https://en.wikipedia.org/wiki/Oranjestad,_Sint_Eustatius"
            }
        },
        {
            "type": "Feature",
            "geometry": {
                "type": "Point",
                "coordinates": [
                    4.6,
                    51.866666666
                ]
            },
            "properties": {
                "name": "Ridderkerk",
                "article": "https://en.wikipedia.org/wiki/Ridderkerk"
            }
        },
        {
            "type": "Feature",
            "geometry": {
                "type": "Point",
                "coordinates": [
                    6.695556,
                    53.120556
                ]
            },
            "properties": {
                "name": "Zuidlaardermeer",
                "article": "https://en.wikipedia.org/wiki/Zuidlaardermeer"
            }
        },
        {
            "type": "Feature",
            "geometry": {
                "type": "Point",
                "coordinates": [
                    5.96417,
                    52.6325
                ]
            },
            "properties": {
                "name": "Zwarte Meer",
                "article": null
            }
        },
        {
            "type": "Feature",
            "geometry": {
                "type": "Point",
                "coordinates": [
                    6.116666666,
                    53.05
                ]
            },
            "properties": {
                "name": "Zwarte Meer",
                "article": null
            }
        },
        {
            "type": "Feature",
            "geometry": {
                "type": "Point",
                "coordinates": [
                    5.475278,
                    51.439444
                ]
            },
            "properties": {
                "name": "De Admirant",
                "article": null
            }
        },
        {
            "type": "Feature",
            "geometry": {
                "type": "Point",
                "coordinates": [
                    5.548611111,
                    52.019722222
                ]
            },
            "properties": {
                "name": "Veenendaal Centrum railway station",
                "article": "https://en.wikipedia.org/wiki/Veenendaal_Centrum_railway_station"
            }
        },
        {
            "type": "Feature",
            "geometry": {
                "type": "Point",
                "coordinates": [
                    5.605833333,
                    52.665277777
                ]
            },
            "properties": {
                "name": "Urk",
                "article": "https://en.wikipedia.org/wiki/Urk"
            }
        },
        {
            "type": "Feature",
            "geometry": {
                "type": "Point",
                "coordinates": [
                    4.889444,
                    52.368611
                ]
            },
            "properties": {
                "name": "Spui",
                "article": "https://en.wikipedia.org/wiki/Spui_(Amsterdam)"
            }
        },
        {
            "type": "Feature",
            "geometry": {
                "type": "Point",
                "coordinates": [
                    4.9117,
                    52.2972
                ]
            },
            "properties": {
                "name": "Ouderkerk aan de Amstel",
                "article": "https://en.wikipedia.org/wiki/Ouderkerk_aan_de_Amstel"
            }
        },
        {
            "type": "Feature",
            "geometry": {
                "type": "Point",
                "coordinates": [
                    5.106666666,
                    52.458055555
                ]
            },
            "properties": {
                "name": "Marken",
                "article": "https://en.wikipedia.org/wiki/Marken"
            }
        },
        {
            "type": "Feature",
            "geometry": {
                "type": "Point",
                "coordinates": [
                    4.96444,
                    52.27861
                ]
            },
            "properties": {
                "name": "Abcoudermeer",
                "article": null
            }
        },
        {
            "type": "Feature",
            "geometry": {
                "type": "Point",
                "coordinates": [
                    6.916666666,
                    53.333333333
                ]
            },
            "properties": {
                "name": "Delfzijl",
                "article": "https://en.wikipedia.org/wiki/Delfzijl"
            }
        },
        {
            "type": "Feature",
            "geometry": {
                "type": "Point",
                "coordinates": [
                    6.19754,
                    52.69174
                ]
            },
            "properties": {
                "name": "Meppel railway station",
                "article": "https://en.wikipedia.org/wiki/Meppel_railway_station"
            }
        },
        {
            "type": "Feature",
            "geometry": {
                "type": "Point",
                "coordinates": [
                    6.090556,
                    52.505278
                ]
            },
            "properties": {
                "name": "Zwolle railway station",
                "article": "https://en.wikipedia.org/wiki/Zwolle_railway_station"
            }
        },
        {
            "type": "Feature",
            "geometry": {
                "type": "Point",
                "coordinates": [
                    5.374166666,
                    52.153888888
                ]
            },
            "properties": {
                "name": "Amersfoort Central railway station",
                "article": "https://en.wikipedia.org/wiki/Amersfoort_Centraal_railway_station"
            }
        },
        {
            "type": "Feature",
            "geometry": {
                "type": "Point",
                "coordinates": [
                    5.433611,
                    52.1925
                ]
            },
            "properties": {
                "name": "Amersfoort Vathorst railway station",
                "article": "https://en.wikipedia.org/wiki/Amersfoort_Vathorst_railway_station"
            }
        },
        {
            "type": "Feature",
            "geometry": {
                "type": "Point",
                "coordinates": [
                    5.403611,
                    52.174722
                ]
            },
            "properties": {
                "name": "Amersfoort Schothorst railway station",
                "article": "https://en.wikipedia.org/wiki/Amersfoort_Schothorst_railway_station"
            }
        },
        {
            "type": "Feature",
            "geometry": {
                "type": "Point",
                "coordinates": [
                    4.936389,
                    52.323333
                ]
            },
            "properties": {
                "name": "Duivendrecht railway station",
                "article": "https://en.wikipedia.org/wiki/Duivendrecht_station"
            }
        },
        {
            "type": "Feature",
            "geometry": {
                "type": "Point",
                "coordinates": [
                    5.181111,
                    52.226944
                ]
            },
            "properties": {
                "name": "Hilversum railway station",
                "article": "https://en.wikipedia.org/wiki/Hilversum_railway_station"
            }
        },
        {
            "type": "Feature",
            "geometry": {
                "type": "Point",
                "coordinates": [
                    4.873055555,
                    52.338888888
                ]
            },
            "properties": {
                "name": "Amsterdam Zuid",
                "article": "https://en.wikipedia.org/wiki/Amsterdam_Zuid_station"
            }
        },
        {
            "type": "Feature",
            "geometry": {
                "type": "Point",
                "coordinates": [
                    4.90016,
                    52.37895
                ]
            },
            "properties": {
                "name": "Amsterdam Central station",
                "article": "https://en.wikipedia.org/wiki/Amsterdam_Centraal_station"
            }
        },
        {
            "type": "Feature",
            "geometry": {
                "type": "Point",
                "coordinates": [
                    4.833888888,
                    52.357222222
                ]
            },
            "properties": {
                "name": "Amsterdam Lelylaan",
                "article": "https://en.wikipedia.org/wiki/Amsterdam_Lelylaan_station"
            }
        },
        {
            "type": "Feature",
            "geometry": {
                "type": "Point",
                "coordinates": [
                    4.946111111,
                    52.313055555
                ]
            },
            "properties": {
                "name": "Amsterdam Bijlmer ArenA",
                "article": "https://en.wikipedia.org/wiki/Amsterdam_Bijlmer_ArenA_station"
            }
        },
        {
            "type": "Feature",
            "geometry": {
                "type": "Point",
                "coordinates": [
                    4.917778,
                    52.346389
                ]
            },
            "properties": {
                "name": "Amsterdam Amstel",
                "article": "https://en.wikipedia.org/wiki/Amsterdam_Amstel_station"
            }
        },
        {
            "type": "Feature",
            "geometry": {
                "type": "Point",
                "coordinates": [
                    4.838056,
                    52.389167
                ]
            },
            "properties": {
                "name": "Amsterdam Sloterdijk",
                "article": "https://en.wikipedia.org/wiki/Amsterdam_Sloterdijk_station"
            }
        },
        {
            "type": "Feature",
            "geometry": {
                "type": "Point",
                "coordinates": [
                    4.931111111,
                    52.360833333
                ]
            },
            "properties": {
                "name": "Amsterdam Muiderpoort railway station",
                "article": "https://en.wikipedia.org/wiki/Amsterdam_Muiderpoort_railway_station"
            }
        },
        {
            "type": "Feature",
            "geometry": {
                "type": "Point",
                "coordinates": [
                    3.613611111,
                    51.499722222
                ]
            },
            "properties": {
                "name": "Middelburg",
                "article": "https://en.wikipedia.org/wiki/Middelburg,_Zeeland"
            }
        },
        {
            "type": "Feature",
            "geometry": {
                "type": "Point",
                "coordinates": [
                    6.069722222,
                    52.474444444
                ]
            },
            "properties": {
                "name": "Hattem",
                "article": "https://en.wikipedia.org/wiki/Hattem"
            }
        },
        {
            "type": "Feature",
            "geometry": {
                "type": "Point",
                "coordinates": [
                    6.191666666,
                    52.703333333
                ]
            },
            "properties": {
                "name": "Meppel",
                "article": "https://en.wikipedia.org/wiki/Meppel"
            }
        },
        {
            "type": "Feature",
            "geometry": {
                "type": "Point",
                "coordinates": [
                    6.1,
                    53.1
                ]
            },
            "properties": {
                "name": "Drachten",
                "article": "https://en.wikipedia.org/wiki/Drachten"
            }
        },
        {
            "type": "Feature",
            "geometry": {
                "type": "Point",
                "coordinates": [
                    -68.276666666,
                    12.150833333
                ]
            },
            "properties": {
                "name": "Kralendijk",
                "article": "https://en.wikipedia.org/wiki/Kralendijk"
            }
        },
        {
            "type": "Feature",
            "geometry": {
                "type": "Point",
                "coordinates": [
                    4.666666666,
                    52.55
                ]
            },
            "properties": {
                "name": "Battle of Castricum",
                "article": "https://en.wikipedia.org/wiki/Battle_of_Castricum"
            }
        },
        {
            "type": "Feature",
            "geometry": {
                "type": "Point",
                "coordinates": [
                    5.9667,
                    52.0
                ]
            },
            "properties": {
                "name": "Rozendaal",
                "article": "https://en.wikipedia.org/wiki/Rozendaal"
            }
        },
        {
            "type": "Feature",
            "geometry": {
                "type": "Point",
                "coordinates": [
                    5.36,
                    52.886667
                ]
            },
            "properties": {
                "name": "Stavoren railway station",
                "article": "https://en.wikipedia.org/wiki/Stavoren_railway_station"
            }
        },
        {
            "type": "Feature",
            "geometry": {
                "type": "Point",
                "coordinates": [
                    5.671944,
                    52.027778
                ]
            },
            "properties": {
                "name": "Ede-Wageningen railway station",
                "article": "https://en.wikipedia.org/wiki/Ede-Wageningen_railway_station"
            }
        },
        {
            "type": "Feature",
            "geometry": {
                "type": "Point",
                "coordinates": [
                    5.091388888,
                    51.893888888
                ]
            },
            "properties": {
                "name": "Leerdam",
                "article": "https://en.wikipedia.org/wiki/Leerdam"
            }
        },
        {
            "type": "Feature",
            "geometry": {
                "type": "Point",
                "coordinates": [
                    4.898056,
                    52.375278
                ]
            },
            "properties": {
                "name": "Warmoesstraat",
                "article": "https://en.wikipedia.org/wiki/Warmoesstraat"
            }
        },
        {
            "type": "Feature",
            "geometry": {
                "type": "Point",
                "coordinates": [
                    5.987778,
                    53.234722
                ]
            },
            "properties": {
                "name": "Feanwâlden railway station",
                "article": "https://en.wikipedia.org/wiki/Feanw%C3%A2lden_railway_station"
            }
        },
        {
            "type": "Feature",
            "geometry": {
                "type": "Point",
                "coordinates": [
                    5.921111,
                    52.559722
                ]
            },
            "properties": {
                "name": "Kampen railway station",
                "article": "https://en.wikipedia.org/wiki/Kampen_railway_station"
            }
        },
        {
            "type": "Feature",
            "geometry": {
                "type": "Point",
                "coordinates": [
                    4.4775,
                    52.0475
                ]
            },
            "properties": {
                "name": "Zoetermeer railway station",
                "article": "https://en.wikipedia.org/wiki/Zoetermeer_railway_station"
            }
        },
        {
            "type": "Feature",
            "geometry": {
                "type": "Point",
                "coordinates": [
                    4.189722222,
                    51.905555555
                ]
            },
            "properties": {
                "name": "Brielse meer",
                "article": "https://en.wikipedia.org/wiki/Brielse_Meer"
            }
        },
        {
            "type": "Feature",
            "geometry": {
                "type": "Point",
                "coordinates": [
                    4.658611,
                    52.125
                ]
            },
            "properties": {
                "name": "Alphen aan den Rijn railway station",
                "article": "https://en.wikipedia.org/wiki/Alphen_aan_den_Rijn_railway_station"
            }
        },
        {
            "type": "Feature",
            "geometry": {
                "type": "Point",
                "coordinates": [
                    -63.249166666,
                    17.626111111
                ]
            },
            "properties": {
                "name": "The Bottom",
                "article": "https://en.wikipedia.org/wiki/The_Bottom"
            }
        },
        {
            "type": "Feature",
            "geometry": {
                "type": "Point",
                "coordinates": [
                    4.84861,
                    51.9475
                ]
            },
            "properties": {
                "name": "Schoonhoven",
                "article": "https://en.wikipedia.org/wiki/Schoonhoven"
            }
        },
        {
            "type": "Feature",
            "geometry": {
                "type": "Point",
                "coordinates": [
                    6.516666666,
                    52.3
                ]
            },
            "properties": {
                "name": "Rijssen",
                "article": "https://en.wikipedia.org/wiki/Rijssen"
            }
        },
        {
            "type": "Feature",
            "geometry": {
                "type": "Point",
                "coordinates": [
                    4.256666666,
                    51.918888888
                ]
            },
            "properties": {
                "name": "Maassluis",
                "article": "https://en.wikipedia.org/wiki/Maassluis"
            }
        },
        {
            "type": "Feature",
            "geometry": {
                "type": "Point",
                "coordinates": [
                    4.400555555,
                    52.145277777
                ]
            },
            "properties": {
                "name": "Wassenaar",
                "article": "https://en.wikipedia.org/wiki/Wassenaar"
            }
        },
        {
            "type": "Feature",
            "geometry": {
                "type": "Point",
                "coordinates": [
                    4.33,
                    52.045555555
                ]
            },
            "properties": {
                "name": "Rijswijk",
                "article": "https://en.wikipedia.org/wiki/Rijswijk"
            }
        },
        {
            "type": "Feature",
            "geometry": {
                "type": "Point",
                "coordinates": [
                    3.595556,
                    51.444167
                ]
            },
            "properties": {
                "name": "Vlissingen railway station",
                "article": "https://en.wikipedia.org/wiki/Vlissingen_railway_station"
            }
        },
        {
            "type": "Feature",
            "geometry": {
                "type": "Point",
                "coordinates": [
                    5.299997,
                    52.403106
                ]
            },
            "properties": {
                "name": "Almere Oostvaarders railway station",
                "article": "https://en.wikipedia.org/wiki/Almere_Oostvaarders_railway_station"
            }
        },
        {
            "type": "Feature",
            "geometry": {
                "type": "Point",
                "coordinates": [
                    5.796111111,
                    50.873333333
                ]
            },
            "properties": {
                "name": "Houthem-Sint Gerlach railway station",
                "article": "https://en.wikipedia.org/wiki/Houthem-Sint_Gerlach_railway_station"
            }
        },
        {
            "type": "Feature",
            "geometry": {
                "type": "Point",
                "coordinates": [
                    4.890556,
                    52.336667
                ]
            },
            "properties": {
                "name": "Amsterdam RAI",
                "article": "https://en.wikipedia.org/wiki/Amsterdam_RAI_station"
            }
        },
        {
            "type": "Feature",
            "geometry": {
                "type": "Point",
                "coordinates": [
                    4.63,
                    51.85
                ]
            },
            "properties": {
                "name": "Hendrik-Ido-Ambacht",
                "article": "https://en.wikipedia.org/wiki/Hendrik-Ido-Ambacht"
            }
        },
        {
            "type": "Feature",
            "geometry": {
                "type": "Point",
                "coordinates": [
                    5.7,
                    52.4
                ]
            },
            "properties": {
                "name": "Veluwemeer",
                "article": "https://en.wikipedia.org/wiki/Veluwemeer"
            }
        },
        {
            "type": "Feature",
            "geometry": {
                "type": "Point",
                "coordinates": [
                    4.88528,
                    52.37861
                ]
            },
            "properties": {
                "name": "Westerstraat",
                "article": "https://en.wikipedia.org/wiki/Westerstraat"
            }
        },
        {
            "type": "Feature",
            "geometry": {
                "type": "Point",
                "coordinates": [
                    5.190278,
                    52.3675
                ]
            },
            "properties": {
                "name": "Almere Muziekwijk railway station",
                "article": "https://en.wikipedia.org/wiki/Almere_Muziekwijk_railway_station"
            }
        },
        {
            "type": "Feature",
            "geometry": {
                "type": "Point",
                "coordinates": [
                    4.466666666,
                    51.766666666
                ]
            },
            "properties": {
                "name": "Hoeksche Waard",
                "article": "https://en.wikipedia.org/wiki/Hoeksche_Waard"
            }
        },
        {
            "type": "Feature",
            "geometry": {
                "type": "Point",
                "coordinates": [
                    5.157222,
                    52.280556
                ]
            },
            "properties": {
                "name": "Naarden-Bussum railway station",
                "article": "https://en.wikipedia.org/wiki/Naarden-Bussum_railway_station"
            }
        },
        {
            "type": "Feature",
            "geometry": {
                "type": "Point",
                "coordinates": [
                    5.109972,
                    52.089316
                ]
            },
            "properties": {
                "name": "Utrecht Centraal railway station",
                "article": "https://en.wikipedia.org/wiki/Utrecht_Centraal_station"
            }
        },
        {
            "type": "Feature",
            "geometry": {
                "type": "Point",
                "coordinates": [
                    5.373303,
                    52.08085
                ]
            },
            "properties": {
                "name": "Henschotermeer",
                "article": null
            }
        },
        {
            "type": "Feature",
            "geometry": {
                "type": "Point",
                "coordinates": [
                    6.12806,
                    53.31083
                ]
            },
            "properties": {
                "name": "Mallegraafsgat",
                "article": null
            }
        },
        {
            "type": "Feature",
            "geometry": {
                "type": "Point",
                "coordinates": [
                    5.651577777,
                    51.797022222
                ]
            },
            "properties": {
                "name": "Ravenstein",
                "article": "https://en.wikipedia.org/wiki/Ravenstein,_Netherlands"
            }
        },
        {
            "type": "Feature",
            "geometry": {
                "type": "Point",
                "coordinates": [
                    5.217778,
                    52.375
                ]
            },
            "properties": {
                "name": "Almere Centrum railway station",
                "article": "https://en.wikipedia.org/wiki/Almere_Centrum_railway_station"
            }
        },
        {
            "type": "Feature",
            "geometry": {
                "type": "Point",
                "coordinates": [
                    6.933056,
                    52.306111
                ]
            },
            "properties": {
                "name": "Oldenzaal railway station",
                "article": "https://en.wikipedia.org/wiki/Oldenzaal_railway_station"
            }
        },
        {
            "type": "Feature",
            "geometry": {
                "type": "Point",
                "coordinates": [
                    5.843333,
                    53.046944
                ]
            },
            "properties": {
                "name": "Akkrum railway station",
                "article": "https://en.wikipedia.org/wiki/Akkrum_railway_station"
            }
        },
        {
            "type": "Feature",
            "geometry": {
                "type": "Point",
                "coordinates": [
                    5.234444,
                    52.695278
                ]
            },
            "properties": {
                "name": "Bovenkarspel-Grootebroek railway station",
                "article": "https://en.wikipedia.org/wiki/Bovenkarspel-Grootebroek_railway_station"
            }
        },
        {
            "type": "Feature",
            "geometry": {
                "type": "Point",
                "coordinates": [
                    5.368889,
                    51.715
                ]
            },
            "properties": {
                "name": "Rosmalen railway station",
                "article": "https://en.wikipedia.org/wiki/Rosmalen_railway_station"
            }
        },
        {
            "type": "Feature",
            "geometry": {
                "type": "Point",
                "coordinates": [
                    5.6,
                    51.954
                ]
            },
            "properties": {
                "name": "Battle of the Grebbeberg",
                "article": "https://en.wikipedia.org/wiki/Battle_of_the_Grebbeberg"
            }
        },
        {
            "type": "Feature",
            "geometry": {
                "type": "Point",
                "coordinates": [
                    5.71021,
                    52.84387
                ]
            },
            "properties": {
                "name": "Wildeman",
                "article": null
            }
        },
        {
            "type": "Feature",
            "geometry": {
                "type": "Point",
                "coordinates": [
                    5.06944,
                    52.45833
                ]
            },
            "properties": {
                "name": "Gouwzee",
                "article": null
            }
        },
        {
            "type": "Feature",
            "geometry": {
                "type": "Point",
                "coordinates": [
                    3.890278,
                    51.498333
                ]
            },
            "properties": {
                "name": "Goes railway station",
                "article": "https://en.wikipedia.org/wiki/Goes_railway_station"
            }
        },
        {
            "type": "Feature",
            "geometry": {
                "type": "Point",
                "coordinates": [
                    4.669444444,
                    52.451944444
                ]
            },
            "properties": {
                "name": "Flevum",
                "article": "https://en.wikipedia.org/wiki/Flevum"
            }
        },
        {
            "type": "Feature",
            "geometry": {
                "type": "Point",
                "coordinates": [
                    5.206389,
                    52.321389
                ]
            },
            "properties": {
                "name": "Gooimeer",
                "article": "https://en.wikipedia.org/wiki/Gooimeer"
            }
        },
        {
            "type": "Feature",
            "geometry": {
                "type": "Point",
                "coordinates": [
                    6.171389,
                    51.364722
                ]
            },
            "properties": {
                "name": "Venlo railway station",
                "article": "https://en.wikipedia.org/wiki/Venlo_railway_station"
            }
        },
        {
            "type": "Feature",
            "geometry": {
                "type": "Point",
                "coordinates": [
                    5.993889,
                    51.192222
                ]
            },
            "properties": {
                "name": "Roermond railway station",
                "article": "https://en.wikipedia.org/wiki/Roermond_railway_station"
            }
        },
        {
            "type": "Feature",
            "geometry": {
                "type": "Point",
                "coordinates": [
                    4.878056,
                    51.832222
                ]
            },
            "properties": {
                "name": "Boven Hardinxveld railway station",
                "article": "https://en.wikipedia.org/wiki/Boven_Hardinxveld_railway_station"
            }
        },
        {
            "type": "Feature",
            "geometry": {
                "type": "Point",
                "coordinates": [
                    4.62417,
                    52.17861
                ]
            },
            "properties": {
                "name": "Q648018",
                "article": null
            }
        },
        {
            "type": "Feature",
            "geometry": {
                "type": "Point",
                "coordinates": [
                    5.088889,
                    52.103333
                ]
            },
            "properties": {
                "name": "Utrecht Zuilen railway station",
                "article": "https://en.wikipedia.org/wiki/Utrecht_Zuilen_railway_station"
            }
        },
        {
            "type": "Feature",
            "geometry": {
                "type": "Point",
                "coordinates": [
                    4.88361,
                    52.36639
                ]
            },
            "properties": {
                "name": "Leidsegracht",
                "article": "https://en.wikipedia.org/wiki/Leidsegracht"
            }
        },
        {
            "type": "Feature",
            "geometry": {
                "type": "Point",
                "coordinates": [
                    4.97,
                    52.9
                ]
            },
            "properties": {
                "name": "Wieringen",
                "article": "https://en.wikipedia.org/wiki/Wieringen"
            }
        },
        {
            "type": "Feature",
            "geometry": {
                "type": "Point",
                "coordinates": [
                    4.892222,
                    52.368889
                ]
            },
            "properties": {
                "name": "Rokin",
                "article": "https://en.wikipedia.org/wiki/Rokin"
            }
        },
        {
            "type": "Feature",
            "geometry": {
                "type": "Point",
                "coordinates": [
                    6.566666666,
                    51.983333333
                ]
            },
            "properties": {
                "name": "Lichtenvoorde",
                "article": "https://en.wikipedia.org/wiki/Lichtenvoorde"
            }
        },
        {
            "type": "Feature",
            "geometry": {
                "type": "Point",
                "coordinates": [
                    6.608056,
                    53.400833
                ]
            },
            "properties": {
                "name": "Usquert railway station",
                "article": "https://en.wikipedia.org/wiki/Usquert_railway_station"
            }
        },
        {
            "type": "Feature",
            "geometry": {
                "type": "Point",
                "coordinates": [
                    5.705555555,
                    50.849722222
                ]
            },
            "properties": {
                "name": "Maastricht railway station",
                "article": "https://en.wikipedia.org/wiki/Maastricht_railway_station"
            }
        },
        {
            "type": "Feature",
            "geometry": {
                "type": "Point",
                "coordinates": [
                    5.479722,
                    51.442778
                ]
            },
            "properties": {
                "name": "Eindhoven Central railway station",
                "article": "https://en.wikipedia.org/wiki/Eindhoven_Centraal_railway_station"
            }
        },
        {
            "type": "Feature",
            "geometry": {
                "type": "Point",
                "coordinates": [
                    4.764722222,
                    52.643888888
                ]
            },
            "properties": {
                "name": "Alkmaar Noord railway station",
                "article": "https://en.wikipedia.org/wiki/Alkmaar_Noord_railway_station"
            }
        },
        {
            "type": "Feature",
            "geometry": {
                "type": "Point",
                "coordinates": [
                    5.0686,
                    52.1975
                ]
            },
            "properties": {
                "name": "Loosdrechtse plassen",
                "article": null
            }
        },
        {
            "type": "Feature",
            "geometry": {
                "type": "Point",
                "coordinates": [
                    9.5,
                    49.5
                ]
            },
            "properties": {
                "name": "Limes Germanicus",
                "article": "https://en.wikipedia.org/wiki/Limes_Germanicus"
            }
        },
        {
            "type": "Feature",
            "geometry": {
                "type": "Point",
                "coordinates": [
                    5.336944,
                    53.074167
                ]
            },
            "properties": {
                "name": "Battle of the Afsluitdijk",
                "article": "https://en.wikipedia.org/wiki/Battle_of_the_Afsluitdijk"
            }
        },
        {
            "type": "Feature",
            "geometry": {
                "type": "Point",
                "coordinates": [
                    5.683333333,
                    50.85
                ]
            },
            "properties": {
                "name": "Battle of Maastricht",
                "article": "https://en.wikipedia.org/wiki/Battle_of_Maastricht"
            }
        },
        {
            "type": "Feature",
            "geometry": {
                "type": "Point",
                "coordinates": [
                    5.08694,
                    52.14111
                ]
            },
            "properties": {
                "name": "Maarsseveense Plassen",
                "article": null
            }
        },
        {
            "type": "Feature",
            "geometry": {
                "type": "Point",
                "coordinates": [
                    4.676666666,
                    52.386666666
                ]
            },
            "properties": {
                "name": "Veerplas",
                "article": "https://en.wikipedia.org/wiki/Veerplas"
            }
        },
        {
            "type": "Feature",
            "geometry": {
                "type": "Point",
                "coordinates": [
                    4.57819,
                    51.93567
                ]
            },
            "properties": {
                "name": "Capelle aan den IJssel",
                "article": "https://en.wikipedia.org/wiki/Capelle_aan_den_IJssel"
            }
        },
        {
            "type": "Feature",
            "geometry": {
                "type": "Point",
                "coordinates": [
                    4.666666666,
                    51.866666666
                ]
            },
            "properties": {
                "name": "Alblasserdam",
                "article": "https://en.wikipedia.org/wiki/Alblasserdam"
            }
        },
        {
            "type": "Feature",
            "geometry": {
                "type": "Point",
                "coordinates": [
                    5.34,
                    51.975
                ]
            },
            "properties": {
                "name": "Dorestad",
                "article": "https://en.wikipedia.org/wiki/Dorestad"
            }
        },
        {
            "type": "Feature",
            "geometry": {
                "type": "Point",
                "coordinates": [
                    5.34,
                    51.975
                ]
            },
            "properties": {
                "name": "Dorestad",
                "article": "https://en.wikipedia.org/wiki/Dorestad"
            }
        },
        {
            "type": "Feature",
            "geometry": {
                "type": "Point",
                "coordinates": [
                    4.6,
                    51.92
                ]
            },
            "properties": {
                "name": "Krimpen aan den IJssel",
                "article": "https://en.wikipedia.org/wiki/Krimpen_aan_den_IJssel"
            }
        },
        {
            "type": "Feature",
            "geometry": {
                "type": "Point",
                "coordinates": [
                    6.89,
                    52.222222
                ]
            },
            "properties": {
                "name": "Enschede railway station",
                "article": "https://en.wikipedia.org/wiki/Enschede_railway_station"
            }
        },
        {
            "type": "Feature",
            "geometry": {
                "type": "Point",
                "coordinates": [
                    4.13333333,
                    51.46666667
                ]
            },
            "properties": {
                "name": "Battle of Reimerswaal",
                "article": "https://en.wikipedia.org/wiki/Battle_of_the_Scheldt_(1574)"
            }
        },
        {
            "type": "Feature",
            "geometry": {
                "type": "Point",
                "coordinates": [
                    5.878056,
                    51.1
                ]
            },
            "properties": {
                "name": "Echt railway station",
                "article": "https://en.wikipedia.org/wiki/Echt_railway_station"
            }
        },
        {
            "type": "Feature",
            "geometry": {
                "type": "Point",
                "coordinates": [
                    4.891111,
                    52.369722
                ]
            },
            "properties": {
                "name": "Kalverstraat",
                "article": "https://en.wikipedia.org/wiki/Kalverstraat"
            }
        },
        {
            "type": "Feature",
            "geometry": {
                "type": "Point",
                "coordinates": [
                    4.805556,
                    52.457778
                ]
            },
            "properties": {
                "name": "Koog aan de Zaan railway station",
                "article": "https://en.wikipedia.org/wiki/Koog_aan_de_Zaan_railway_station"
            }
        },
        {
            "type": "Feature",
            "geometry": {
                "type": "Point",
                "coordinates": [
                    4.7,
                    52.67
                ]
            },
            "properties": {
                "name": "Battle of Bergen",
                "article": "https://en.wikipedia.org/wiki/Battle_of_Bergen_(1799)"
            }
        },
        {
            "type": "Feature",
            "geometry": {
                "type": "Point",
                "coordinates": [
                    4.42,
                    51.82
                ]
            },
            "properties": {
                "name": "Oud-Beijerland",
                "article": "https://en.wikipedia.org/wiki/Oud-Beijerland"
            }
        },
        {
            "type": "Feature",
            "geometry": {
                "type": "Point",
                "coordinates": [
                    4.774444444,
                    51.822222222
                ]
            },
            "properties": {
                "name": "Sliedrecht",
                "article": "https://en.wikipedia.org/wiki/Sliedrecht"
            }
        },
        {
            "type": "Feature",
            "geometry": {
                "type": "Point",
                "coordinates": [
                    4.835278,
                    51.830278
                ]
            },
            "properties": {
                "name": "Hardinxveld-Giessendam railway station",
                "article": "https://en.wikipedia.org/wiki/Hardinxveld-Giessendam_railway_station"
            }
        },
        {
            "type": "Feature",
            "geometry": {
                "type": "Point",
                "coordinates": [
                    4.740556,
                    52.637778
                ]
            },
            "properties": {
                "name": "Alkmaar railway station",
                "article": "https://en.wikipedia.org/wiki/Alkmaar_railway_station"
            }
        },
        {
            "type": "Feature",
            "geometry": {
                "type": "Point",
                "coordinates": [
                    6.654722222,
                    52.3575
                ]
            },
            "properties": {
                "name": "Almelo railway station",
                "article": "https://en.wikipedia.org/wiki/Almelo_railway_station"
            }
        },
        {
            "type": "Feature",
            "geometry": {
                "type": "Point",
                "coordinates": [
                    5.277778,
                    52.394167
                ]
            },
            "properties": {
                "name": "Almere Buiten railway station",
                "article": "https://en.wikipedia.org/wiki/Almere_Buiten_railway_station"
            }
        },
        {
            "type": "Feature",
            "geometry": {
                "type": "Point",
                "coordinates": [
                    5.244166666,
                    52.376388888
                ]
            },
            "properties": {
                "name": "Almere Parkwijk railway station",
                "article": "https://en.wikipedia.org/wiki/Almere_Parkwijk_railway_station"
            }
        },
        {
            "type": "Feature",
            "geometry": {
                "type": "Point",
                "coordinates": [
                    4.96,
                    52.298333
                ]
            },
            "properties": {
                "name": "Amsterdam Holendrecht",
                "article": "https://en.wikipedia.org/wiki/Amsterdam_Holendrecht_station"
            }
        },
        {
            "type": "Feature",
            "geometry": {
                "type": "Point",
                "coordinates": [
                    5.9675,
                    52.209167
                ]
            },
            "properties": {
                "name": "Apeldoorn railway station",
                "article": "https://en.wikipedia.org/wiki/Apeldoorn_railway_station"
            }
        },
        {
            "type": "Feature",
            "geometry": {
                "type": "Point",
                "coordinates": [
                    5.900833,
                    51.984722
                ]
            },
            "properties": {
                "name": "Arnhem Centraal railway station",
                "article": "https://en.wikipedia.org/wiki/Arnhem_Centraal_railway_station"
            }
        },
        {
            "type": "Feature",
            "geometry": {
                "type": "Point",
                "coordinates": [
                    3.669167,
                    51.501667
                ]
            },
            "properties": {
                "name": "Arnemuiden railway station",
                "article": "https://en.wikipedia.org/wiki/Arnemuiden_railway_station"
            }
        },
        {
            "type": "Feature",
            "geometry": {
                "type": "Point",
                "coordinates": [
                    3.66976,
                    51.50145
                ]
            },
            "properties": {
                "name": "Arnemuiden railway station",
                "article": "https://en.wikipedia.org/wiki/Arnemuiden_railway_station"
            }
        },
        {
            "type": "Feature",
            "geometry": {
                "type": "Point",
                "coordinates": [
                    4.296111,
                    51.494444
                ]
            },
            "properties": {
                "name": "Bergen op Zoom railway station",
                "article": "https://en.wikipedia.org/wiki/Bergen_op_Zoom_railway_station"
            }
        },
        {
            "type": "Feature",
            "geometry": {
                "type": "Point",
                "coordinates": [
                    4.78,
                    51.595
                ]
            },
            "properties": {
                "name": "Breda railway station",
                "article": "https://en.wikipedia.org/wiki/Breda_railway_station"
            }
        },
        {
            "type": "Feature",
            "geometry": {
                "type": "Point",
                "coordinates": [
                    4.760833,
                    52.956389
                ]
            },
            "properties": {
                "name": "Den Helder railway station",
                "article": "https://en.wikipedia.org/wiki/Den_Helder_railway_station"
            }
        },
        {
            "type": "Feature",
            "geometry": {
                "type": "Point",
                "coordinates": [
                    4.356667,
                    52.006667
                ]
            },
            "properties": {
                "name": "Delft railway station",
                "article": "https://en.wikipedia.org/wiki/Delft_railway_station"
            }
        },
        {
            "type": "Feature",
            "geometry": {
                "type": "Point",
                "coordinates": [
                    4.343056,
                    52.078889
                ]
            },
            "properties": {
                "name": "Den Haag Laan van NOI railway station",
                "article": "https://en.wikipedia.org/wiki/Den_Haag_Laan_van_NOI_railway_station"
            }
        },
        {
            "type": "Feature",
            "geometry": {
                "type": "Point",
                "coordinates": [
                    4.321667,
                    52.069722
                ]
            },
            "properties": {
                "name": "Den Haag HS railway station",
                "article": "https://en.wikipedia.org/wiki/Den_Haag_HS_railway_station"
            }
        },
        {
            "type": "Feature",
            "geometry": {
                "type": "Point",
                "coordinates": [
                    4.956389,
                    52.330278
                ]
            },
            "properties": {
                "name": "Diemen Zuid railway station",
                "article": "https://en.wikipedia.org/wiki/Diemen_Zuid_station"
            }
        },
        {
            "type": "Feature",
            "geometry": {
                "type": "Point",
                "coordinates": [
                    4.66774,
                    51.8075
                ]
            },
            "properties": {
                "name": "Dordrecht railway station",
                "article": "https://en.wikipedia.org/wiki/Dordrecht_railway_station"
            }
        },
        {
            "type": "Feature",
            "geometry": {
                "type": "Point",
                "coordinates": [
                    4.667778,
                    51.8075
                ]
            },
            "properties": {
                "name": "Dordrecht railway station",
                "article": "https://en.wikipedia.org/wiki/Dordrecht_railway_station"
            }
        },
        {
            "type": "Feature",
            "geometry": {
                "type": "Point",
                "coordinates": [
                    5.259444,
                    52.065
                ]
            },
            "properties": {
                "name": "Driebergen-Zeist railway station",
                "article": "https://en.wikipedia.org/wiki/Driebergen-Zeist_railway_station"
            }
        },
        {
            "type": "Feature",
            "geometry": {
                "type": "Point",
                "coordinates": [
                    3.8241,
                    51.406414
                ]
            },
            "properties": {
                "name": "Q800723",
                "article": null
            }
        },
        {
            "type": "Feature",
            "geometry": {
                "type": "Point",
                "coordinates": [
                    6.899444,
                    52.790278
                ]
            },
            "properties": {
                "name": "Emmen railway station",
                "article": "https://en.wikipedia.org/wiki/Emmen_railway_station"
            }
        },
        {
            "type": "Feature",
            "geometry": {
                "type": "Point",
                "coordinates": [
                    5.287778,
                    52.699444
                ]
            },
            "properties": {
                "name": "Enkhuizen railway station",
                "article": "https://en.wikipedia.org/wiki/Enkhuizen_railway_station"
            }
        },
        {
            "type": "Feature",
            "geometry": {
                "type": "Point",
                "coordinates": [
                    4.6375,
                    51.575278
                ]
            },
            "properties": {
                "name": "Etten-Leur railway station",
                "article": "https://en.wikipedia.org/wiki/Etten-Leur_railway_station"
            }
        },
        {
            "type": "Feature",
            "geometry": {
                "type": "Point",
                "coordinates": [
                    4.705556,
                    52.0175
                ]
            },
            "properties": {
                "name": "Gouda railway station",
                "article": "https://en.wikipedia.org/wiki/Gouda_railway_station"
            }
        },
        {
            "type": "Feature",
            "geometry": {
                "type": "Point",
                "coordinates": [
                    4.638889,
                    52.387778
                ]
            },
            "properties": {
                "name": "Haarlem railway station",
                "article": "https://en.wikipedia.org/wiki/Haarlem_railway_station"
            }
        },
        {
            "type": "Feature",
            "geometry": {
                "type": "Point",
                "coordinates": [
                    5.425,
                    53.17
                ]
            },
            "properties": {
                "name": "Harlingen railway station",
                "article": "https://en.wikipedia.org/wiki/Harlingen_railway_station"
            }
        },
        {
            "type": "Feature",
            "geometry": {
                "type": "Point",
                "coordinates": [
                    5.915556,
                    52.960278
                ]
            },
            "properties": {
                "name": "Heerenveen railway station",
                "article": "https://en.wikipedia.org/wiki/Heerenveen_railway_station"
            }
        },
        {
            "type": "Feature",
            "geometry": {
                "type": "Point",
                "coordinates": [
                    4.607222,
                    52.359722
                ]
            },
            "properties": {
                "name": "Heemstede-Aerdenhout railway station",
                "article": "https://en.wikipedia.org/wiki/Heemstede-Aerdenhout_railway_station"
            }
        },
        {
            "type": "Feature",
            "geometry": {
                "type": "Point",
                "coordinates": [
                    4.823611,
                    52.67
                ]
            },
            "properties": {
                "name": "Heerhugowaard railway station",
                "article": "https://en.wikipedia.org/wiki/Heerhugowaard_railway_station"
            }
        },
        {
            "type": "Feature",
            "geometry": {
                "type": "Point",
                "coordinates": [
                    5.974722,
                    50.890833
                ]
            },
            "properties": {
                "name": "Heerlen railway station",
                "article": "https://en.wikipedia.org/wiki/Heerlen_railway_station"
            }
        },
        {
            "type": "Feature",
            "geometry": {
                "type": "Point",
                "coordinates": [
                    6.794167,
                    52.261944
                ]
            },
            "properties": {
                "name": "Hengelo railway station",
                "article": "https://en.wikipedia.org/wiki/Hengelo_railway_station"
            }
        },
        {
            "type": "Feature",
            "geometry": {
                "type": "Point",
                "coordinates": [
                    4.7,
                    52.293333
                ]
            },
            "properties": {
                "name": "Hoofddorp railway station",
                "article": "https://en.wikipedia.org/wiki/Hoofddorp_railway_station"
            }
        },
        {
            "type": "Feature",
            "geometry": {
                "type": "Point",
                "coordinates": [
                    5.054722,
                    52.645
                ]
            },
            "properties": {
                "name": "Hoorn railway station",
                "article": "https://en.wikipedia.org/wiki/Hoorn_railway_station"
            }
        },
        {
            "type": "Feature",
            "geometry": {
                "type": "Point",
                "coordinates": [
                    5.167778,
                    52.034167
                ]
            },
            "properties": {
                "name": "Houten railway station",
                "article": "https://en.wikipedia.org/wiki/Houten_railway_station"
            }
        },
        {
            "type": "Feature",
            "geometry": {
                "type": "Point",
                "coordinates": [
                    4.047261,
                    51.2764
                ]
            },
            "properties": {
                "name": "Q800936",
                "article": null
            }
        },
        {
            "type": "Feature",
            "geometry": {
                "type": "Point",
                "coordinates": [
                    3.956944,
                    51.480556
                ]
            },
            "properties": {
                "name": "Kapelle-Biezelinge railway station",
                "article": "https://en.wikipedia.org/wiki/Kapelle-Biezelinge_railway_station"
            }
        },
        {
            "type": "Feature",
            "geometry": {
                "type": "Point",
                "coordinates": [
                    4.037222,
                    51.465278
                ]
            },
            "properties": {
                "name": "Kruiningen-Yerseke railway station",
                "article": "https://en.wikipedia.org/wiki/Kruiningen-Yerseke_railway_station"
            }
        },
        {
            "type": "Feature",
            "geometry": {
                "type": "Point",
                "coordinates": [
                    4.116944,
                    51.433611
                ]
            },
            "properties": {
                "name": "Krabbendijke railway station",
                "article": "https://en.wikipedia.org/wiki/Krabbendijke_railway_station"
            }
        },
        {
            "type": "Feature",
            "geometry": {
                "type": "Point",
                "coordinates": [
                    4.482222,
                    52.166389
                ]
            },
            "properties": {
                "name": "Leiden Centraal railway station",
                "article": "https://en.wikipedia.org/wiki/Leiden_Centraal_railway_station"
            }
        },
        {
            "type": "Feature",
            "geometry": {
                "type": "Point",
                "coordinates": [
                    4.482222,
                    52.166389
                ]
            },