{
    "type": "FeatureCollection",
    "features": [
        {
            "type": "Feature",
            "geometry": {
                "type": "Point",
                "coordinates": [
                    7.7,
                    11.066666666
                ]
            },
            "properties": {
                "name": "Zaria",
                "article": "https://en.wikipedia.org/wiki/Zaria"
            }
        },
        {
            "type": "Feature",
            "geometry": {
                "type": "Point",
                "coordinates": [
                    4.566666666,
                    7.466666666
                ]
            },
            "properties": {
                "name": "Ile Ife",
                "article": "https://en.wikipedia.org/wiki/If%E1%BA%B9"
            }
        },
        {
            "type": "Feature",
            "geometry": {
                "type": "Point",
                "coordinates": [
                    8.516666666,
                    12.0
                ]
            },
            "properties": {
                "name": "Kano",
                "article": "https://en.wikipedia.org/wiki/Kano_(city)"
            }
        },
        {
            "type": "Feature",
            "geometry": {
                "type": "Point",
                "coordinates": [
                    3.905833333,
                    7.3775
                ]
            },
            "properties": {
                "name": "Ibadan",
                "article": "https://en.wikipedia.org/wiki/Ibadan"
            }
        },
        {
            "type": "Feature",
            "geometry": {
                "type": "Point",
                "coordinates": [
                    3.916666666,
                    7.396388888
                ]
            },
            "properties": {
                "name": "Ibadan",
                "article": "https://en.wikipedia.org/wiki/Ibadan"
            }
        },
        {
            "type": "Feature",
            "geometry": {
                "type": "Point",
                "coordinates": [
                    4.89861111,
                    13.0875
                ]
            },
            "properties": {
                "name": "Surame Cultural Landscape",
                "article": "https://en.wikipedia.org/wiki/Surame"
            }
        },
        {
            "type": "Feature",
            "geometry": {
                "type": "Point",
                "coordinates": [
                    7.366666666,
                    5.116666666
                ]
            },
            "properties": {
                "name": "Aba",
                "article": "https://en.wikipedia.org/wiki/Aba,_Nigeria"
            }
        },
        {
            "type": "Feature",
            "geometry": {
                "type": "Point",
                "coordinates": [
                    7.483333333,
                    5.533333333
                ]
            },
            "properties": {
                "name": "Umuahia",
                "article": "https://en.wikipedia.org/wiki/Umuahia"
            }
        },
        {
            "type": "Feature",
            "geometry": {
                "type": "Point",
                "coordinates": [
                    3.35,
                    7.15
                ]
            },
            "properties": {
                "name": "Abeokuta",
                "article": "https://en.wikipedia.org/wiki/Abeokuta"
            }
        },
        {
            "type": "Feature",
            "geometry": {
                "type": "Point",
                "coordinates": [
                    7.4165,
                    10.5105
                ]
            },
            "properties": {
                "name": "Kaduna",
                "article": "https://en.wikipedia.org/wiki/Kaduna"
            }
        },
        {
            "type": "Feature",
            "geometry": {
                "type": "Point",
                "coordinates": [
                    7.440277777,
                    10.523055555
                ]
            },
            "properties": {
                "name": "Kaduna",
                "article": "https://en.wikipedia.org/wiki/Kaduna"
            }
        },
        {
            "type": "Feature",
            "geometry": {
                "type": "Point",
                "coordinates": [
                    5.6145,
                    6.3176
                ]
            },
            "properties": {
                "name": "Benin City",
                "article": "https://en.wikipedia.org/wiki/Benin_City"
            }
        },
        {
            "type": "Feature",
            "geometry": {
                "type": "Point",
                "coordinates": [
                    5.216666666,
                    7.616666666
                ]
            },
            "properties": {
                "name": "Ado Ekiti",
                "article": "https://en.wikipedia.org/wiki/Ado_Ekiti"
            }
        },
        {
            "type": "Feature",
            "geometry": {
                "type": "Point",
                "coordinates": [
                    5.195,
                    7.25
                ]
            },
            "properties": {
                "name": "Akure",
                "article": "https://en.wikipedia.org/wiki/Akure"
            }
        },
        {
            "type": "Feature",
            "geometry": {
                "type": "Point",
                "coordinates": [
                    3.5224915,
                    6.5015814
                ]
            },
            "properties": {
                "name": "Lagos Lagoon",
                "article": "https://en.wikipedia.org/wiki/Lagos_Lagoon"
            }
        },
        {
            "type": "Feature",
            "geometry": {
                "type": "Point",
                "coordinates": [
                    7.25,
                    8.41666667
                ]
            },
            "properties": {
                "name": "Taruga",
                "article": "https://en.wikipedia.org/wiki/Taruga"
            }
        },
        {
            "type": "Feature",
            "geometry": {
                "type": "Point",
                "coordinates": [
                    5.75,
                    5.516666666
                ]
            },
            "properties": {
                "name": "Warri",
                "article": "https://en.wikipedia.org/wiki/Warri"
            }
        },
        {
            "type": "Feature",
            "geometry": {
                "type": "Point",
                "coordinates": [
                    7.033333333,
                    5.483333333
                ]
            },
            "properties": {
                "name": "Owerri",
                "article": "https://en.wikipedia.org/wiki/Owerri"
            }
        },
        {
            "type": "Feature",
            "geometry": {
                "type": "Point",
                "coordinates": [
                    4.55,
                    8.5
                ]
            },
            "properties": {
                "name": "Ilorin",
                "article": "https://en.wikipedia.org/wiki/Ilorin"
            }
        },
        {
            "type": "Feature",
            "geometry": {
                "type": "Point",
                "coordinates": [
                    6.6745,
                    12.1628
                ]
            },
            "properties": {
                "name": "Gusau",
                "article": "https://en.wikipedia.org/wiki/Gusau"
            }
        },
        {
            "type": "Feature",
            "geometry": {
                "type": "Point",
                "coordinates": [
                    6.666666666,
                    12.166666666
                ]
            },
            "properties": {
                "name": "Gusau",
                "article": "https://en.wikipedia.org/wiki/Gusau"
            }
        },
        {
            "type": "Feature",
            "geometry": {
                "type": "Point",
                "coordinates": [
                    7.24,
                    4.449166666
                ]
            },
            "properties": {
                "name": "Bonny Island",
                "article": "https://en.wikipedia.org/wiki/Bonny_Island"
            }
        },
        {
            "type": "Feature",
            "geometry": {
                "type": "Point",
                "coordinates": [
                    7.714722222,
                    5.181944444
                ]
            },
            "properties": {
                "name": "Ikot Ekpene",
                "article": "https://en.wikipedia.org/wiki/Ikot_Ekpene"
            }
        },
        {
            "type": "Feature",
            "geometry": {
                "type": "Point",
                "coordinates": [
                    4.13333333,
                    7.36694444
                ]
            },
            "properties": {
                "name": "Asejire Reservoir",
                "article": "https://en.wikipedia.org/wiki/Asejire_Reservoir"
            }
        },
        {
            "type": "Feature",
            "geometry": {
                "type": "Point",
                "coordinates": [
                    4.75,
                    7.633333333
                ]
            },
            "properties": {
                "name": "Ilesa",
                "article": "https://en.wikipedia.org/wiki/Ilesa"
            }
        },
        {
            "type": "Feature",
            "geometry": {
                "type": "Point",
                "coordinates": [
                    4.564444444,
                    10.406111111
                ]
            },
            "properties": {
                "name": "Kainji Lake",
                "article": "https://en.wikipedia.org/wiki/Kainji_Lake"
            }
        },
        {
            "type": "Feature",
            "geometry": {
                "type": "Point",
                "coordinates": [
                    7.066666666,
                    6.2
                ]
            },
            "properties": {
                "name": "Awka",
                "article": "https://en.wikipedia.org/wiki/Awka"
            }
        },
        {
            "type": "Feature",
            "geometry": {
                "type": "Point",
                "coordinates": [
                    8.37944444,
                    11.58333333
                ]
            },
            "properties": {
                "name": "Q799850",
                "article": null
            }
        },
        {
            "type": "Feature",
            "geometry": {
                "type": "Point",
                "coordinates": [
                    9.844166666,
                    10.315833333
                ]
            },
            "properties": {
                "name": "Bauchi",
                "article": "https://en.wikipedia.org/wiki/Bauchi"
            }
        },
        {
            "type": "Feature",
            "geometry": {
                "type": "Point",
                "coordinates": [
                    8.325,
                    4.95
                ]
            },
            "properties": {
                "name": "Calabar",
                "article": "https://en.wikipedia.org/wiki/Calabar"
            }
        },
        {
            "type": "Feature",
            "geometry": {
                "type": "Point",
                "coordinates": [
                    6.783333333,
                    6.166666666
                ]
            },
            "properties": {
                "name": "Onitsha",
                "article": "https://en.wikipedia.org/wiki/Onitsha"
            }
        },
        {
            "type": "Feature",
            "geometry": {
                "type": "Point",
                "coordinates": [
                    4.566666666,
                    7.766666666
                ]
            },
            "properties": {
                "name": "Osogbo",
                "article": "https://en.wikipedia.org/wiki/Osogbo"
            }
        },
        {
            "type": "Feature",
            "geometry": {
                "type": "Point",
                "coordinates": [
                    4.576111111,
                    7.759722222
                ]
            },
            "properties": {
                "name": "Osogbo",
                "article": "https://en.wikipedia.org/wiki/Osogbo"
            }
        },
        {
            "type": "Feature",
            "geometry": {
                "type": "Point",
                "coordinates": [
                    6.242777777,
                    4.316944444
                ]
            },
            "properties": {
                "name": "Brass Island",
                "article": "https://en.wikipedia.org/wiki/Brass_Island"
            }
        },
        {
            "type": "Feature",
            "geometry": {
                "type": "Point",
                "coordinates": [
                    7.600833333,
                    12.988888888
                ]
            },
            "properties": {
                "name": "Katsina",
                "article": "https://en.wikipedia.org/wiki/Katsina"
            }
        },
        {
            "type": "Feature",
            "geometry": {
                "type": "Point",
                "coordinates": [
                    5.23041,
                    7.49748
                ]
            },
            "properties": {
                "name": "Ikere",
                "article": "https://en.wikipedia.org/wiki/Ikere-Ekiti"
            }
        },
        {
            "type": "Feature",
            "geometry": {
                "type": "Point",
                "coordinates": [
                    5.218055555,
                    7.502222222
                ]
            },
            "properties": {
                "name": "Ikere",
                "article": "https://en.wikipedia.org/wiki/Ikere-Ekiti"
            }
        },
        {
            "type": "Feature",
            "geometry": {
                "type": "Point",
                "coordinates": [
                    5.23333,
                    7.5
                ]
            },
            "properties": {
                "name": "Ikere",
                "article": "https://en.wikipedia.org/wiki/Ikere-Ekiti"
            }
        },
        {
            "type": "Feature",
            "geometry": {
                "type": "Point",
                "coordinates": [
                    11.715,
                    7.036111111
                ]
            },
            "properties": {
                "name": "Chappal Waddi",
                "article": "https://en.wikipedia.org/wiki/Chappal_Waddi"
            }
        },
        {
            "type": "Feature",
            "geometry": {
                "type": "Point",
                "coordinates": [
                    6.744166666,
                    7.801944444
                ]
            },
            "properties": {
                "name": "Lokoja",
                "article": "https://en.wikipedia.org/wiki/Lokoja"
            }
        },
        {
            "type": "Feature",
            "geometry": {
                "type": "Point",
                "coordinates": [
                    6.563055555,
                    8.205
                ]
            },
            "properties": {
                "name": "Lokoja",
                "article": "https://en.wikipedia.org/wiki/Lokoja"
            }
        },
        {
            "type": "Feature",
            "geometry": {
                "type": "Point",
                "coordinates": [
                    8.536111111,
                    7.730555555
                ]
            },
            "properties": {
                "name": "Makurdi",
                "article": "https://en.wikipedia.org/wiki/Makurdi"
            }
        },
        {
            "type": "Feature",
            "geometry": {
                "type": "Point",
                "coordinates": [
                    6.556944444,
                    9.613888888
                ]
            },
            "properties": {
                "name": "Kontagora",
                "article": "https://en.wikipedia.org/wiki/Minna"
            }
        },
        {
            "type": "Feature",
            "geometry": {
                "type": "Point",
                "coordinates": [
                    12.483333333,
                    9.2
                ]
            },
            "properties": {
                "name": "Yola",
                "article": "https://en.wikipedia.org/wiki/Yola,_Nigeria"
            }
        },
        {
            "type": "Feature",
            "geometry": {
                "type": "Point",
                "coordinates": [
                    5.4708,
                    10.40319
                ]
            },
            "properties": {
                "name": "Kontagora",
                "article": "https://en.wikipedia.org/wiki/Kontagora"
            }
        },
        {
            "type": "Feature",
            "geometry": {
                "type": "Point",
                "coordinates": [
                    5.473,
                    10.403
                ]
            },
            "properties": {
                "name": "Kontagora",
                "article": "https://en.wikipedia.org/wiki/Kontagora"
            }
        },
        {
            "type": "Feature",
            "geometry": {
                "type": "Point",
                "coordinates": [
                    5.479444444,
                    10.452222222
                ]
            },
            "properties": {
                "name": "Kontagora",
                "article": "https://en.wikipedia.org/wiki/Kontagora"
            }
        },
        {
            "type": "Feature",
            "geometry": {
                "type": "Point",
                "coordinates": [
                    3.933333333,
                    7.833333333
                ]
            },
            "properties": {
                "name": "Oyo",
                "article": "https://en.wikipedia.org/wiki/Oyo,_Oyo_State"
            }
        },
        {
            "type": "Feature",
            "geometry": {
                "type": "Point",
                "coordinates": [
                    3.983333333,
                    6.583333333
                ]
            },
            "properties": {
                "name": "Epe",
                "article": "https://en.wikipedia.org/wiki/Epe,_Lagos_State"
            }
        },
        {
            "type": "Feature",
            "geometry": {
                "type": "Point",
                "coordinates": [
                    4.0,
                    6.58333
                ]
            },
            "properties": {
                "name": "Epe",
                "article": "https://en.wikipedia.org/wiki/Epe,_Lagos_State"
            }
        },
        {
            "type": "Feature",
            "geometry": {
                "type": "Point",
                "coordinates": [
                    9.333333333,
                    11.7
                ]
            },
            "properties": {
                "name": "Dutse",
                "article": "https://en.wikipedia.org/wiki/Dutse"
            }
        },
        {
            "type": "Feature",
            "geometry": {
                "type": "Point",
                "coordinates": [
                    9.334,
                    11.7024
                ]
            },
            "properties": {
                "name": "Dutse",
                "article": "https://en.wikipedia.org/wiki/Dutse"
            }
        },
        {
            "type": "Feature",
            "geometry": {
                "type": "Point",
                "coordinates": [
                    11.966666666,
                    11.75
                ]
            },
            "properties": {
                "name": "Damaturu",
                "article": "https://en.wikipedia.org/wiki/Damaturu"
            }
        },
        {
            "type": "Feature",
            "geometry": {
                "type": "Point",
                "coordinates": [
                    11.978611111,
                    11.780277777
                ]
            },
            "properties": {
                "name": "Damaturu",
                "article": "https://en.wikipedia.org/wiki/Damaturu"
            }
        },
        {
            "type": "Feature",
            "geometry": {
                "type": "Point",
                "coordinates": [
                    11.32642,
                    8.9195
                ]
            },
            "properties": {
                "name": "Jalingo",
                "article": "https://en.wikipedia.org/wiki/Jalingo"
            }
        },
        {
            "type": "Feature",
            "geometry": {
                "type": "Point",
                "coordinates": [
                    11.366666666,
                    8.9
                ]
            },
            "properties": {
                "name": "Jalingo",
                "article": "https://en.wikipedia.org/wiki/Jalingo"
            }
        },
        {
            "type": "Feature",
            "geometry": {
                "type": "Point",
                "coordinates": [
                    8.516666666,
                    8.5
                ]
            },
            "properties": {
                "name": "Lafia",
                "article": "https://en.wikipedia.org/wiki/Lafia"
            }
        },
        {
            "type": "Feature",
            "geometry": {
                "type": "Point",
                "coordinates": [
                    8.5227,
                    8.506
                ]
            },
            "properties": {
                "name": "Lafia",
                "article": "https://en.wikipedia.org/wiki/Lafia"
            }
        },
        {
            "type": "Feature",
            "geometry": {
                "type": "Point",
                "coordinates": [
                    8.69959,
                    8.64007
                ]
            },
            "properties": {
                "name": "Lafia",
                "article": "https://en.wikipedia.org/wiki/Lafia"
            }
        },
        {
            "type": "Feature",
            "geometry": {
                "type": "Point",
                "coordinates": [
                    3.333333333,
                    6.583333333
                ]
            },
            "properties": {
                "name": "Ikeja",
                "article": "https://en.wikipedia.org/wiki/Ikeja"
            }
        },
        {
            "type": "Feature",
            "geometry": {
                "type": "Point",
                "coordinates": [
                    3.34259,
                    6.61857
                ]
            },
            "properties": {
                "name": "Ikeja",
                "article": "https://en.wikipedia.org/wiki/Ikeja"
            }
        },
        {
            "type": "Feature",
            "geometry": {
                "type": "Point",
                "coordinates": [
                    6.733333333,
                    6.183333333
                ]
            },
            "properties": {
                "name": "Asaba",
                "article": "https://en.wikipedia.org/wiki/Asaba"
            }
        },
        {
            "type": "Feature",
            "geometry": {
                "type": "Point",
                "coordinates": [
                    6.75,
                    6.183333333
                ]
            },
            "properties": {
                "name": "Asaba",
                "article": "https://en.wikipedia.org/wiki/Asaba"
            }
        },
        {
            "type": "Feature",
            "geometry": {
                "type": "Point",
                "coordinates": [
                    8.31777778,
                    13.03638889
                ]
            },
            "properties": {
                "name": "Daura",
                "article": "https://en.wikipedia.org/wiki/Daura"
            }
        },
        {
            "type": "Feature",
            "geometry": {
                "type": "Point",
                "coordinates": [
                    8.3225,
                    13.0315
                ]
            },
            "properties": {
                "name": "Daura",
                "article": "https://en.wikipedia.org/wiki/Daura"
            }
        },
        {
            "type": "Feature",
            "geometry": {
                "type": "Point",
                "coordinates": [
                    4.43333333,
                    7.73333333
                ]
            },
            "properties": {
                "name": "Ede",
                "article": "https://en.wikipedia.org/wiki/Ede,_Osun"
            }
        },
        {
            "type": "Feature",
            "geometry": {
                "type": "Point",
                "coordinates": [
                    4.916667,
                    7.65
                ]
            },
            "properties": {
                "name": "Effon-Alaiye",
                "article": "https://en.wikipedia.org/wiki/%E1%BA%B8f%E1%BB%8D%CC%80n-Al%C3%A0%C3%A0y%C3%A8"
            }
        },
        {
            "type": "Feature",
            "geometry": {
                "type": "Point",
                "coordinates": [
                    4.922222222,
                    7.656388888
                ]
            },
            "properties": {
                "name": "Effon-Alaiye",
                "article": "https://en.wikipedia.org/wiki/%E1%BA%B8f%E1%BB%8D%CC%80n-Al%C3%A0%C3%A0y%C3%A8"
            }
        },
        {
            "type": "Feature",
            "geometry": {
                "type": "Point",
                "coordinates": [
                    7.491388888,
                    9.055555555
                ]
            },
            "properties": {
                "name": "Abuja",
                "article": "https://en.wikipedia.org/wiki/Abuja"
            }
        },
        {
            "type": "Feature",
            "geometry": {
                "type": "Point",
                "coordinates": [
                    3.4,
                    6.45
                ]
            },
            "properties": {
                "name": "Lagos",
                "article": "https://en.wikipedia.org/wiki/Lagos"
            }
        },
        {
            "type": "Feature",
            "geometry": {
                "type": "Point",
                "coordinates": [
                    11.2206,
                    11.2852
                ]
            },
            "properties": {
                "name": "Gadaka",
                "article": "https://en.wikipedia.org/wiki/Gadaka"
            }
        },
        {
            "type": "Feature",
            "geometry": {
                "type": "Point",
                "coordinates": [
                    3.6,
                    7.966666666
                ]
            },
            "properties": {
                "name": "Iseyin",
                "article": "https://en.wikipedia.org/wiki/Iseyin"
            }
        },
        {
            "type": "Feature",
            "geometry": {
                "type": "Point",
                "coordinates": [
                    12.45,
                    9.266666666
                ]
            },
            "properties": {
                "name": "Jimeta",
                "article": "https://en.wikipedia.org/wiki/Jimeta"
            }
        },
        {
            "type": "Feature",
            "geometry": {
                "type": "Point",
                "coordinates": [
                    12.45819,
                    9.27949
                ]
            },
            "properties": {
                "name": "Jimeta",
                "article": "https://en.wikipedia.org/wiki/Jimeta"
            }
        },
        {
            "type": "Feature",
            "geometry": {
                "type": "Point",
                "coordinates": [
                    5.586388888,
                    7.196111111
                ]
            },
            "properties": {
                "name": "Owo",
                "article": "https://en.wikipedia.org/wiki/Owo"
            }
        },
        {
            "type": "Feature",
            "geometry": {
                "type": "Point",
                "coordinates": [
                    5.58681,
                    7.1962
                ]
            },
            "properties": {
                "name": "Owo",
                "article": "https://en.wikipedia.org/wiki/Owo"
            }
        },
        {
            "type": "Feature",
            "geometry": {
                "type": "Point",
                "coordinates": [
                    4.833333333,
                    7.083333333
                ]
            },
            "properties": {
                "name": "Ondo",
                "article": "https://en.wikipedia.org/wiki/Ondo_Town"
            }
        },
        {
            "type": "Feature",
            "geometry": {
                "type": "Point",
                "coordinates": [
                    7.419541,
                    9.207595
                ]
            },
            "properties": {
                "name": "Lower Usuma Dam",
                "article": null
            }
        },
        {
            "type": "Feature",
            "geometry": {
                "type": "Point",
                "coordinates": [
                    13.2606,
                    10.2604
                ]
            },
            "properties": {
                "name": "Mubi",
                "article": "https://en.wikipedia.org/wiki/Mubi_(town)"
            }
        },
        {
            "type": "Feature",
            "geometry": {
                "type": "Point",
                "coordinates": [
                    7.933333333,
                    5.05
                ]
            },
            "properties": {
                "name": "Uyo",
                "article": "https://en.wikipedia.org/wiki/Uyo"
            }
        },
        {
            "type": "Feature",
            "geometry": {
                "type": "Point",
                "coordinates": [
                    4.72,
                    8.147
                ]
            },
            "properties": {
                "name": "Offa",
                "article": "https://en.wikipedia.org/wiki/Offa,_Nigeria"
            }
        },
        {
            "type": "Feature",
            "geometry": {
                "type": "Point",
                "coordinates": [
                    4.72074,
                    8.14911
                ]
            },
            "properties": {
                "name": "Offa",
                "article": "https://en.wikipedia.org/wiki/Offa,_Nigeria"
            }
        },
        {
            "type": "Feature",
            "geometry": {
                "type": "Point",
                "coordinates": [
                    6.233333333,
                    7.55
                ]
            },
            "properties": {
                "name": "Okene",
                "article": "https://en.wikipedia.org/wiki/Okene"
            }
        },
        {
            "type": "Feature",
            "geometry": {
                "type": "Point",
                "coordinates": [
                    6.235833333,
                    7.551111111
                ]
            },
            "properties": {
                "name": "Okene",
                "article": "https://en.wikipedia.org/wiki/Okene"
            }
        },
        {
            "type": "Feature",
            "geometry": {
                "type": "Point",
                "coordinates": [
                    3.87488,
                    6.787
                ]
            },
            "properties": {
                "name": "Sungbo's Eredo",
                "article": "https://en.wikipedia.org/wiki/Sungbo%27s_Eredo"
            }
        },
        {
            "type": "Feature",
            "geometry": {
                "type": "Point",
                "coordinates": [
                    9.95806,
                    9.07597
                ]
            },
            "properties": {
                "name": "Wase Rock",
                "article": "https://en.wikipedia.org/wiki/Wase_Rock"
            }
        },
        {
            "type": "Feature",
            "geometry": {
                "type": "Point",
                "coordinates": [
                    3.415833333,
                    6.431111111
                ]
            },
            "properties": {
                "name": "Victoria Island",
                "article": "https://en.wikipedia.org/wiki/Victoria_Island,_Lagos"
            }
        },
        {
            "type": "Feature",
            "geometry": {
                "type": "Point",
                "coordinates": [
                    6.98333333,
                    6.18333333
                ]
            },
            "properties": {
                "name": "Abagana Ambush",
                "article": "https://en.wikipedia.org/wiki/Abagana_ambush"
            }
        },
        {
            "type": "Feature",
            "geometry": {
                "type": "Point",
                "coordinates": [
                    6.715277777,
                    7.081388888
                ]
            },
            "properties": {
                "name": "Idah",
                "article": "https://en.wikipedia.org/wiki/Idah"
            }
        },
        {
            "type": "Feature",
            "geometry": {
                "type": "Point",
                "coordinates": [
                    6.73866,
                    7.11345
                ]
            },
            "properties": {
                "name": "Idah",
                "article": "https://en.wikipedia.org/wiki/Idah"
            }
        },
        {
            "type": "Feature",
            "geometry": {
                "type": "Point",
                "coordinates": [
                    6.75,
                    7.08333
                ]
            },
            "properties": {
                "name": "Idah",
                "article": "https://en.wikipedia.org/wiki/Idah"
            }
        },
        {
            "type": "Feature",
            "geometry": {
                "type": "Point",
                "coordinates": [
                    6.744,
                    7.1138
                ]
            },
            "properties": {
                "name": "Idah",
                "article": "https://en.wikipedia.org/wiki/Idah"
            }
        },
        {
            "type": "Feature",
            "geometry": {
                "type": "Point",
                "coordinates": [
                    13.27323,
                    10.6804165
                ]
            },
            "properties": {
                "name": "Lassa",
                "article": null
            }
        },
        {
            "type": "Feature",
            "geometry": {
                "type": "Point",
                "coordinates": [
                    8.516,
                    11.9923
                ]
            },
            "properties": {
                "name": "Gidan Rumfa",
                "article": "https://en.wikipedia.org/wiki/Gidan_Rumfa"
            }
        },
        {
            "type": "Feature",
            "geometry": {
                "type": "Point",
                "coordinates": [
                    5.653611111,
                    5.826111111
                ]
            },
            "properties": {
                "name": "Sapele",
                "article": "https://en.wikipedia.org/wiki/Sapele,_Nigeria"
            }
        },
        {
            "type": "Feature",
            "geometry": {
                "type": "Point",
                "coordinates": [
                    5.6931,
                    5.8751
                ]
            },
            "properties": {
                "name": "Sapele",
                "article": "https://en.wikipedia.org/wiki/Sapele,_Nigeria"
            }
        },
        {
            "type": "Feature",
            "geometry": {
                "type": "Point",
                "coordinates": [
                    5.676666666,
                    5.894166666
                ]
            },
            "properties": {
                "name": "Sapele",
                "article": "https://en.wikipedia.org/wiki/Sapele,_Nigeria"
            }
        },
        {
            "type": "Feature",
            "geometry": {
                "type": "Point",
                "coordinates": [
                    4.9,
                    8.01666667
                ]
            },
            "properties": {
                "name": "Ila Orangun",
                "article": "https://en.wikipedia.org/wiki/Ila_Orangun"
            }
        },
        {
            "type": "Feature",
            "geometry": {
                "type": "Point",
                "coordinates": [
                    7.536111111,
                    9.083333333
                ]
            },
            "properties": {
                "name": "Aso Rock",
                "article": "https://en.wikipedia.org/wiki/Aso_Rock"
            }
        },
        {
            "type": "Feature",
            "geometry": {
                "type": "Point",
                "coordinates": [
                    7.32559,
                    5.81088
                ]
            },
            "properties": {
                "name": "Okigwe",
                "article": "https://en.wikipedia.org/wiki/Okigwe"
            }
        },
        {
            "type": "Feature",
            "geometry": {
                "type": "Point",
                "coordinates": [
                    7.3957,
                    5.8289
                ]
            },
            "properties": {
                "name": "Okigwe",
                "article": "https://en.wikipedia.org/wiki/Okigwe"
            }
        },
        {
            "type": "Feature",
            "geometry": {
                "type": "Point",
                "coordinates": [
                    4.814444444,
                    7.682777777
                ]
            },
            "properties": {
                "name": "Ijebu-Jesa",
                "article": "https://en.wikipedia.org/wiki/Ijebu-Jesa"
            }
        },
        {
            "type": "Feature",
            "geometry": {
                "type": "Point",
                "coordinates": [
                    6.333333,
                    6.7
                ]
            },
            "properties": {
                "name": "Uromi",
                "article": "https://en.wikipedia.org/wiki/Uromi"
            }
        },
        {
            "type": "Feature",
            "geometry": {
                "type": "Point",
                "coordinates": [
                    11.836666666,
                    9.453611111
                ]
            },
            "properties": {
                "name": "Numan",
                "article": "https://en.wikipedia.org/wiki/Numan,_Nigeria"
            }
        },
        {
            "type": "Feature",
            "geometry": {
                "type": "Point",
                "coordinates": [
                    12.0318,
                    9.4536
                ]
            },
            "properties": {
                "name": "Numan",
                "article": "https://en.wikipedia.org/wiki/Numan,_Nigeria"
            }
        },
        {
            "type": "Feature",
            "geometry": {
                "type": "Point",
                "coordinates": [
                    12.0328,
                    9.46694
                ]
            },
            "properties": {
                "name": "Numan",
                "article": "https://en.wikipedia.org/wiki/Numan,_Nigeria"
            }
        },
        {
            "type": "Feature",
            "geometry": {
                "type": "Point",
                "coordinates": [
                    7.827222222,
                    8.838055555
                ]
            },
            "properties": {
                "name": "Keffi",
                "article": "https://en.wikipedia.org/wiki/Keffi"
            }
        },
        {
            "type": "Feature",
            "geometry": {
                "type": "Point",
                "coordinates": [
                    7.873333333,
                    8.846388888
                ]
            },
            "properties": {
                "name": "Keffi",
                "article": "https://en.wikipedia.org/wiki/Keffi"
            }
        },
        {
            "type": "Feature",
            "geometry": {
                "type": "Point",
                "coordinates": [
                    3.35,
                    7.15
                ]
            },
            "properties": {
                "name": "Ago-Oba",
                "article": "https://en.wikipedia.org/wiki/Ago-Oba"
            }
        },
        {
            "type": "Feature",
            "geometry": {
                "type": "Point",
                "coordinates": [
                    7.06666667,
                    6.11666667
                ]
            },
            "properties": {
                "name": "Agulu",
                "article": "https://en.wikipedia.org/wiki/Agulu"
            }
        },
        {
            "type": "Feature",
            "geometry": {
                "type": "Point",
                "coordinates": [
                    6.9585,
                    6.0814
                ]
            },
            "properties": {
                "name": "Alor",
                "article": "https://en.wikipedia.org/wiki/Alor,_Anambra"
            }
        },
        {
            "type": "Feature",
            "geometry": {
                "type": "Point",
                "coordinates": [
                    7.58333333,
                    8.58333333
                ]
            },
            "properties": {
                "name": "Ara Rock",
                "article": "https://en.wikipedia.org/wiki/Ara_Rock"
            }
        },
        {
            "type": "Feature",
            "geometry": {
                "type": "Point",
                "coordinates": [
                    7.01666667,
                    6.01666667
                ]
            },
            "properties": {
                "name": "Archaeology of Igbo-Ukwu",
                "article": "https://en.wikipedia.org/wiki/Archaeology_of_Igbo-Ukwu"
            }
        },
        {
            "type": "Feature",
            "geometry": {
                "type": "Point",
                "coordinates": [
                    7.163133333,
                    5.891283333
                ]
            },
            "properties": {
                "name": "Arondizuogu",
                "article": "https://en.wikipedia.org/wiki/Arondizuogu"
            }
        },
        {
            "type": "Feature",
            "geometry": {
                "type": "Point",
                "coordinates": [
                    3.971149606,
                    7.889439348
                ]
            },
            "properties": {
                "name": "Awe",
                "article": "https://en.wikipedia.org/wiki/Awe,_Oyo_State"
            }
        },
        {
            "type": "Feature",
            "geometry": {
                "type": "Point",
                "coordinates": [
                    6.936278582,
                    6.244526131
                ]
            },
            "properties": {
                "name": "Awkuzu",
                "article": "https://en.wikipedia.org/wiki/Awkuzu"
            }
        },
        {
            "type": "Feature",
            "geometry": {
                "type": "Point",
                "coordinates": [
                    3.45,
                    6.46667
                ]
            },
            "properties": {
                "name": "Banana Island",
                "article": "https://en.wikipedia.org/wiki/Banana_Island,_Lagos"
            }
        },
        {
            "type": "Feature",
            "geometry": {
                "type": "Point",
                "coordinates": [
                    6.86666667,
                    4.73333333
                ]
            },
            "properties": {
                "name": "Buguma",
                "article": "https://en.wikipedia.org/wiki/Buguma"
            }
        },
        {
            "type": "Feature",
            "geometry": {
                "type": "Point",
                "coordinates": [
                    6.1421,
                    5.5822
                ]
            },
            "properties": {
                "name": "Emevor",
                "article": "https://en.wikipedia.org/wiki/Emevor"
            }
        },
        {
            "type": "Feature",
            "geometry": {
                "type": "Point",
                "coordinates": [
                    7.016666666,
                    6.166666666
                ]
            },
            "properties": {
                "name": "Enugwu Ukwu",
                "article": "https://en.wikipedia.org/wiki/Enugwu_Ukwu"
            }
        },
        {
            "type": "Feature",
            "geometry": {
                "type": "Point",
                "coordinates": [
                    6.251049,
                    6.802121
                ]
            },
            "properties": {
                "name": "Ewu",
                "article": "https://en.wikipedia.org/wiki/Ewu"
            }
        },
        {
            "type": "Feature",
            "geometry": {
                "type": "Point",
                "coordinates": [
                    10.05266,
                    12.43487
                ]
            },
            "properties": {
                "name": "Hadejia",
                "article": "https://en.wikipedia.org/wiki/Hadejia"
            }
        },
        {
            "type": "Feature",
            "geometry": {
                "type": "Point",
                "coordinates": [
                    10.04,
                    12.45
                ]
            },
            "properties": {
                "name": "Hadejia",
                "article": "https://en.wikipedia.org/wiki/Hadejia"
            }
        },
        {
            "type": "Feature",
            "geometry": {
                "type": "Point",
                "coordinates": [
                    5.1829,
                    7.8461
                ]
            },
            "properties": {
                "name": "Ido Ekiti",
                "article": "https://en.wikipedia.org/wiki/Ido_Ekiti"
            }
        },
        {
            "type": "Feature",
            "geometry": {
                "type": "Point",
                "coordinates": [
                    7.2481,
                    5.4694
                ]
            },
            "properties": {
                "name": "Ibeku",
                "article": "https://en.wikipedia.org/wiki/Ibeku"
            }
        },
        {
            "type": "Feature",
            "geometry": {
                "type": "Point",
                "coordinates": [
                    5.209,
                    6.986
                ]
            },
            "properties": {
                "name": "Ida really",
                "article": "https://en.wikipedia.org/wiki/Idanre"
            }
        },
        {
            "type": "Feature",
            "geometry": {
                "type": "Point",
                "coordinates": [
                    5.131044,
                    7.104469
                ]
            },
            "properties": {
                "name": "Ida really",
                "article": "https://en.wikipedia.org/wiki/Idanre"
            }
        },
        {
            "type": "Feature",
            "geometry": {
                "type": "Point",
                "coordinates": [
                    3.38027778,
                    6.46888889
                ]
            },
            "properties": {
                "name": "Iddo Island",
                "article": "https://en.wikipedia.org/wiki/Iddo_Island"
            }
        },
        {
            "type": "Feature",
            "geometry": {
                "type": "Point",
                "coordinates": [
                    3.379166666,
                    6.471944444
                ]
            },
            "properties": {
                "name": "Iddo Island",
                "article": "https://en.wikipedia.org/wiki/Iddo_Island"
            }
        },
        {
            "type": "Feature",
            "geometry": {
                "type": "Point",
                "coordinates": [
                    8.61667,
                    6.08333
                ]
            },
            "properties": {
                "name": "Ikom",
                "article": "https://en.wikipedia.org/wiki/Ikom"
            }
        },
        {
            "type": "Feature",
            "geometry": {
                "type": "Point",
                "coordinates": [
                    3.6632,
                    6.9143
                ]
            },
            "properties": {
                "name": "Iperu",
                "article": "https://en.wikipedia.org/wiki/Iperu,_Ogun_State"
            }
        },
        {
            "type": "Feature",
            "geometry": {
                "type": "Point",
                "coordinates": [
                    8.390555555,
                    9.607777777
                ]
            },
            "properties": {
                "name": "Kagoro",
                "article": "https://en.wikipedia.org/wiki/Kagoro"
            }
        },
        {
            "type": "Feature",
            "geometry": {
                "type": "Point",
                "coordinates": [
                    6.57617,
                    12.56195
                ]
            },
            "properties": {
                "name": "Kaura Namoda",
                "article": "https://en.wikipedia.org/wiki/Kaura_Namoda"
            }
        },
        {
            "type": "Feature",
            "geometry": {
                "type": "Point",
                "coordinates": [
                    6.58648,
                    12.59371
                ]
            },
            "properties": {
                "name": "Kaura Namoda",
                "article": "https://en.wikipedia.org/wiki/Kaura_Namoda"
            }
        },
        {
            "type": "Feature",
            "geometry": {
                "type": "Point",
                "coordinates": [
                    6.589722222,
                    12.6
                ]
            },
            "properties": {
                "name": "Kaura Namoda",
                "article": "https://en.wikipedia.org/wiki/Kaura_Namoda"
            }
        },
        {
            "type": "Feature",
            "geometry": {
                "type": "Point",
                "coordinates": [
                    7.215,
                    9.104
                ]
            },
            "properties": {
                "name": "Madalla",
                "article": "https://en.wikipedia.org/wiki/Madalla"
            }
        },
        {
            "type": "Feature",
            "geometry": {
                "type": "Point",
                "coordinates": [
                    6.866666666,
                    6.15
                ]
            },
            "properties": {
                "name": "Ogidi",
                "article": "https://en.wikipedia.org/wiki/Ogidi,_Anambra"
            }
        },
        {
            "type": "Feature",
            "geometry": {
                "type": "Point",
                "coordinates": [
                    4.91666667,
                    7.81666667
                ]
            },
            "properties": {
                "name": "Okemesi",
                "article": "https://en.wikipedia.org/wiki/Okemesi"
            }
        },
        {
            "type": "Feature",
            "geometry": {
                "type": "Point",
                "coordinates": [
                    7.08278,
                    4.73972
                ]
            },
            "properties": {
                "name": "Okrika",
                "article": "https://en.wikipedia.org/wiki/Okrika"
            }
        },
        {
            "type": "Feature",
            "geometry": {
                "type": "Point",
                "coordinates": [
                    7.083,
                    4.74
                ]
            },
            "properties": {
                "name": "Okrika",
                "article": "https://en.wikipedia.org/wiki/Okrika"
            }
        },
        {
            "type": "Feature",
            "geometry": {
                "type": "Point",
                "coordinates": [
                    4.8,
                    8.2667
                ]
            },
            "properties": {
                "name": "Omupo",
                "article": "https://en.wikipedia.org/wiki/Omupo"
            }
        },
        {
            "type": "Feature",
            "geometry": {
                "type": "Point",
                "coordinates": [
                    7.616666666,
                    11.8
                ]
            },
            "properties": {
                "name": "Malumfashi",
                "article": "https://en.wikipedia.org/wiki/Malumfashi"
            }
        },
        {
            "type": "Feature",
            "geometry": {
                "type": "Point",
                "coordinates": [
                    7.52477778,
                    9.05711111
                ]
            },
            "properties": {
                "name": "Nigerian Presidential Complex",
                "article": "https://en.wikipedia.org/wiki/Aso_Villa"
            }
        },
        {
            "type": "Feature",
            "geometry": {
                "type": "Point",
                "coordinates": [
                    6.79073,
                    5.70901
                ]
            },
            "properties": {
                "name": "Oguta Lake",
                "article": "https://en.wikipedia.org/wiki/Oguta_Lake"
            }
        },
        {
            "type": "Feature",
            "geometry": {
                "type": "Point",
                "coordinates": [
                    6.81666667,
                    6.26666667
                ]
            },
            "properties": {
                "name": "Nsugbe",
                "article": "https://en.wikipedia.org/wiki/Nsugbe"
            }
        },
        {
            "type": "Feature",
            "geometry": {
                "type": "Point",
                "coordinates": [
                    7.125833333,
                    5.710277777
                ]
            },
            "properties": {
                "name": "Nwangele",
                "article": "https://en.wikipedia.org/wiki/Nwangele"
            }
        },
        {
            "type": "Feature",
            "geometry": {
                "type": "Point",
                "coordinates": [
                    7.119447,
                    5.725859
                ]
            },
            "properties": {
                "name": "Nwangele",
                "article": "https://en.wikipedia.org/wiki/Nwangele"
            }
        },
        {
            "type": "Feature",
            "geometry": {
                "type": "Point",
                "coordinates": [
                    6.949574854,
                    5.58559727
                ]
            },
            "properties": {
                "name": "Obaku",
                "article": "https://en.wikipedia.org/wiki/Ogbaku,_Imo"
            }
        },
        {
            "type": "Feature",
            "geometry": {
                "type": "Point",
                "coordinates": [
                    9.33333333,
                    6.35
                ]
            },
            "properties": {
                "name": "Oshie Ridge",
                "article": "https://en.wikipedia.org/wiki/Oshie_Ridge"
            }
        },
        {
            "type": "Feature",
            "geometry": {
                "type": "Point",
                "coordinates": [
                    4.8,
                    7.95
                ]
            },
            "properties": {
                "name": "Otan Ayegbaju",
                "article": "https://en.wikipedia.org/wiki/Otan_Ayegbaju"
            }
        },
        {
            "type": "Feature",
            "geometry": {
                "type": "Point",
                "coordinates": [
                    7.0833,
                    5.5333
                ]
            },
            "properties": {
                "name": "Owelu",
                "article": "https://en.wikipedia.org/wiki/Owelu"
            }
        },
        {
            "type": "Feature",
            "geometry": {
                "type": "Point",
                "coordinates": [
                    6.861025,
                    5.732804
                ]
            },
            "properties": {
                "name": "Ozara",
                "article": "https://en.wikipedia.org/wiki/Ozara,_Imo"
            }
        },
        {
            "type": "Feature",
            "geometry": {
                "type": "Point",
                "coordinates": [
                    6.21611111,
                    5.53833333
                ]
            },
            "properties": {
                "name": "Aku Ozoro",
                "article": "https://en.wikipedia.org/wiki/Ozoro"
            }
        },
        {
            "type": "Feature",
            "geometry": {
                "type": "Point",
                "coordinates": [
                    8.0,
                    9.083333
                ]
            },
            "properties": {
                "name": "Samun Dukiya",
                "article": "https://en.wikipedia.org/wiki/Samun_Dukiya"
            }
        },
        {
            "type": "Feature",
            "geometry": {
                "type": "Point",
                "coordinates": [
                    9.05,
                    9.95
                ]
            },
            "properties": {
                "name": "Shere Hills",
                "article": "https://en.wikipedia.org/wiki/Shere_Hills"
            }
        },
        {
            "type": "Feature",
            "geometry": {
                "type": "Point",
                "coordinates": [
                    5.82203,
                    5.47222
                ]
            },
            "properties": {
                "name": "Udu",
                "article": "https://en.wikipedia.org/wiki/Udu,_Nigeria"
            }
        },
        {
            "type": "Feature",
            "geometry": {
                "type": "Point",
                "coordinates": [
                    5.716666666,
                    5.75
                ]
            },
            "properties": {
                "name": "Udu",
                "article": "https://en.wikipedia.org/wiki/Udu,_Nigeria"
            }
        },
        {
            "type": "Feature",
            "geometry": {
                "type": "Point",
                "coordinates": [
                    7.6975,
                    8.91722
                ]
            },
            "properties": {
                "name": "Uke",
                "article": "https://en.wikipedia.org/wiki/Uke,_Nigeria"
            }
        },
        {
            "type": "Feature",
            "geometry": {
                "type": "Point",
                "coordinates": [
                    7.54889,
                    5.47583
                ]
            },
            "properties": {
                "name": "Umudike",
                "article": "https://en.wikipedia.org/wiki/Umudike"
            }
        },
        {
            "type": "Feature",
            "geometry": {
                "type": "Point",
                "coordinates": [
                    7.5437,
                    5.4801
                ]
            },
            "properties": {
                "name": "Umudike",
                "article": "https://en.wikipedia.org/wiki/Umudike"
            }
        },
        {
            "type": "Feature",
            "geometry": {
                "type": "Point",
                "coordinates": [
                    6.262589,
                    7.072344
                ]
            },
            "properties": {
                "name": "Unity Bank",
                "article": "https://en.wikipedia.org/wiki/Unity_Bank_plc"
            }
        },
        {
            "type": "Feature",
            "geometry": {
                "type": "Point",
                "coordinates": [
                    6.1798071,
                    5.985531066
                ]
            },
            "properties": {
                "name": "Usonigbe",
                "article": "https://en.wikipedia.org/wiki/Urhonigbe"
            }
        },
        {
            "type": "Feature",
            "geometry": {
                "type": "Point",
                "coordinates": [
                    8.283949,
                    9.784597
                ]
            },
            "properties": {
                "name": "Zangon Kataf",
                "article": "https://en.wikipedia.org/wiki/Zangon_Kataf"
            }
        },
        {
            "type": "Feature",
            "geometry": {
                "type": "Point",
                "coordinates": [
                    8.255,
                    9.841111111
                ]
            },
            "properties": {
                "name": "Zangon Kataf",
                "article": "https://en.wikipedia.org/wiki/Zangon_Kataf"
            }
        },
        {
            "type": "Feature",
            "geometry": {
                "type": "Point",
                "coordinates": [
                    11.78333333,
                    8.4
                ]
            },
            "properties": {
                "name": "Mount Dimlang",
                "article": "https://en.wikipedia.org/wiki/Mount_Dimlang"
            }
        },
        {
            "type": "Feature",
            "geometry": {
                "type": "Point",
                "coordinates": [
                    11.7667,
                    8.4
                ]
            },
            "properties": {
                "name": "Vogel Peak",
                "article": null
            }
        },
        {
            "type": "Feature",
            "geometry": {
                "type": "Point",
                "coordinates": [
                    5.766666666,
                    6.916666666
                ]
            },
            "properties": {
                "name": "Ifon",
                "article": null
            }
        },
        {
            "type": "Feature",
            "geometry": {
                "type": "Point",
                "coordinates": [
                    11.218277777,
                    10.043083333
                ]
            },
            "properties": {
                "name": "Kumo",
                "article": "https://en.wikipedia.org/wiki/Kumo,_Nigeria"
            }
        },
        {
            "type": "Feature",
            "geometry": {
                "type": "Point",
                "coordinates": [
                    3.924111111,
                    7.764388888
                ]
            },
            "properties": {
                "name": "Jobele",
                "article": null
            }
        },
        {
            "type": "Feature",
            "geometry": {
                "type": "Point",
                "coordinates": [
                    6.10473,
                    5.79023
                ]
            },
            "properties": {
                "name": "Abraka",
                "article": "https://en.wikipedia.org/wiki/Abraka"
            }
        },
        {
            "type": "Feature",
            "geometry": {
                "type": "Point",
                "coordinates": [
                    13.85,
                    12.533333333
                ]
            },
            "properties": {
                "name": "Baga massacre",
                "article": "https://en.wikipedia.org/wiki/2013_Baga_massacre"
            }
        },
        {
            "type": "Feature",
            "geometry": {
                "type": "Point",
                "coordinates": [
                    10.4413889,
                    12.8275
                ]
            },
            "properties": {
                "name": "Q14644295",
                "article": null
            }
        },
        {
            "type": "Feature",
            "geometry": {
                "type": "Point",
                "coordinates": [
                    7.35722222,
                    4.88722222
                ]
            },
            "properties": {
                "name": "Akwete",
                "article": "https://en.wikipedia.org/wiki/Akwete"
            }
        },
        {
            "type": "Feature",
            "geometry": {
                "type": "Point",
                "coordinates": [
                    4.43,
                    7.55
                ]
            },
            "properties": {
                "name": "Iree",
                "article": "https://en.wikipedia.org/wiki/Iree"
            }
        },
        {
            "type": "Feature",
            "geometry": {
                "type": "Point",
                "coordinates": [
                    10.3666667,
                    11.2166667
                ]
            },
            "properties": {
                "name": "Q15057638",
                "article": null
            }
        },
        {
            "type": "Feature",
            "geometry": {
                "type": "Point",
                "coordinates": [
                    13.689166666,
                    11.518333333
                ]
            },
            "properties": {
                "name": "Battle of Bama",
                "article": null
            }
        },
        {
            "type": "Feature",
            "geometry": {
                "type": "Point",
                "coordinates": [
                    5.0507,
                    7.4137
                ]
            },
            "properties": {
                "name": "Igbara-oke",
                "article": "https://en.wikipedia.org/wiki/Igbara-oke"
            }
        },
        {
            "type": "Feature",
            "geometry": {
                "type": "Point",
                "coordinates": [
                    5.585555555,
                    7.196666666
                ]
            },
            "properties": {
                "name": "Owo Museum",
                "article": "https://en.wikipedia.org/wiki/Owo_Museum"
            }
        },
        {
            "type": "Feature",
            "geometry": {
                "type": "Point",
                "coordinates": [
                    3.936055555,
                    7.843611111
                ]
            },
            "properties": {
                "name": "Oyo-Ile",
                "article": null
            }
        },
        {
            "type": "Feature",
            "geometry": {
                "type": "Point",
                "coordinates": [
                    6.41,
                    6.527
                ]
            },
            "properties": {
                "name": "Ohordua",
                "article": "https://en.wikipedia.org/wiki/Ohordua"
            }
        },
        {
            "type": "Feature",
            "geometry": {
                "type": "Point",
                "coordinates": [
                    4.9689,
                    8.8228
                ]
            },
            "properties": {
                "name": "Share",
                "article": "https://en.wikipedia.org/wiki/Share,_Kwara"
            }
        },
        {
            "type": "Feature",
            "geometry": {
                "type": "Point",
                "coordinates": [
                    7.00917,
                    4.80556
                ]
            },
            "properties": {
                "name": "Dental and Maxillofacial Hospital Port Harcourt",
                "article": "https://en.wikipedia.org/wiki/Rivers_State_Dental_and_Maxillofacial_Hospital"
            }
        },
        {
            "type": "Feature",
            "geometry": {
                "type": "Point",
                "coordinates": [
                    13.921666666,
                    12.0375
                ]
            },
            "properties": {
                "name": "Battle of Dikwa",
                "article": null
            }
        },
        {
            "type": "Feature",
            "geometry": {
                "type": "Point",
                "coordinates": [
                    12.506666666,
                    13.105
                ]
            },
            "properties": {
                "name": "Battle of Damasak",
                "article": "https://en.wikipedia.org/wiki/Battle_of_Damasak"
            }
        },
        {
            "type": "Feature",
            "geometry": {
                "type": "Point",
                "coordinates": [
                    3.4242,
                    6.4433
                ]
            },
            "properties": {
                "name": "Bogobiri House",
                "article": "https://en.wikipedia.org/wiki/Bogobiri_House"
            }
        },
        {
            "type": "Feature",
            "geometry": {
                "type": "Point",
                "coordinates": [
                    6.0,
                    6.18333333
                ]
            },
            "properties": {
                "name": "Eso",
                "article": "https://en.wikipedia.org/wiki/Eso_(town)"
            }
        },
        {
            "type": "Feature",
            "geometry": {
                "type": "Point",
                "coordinates": [
                    6.0,
                    6.21666667
                ]
            },
            "properties": {
                "name": "Iguododo",
                "article": "https://en.wikipedia.org/wiki/Iguododo"
            }
        },
        {
            "type": "Feature",
            "geometry": {
                "type": "Point",
                "coordinates": [
                    2.891409,
                    6.394334
                ]
            },
            "properties": {
                "name": "Gberefu Island",
                "article": "https://en.wikipedia.org/wiki/Gberefu_Island"
            }
        },
        {
            "type": "Feature",
            "geometry": {
                "type": "Point",
                "coordinates": [
                    5.58333333,
                    7.18333333
                ]
            },
            "properties": {
                "name": "Ebute Ero",
                "article": "https://en.wikipedia.org/wiki/Ebute_Ero"
            }
        },
        {
            "type": "Feature",
            "geometry": {
                "type": "Point",
                "coordinates": [
                    7.55700016,
                    6.30999994
                ]
            },
            "properties": {
                "name": "Agbani",
                "article": "https://en.wikipedia.org/wiki/Agbani"
            }
        },
        {
            "type": "Feature",
            "geometry": {
                "type": "Point",
                "coordinates": [
                    7.4733539,
                    9.0489988
                ]
            },
            "properties": {
                "name": "World Trade Centre Abuja",
                "article": "https://en.wikipedia.org/wiki/World_Trade_Centre_Abuja"
            }
        },
        {
            "type": "Feature",
            "geometry": {
                "type": "Point",
                "coordinates": [
                    7.10277778,
                    5.8875
                ]
            },
            "properties": {
                "name": "Osina, Ideato North",
                "article": "https://en.wikipedia.org/wiki/Osina,_Ideato_North"
            }
        },
        {
            "type": "Feature",
            "geometry": {
                "type": "Point",
                "coordinates": [
                    4.182511,
                    7.345682
                ]
            },
            "properties": {
                "name": "Apomu",
                "article": "https://en.wikipedia.org/wiki/Apomu"
            }
        },
        {
            "type": "Feature",
            "geometry": {
                "type": "Point",
                "coordinates": [
                    7.01638889,
                    4.77666664
                ]
            },
            "properties": {
                "name": "Government House, Port Harcourt",
                "article": "https://en.wikipedia.org/wiki/Government_House,_Port_Harcourt"
            }
        },
        {
            "type": "Feature",
            "geometry": {
                "type": "Point",
                "coordinates": [
                    7.064044,
                    6.206719
                ]
            },
            "properties": {
                "name": "Works Road, Awka",
                "article": "https://en.wikipedia.org/wiki/Works_Road,_Awka"
            }
        },
        {
            "type": "Feature",
            "geometry": {
                "type": "Point",
                "coordinates": [
                    5.58333333,
                    7.18333333
                ]
            },
            "properties": {
                "name": "Mowo, Badagry",
                "article": "https://en.wikipedia.org/wiki/Mowo,_Badagry"
            }
        },
        {
            "type": "Feature",
            "geometry": {
                "type": "Point",
                "coordinates": [
                    3.273282619,
                    6.456080713
                ]
            },
            "properties": {
                "name": "Satellite Town",
                "article": "https://en.wikipedia.org/wiki/Satellite_Town,_Lagos"
            }
        },
        {
            "type": "Feature",
            "geometry": {
                "type": "Point",
                "coordinates": [
                    8.275151,
                    4.991744
                ]
            },
            "properties": {
                "name": "Creek Town",
                "article": "https://en.wikipedia.org/wiki/Creek_Town"
            }
        },
        {
            "type": "Feature",
            "geometry": {
                "type": "Point",
                "coordinates": [
                    4.995552,
                    7.510793
                ]
            },
            "properties": {
                "name": "Ogotun",
                "article": null
            }
        },
        {
            "type": "Feature",
            "geometry": {
                "type": "Point",
                "coordinates": [
                    2.7441,
                    6.6363
                ]
            },
            "properties": {
                "name": "Idiroko",
                "article": "https://en.wikipedia.org/wiki/Idiroko"
            }
        },
        {
            "type": "Feature",
            "geometry": {
                "type": "Point",
                "coordinates": [
                    8.275151,
                    4.991744
                ]
            },
            "properties": {
                "name": "Creek Town",
                "article": "https://en.wikipedia.org/wiki/Creek_Town"
            }
        },
        {
            "type": "Feature",
            "geometry": {
                "type": "Point",
                "coordinates": [
                    4.995552,
                    7.510793
                ]
            },
            "properties": {
                "name": "Ogotun",
                "article": null
            }
        },
        {
            "type": "Feature",
            "geometry": {
                "type": "Point",
                "coordinates": [
                    2.7441,
                    6.6363
                ]
            },
            "properties": {
                "name": "Idiroko",
                "article": "https://en.wikipedia.org/wiki/Idiroko"
            }
        },
        {
            "type": "Feature",
            "geometry": {
                "type": "Point",
                "coordinates": [
                    3.3575,
                    6.494444444
                ]
            },
            "properties": {
                "name": "Adeniran Ogunsanya Street, Lagos",
                "article": "https://en.wikipedia.org/wiki/Adeniran_Ogunsanya_Street,_Lagos"
            }
        },
        {
            "type": "Feature",
            "geometry": {
                "type": "Point",
                "coordinates": [
                    7.01638889,
                    4.77666664
                ]
            },
            "properties": {
                "name": "Government House, Port Harcourt",
                "article": "https://en.wikipedia.org/wiki/Government_House,_Port_Harcourt"
            }
        },
        {
            "type": "Feature",
            "geometry": {
                "type": "Point",
                "coordinates": [
                    7.064044,
                    6.206719
                ]
            },
            "properties": {
                "name": "Works Road, Awka",
                "article": "https://en.wikipedia.org/wiki/Works_Road,_Awka"
            }
        },
        {
            "type": "Feature",
            "geometry": {
                "type": "Point",
                "coordinates": [
                    5.58333333,
                    7.18333333
                ]
            },
            "properties": {
                "name": "Mowo, Badagry",
                "article": "https://en.wikipedia.org/wiki/Mowo,_Badagry"
            }
        },
        {
            "type": "Feature",
            "geometry": {
                "type": "Point",
                "coordinates": [
                    7.94861111,
                    5.8625
                ]
            },
            "properties": {
                "name": "Unwana city",
                "article": "https://en.wikipedia.org/wiki/Unwana"
            }
        },
        {
            "type": "Feature",
            "geometry": {
                "type": "Point",
                "coordinates": [
                    6.443969337,
                    7.232686933
                ]
            },
            "properties": {
                "name": "Imiekuri",
                "article": "https://en.wikipedia.org/wiki/Imiekuri"
            }
        },
        {
            "type": "Feature",
            "geometry": {
                "type": "Point",
                "coordinates": [
                    6.777222222,
                    6.180277777
                ]
            },
            "properties": {
                "name": "Anam",
                "article": "https://en.wikipedia.org/wiki/Anam,_Nigeria"
            }
        },
        {
            "type": "Feature",
            "geometry": {
                "type": "Point",
                "coordinates": [
                    3.720668,
                    6.493394
                ]
            },
            "properties": {
                "name": "Lekki",
                "article": "https://en.wikipedia.org/wiki/Lekki"
            }
        },
        {
            "type": "Feature",
            "geometry": {
                "type": "Point",
                "coordinates": [
                    3.45,
                    7.54972222
                ]
            },
            "properties": {
                "name": "Eruwa",
                "article": "https://en.wikipedia.org/wiki/Eruwa"
            }
        },
        {
            "type": "Feature",
            "geometry": {
                "type": "Point",
                "coordinates": [
                    3.927752236,
                    7.704923267
                ]
            },
            "properties": {
                "name": "Iroko",
                "article": "https://en.wikipedia.org/wiki/Iroko,_Oyo_State"
            }
        },
        {
            "type": "Feature",
            "geometry": {
                "type": "Point",
                "coordinates": [
                    4.8118,
                    7.9068
                ]
            },
            "properties": {
                "name": "Carved Stone Figure at Igbajo",
                "article": null
            }
        },
        {
            "type": "Feature",
            "geometry": {
                "type": "Point",
                "coordinates": [
                    3.3307,
                    6.5668
                ]
            },
            "properties": {
                "name": "Ilojo Bar",
                "article": "https://en.wikipedia.org/wiki/Ilojo_Bar"
            }
        },
        {
            "type": "Feature",
            "geometry": {
                "type": "Point",
                "coordinates": [
                    7.854555555,
                    5.620833333
                ]
            },
            "properties": {
                "name": "Omo Ukwu of Ndi Nzera Clan Asaga-Ohafia",
                "article": null
            }
        },
        {
            "type": "Feature",
            "geometry": {
                "type": "Point",
                "coordinates": [
                    9.760333333,
                    10.688861111
                ]
            },
            "properties": {
                "name": "Gidan Madaki",
                "article": null
            }
        },
        {
            "type": "Feature",
            "geometry": {
                "type": "Point",
                "coordinates": [
                    7.4458,
                    10.5531
                ]
            },
            "properties": {
                "name": "Arewa House",
                "article": "https://en.wikipedia.org/wiki/Arewa_House"
            }
        },
        {
            "type": "Feature",
            "geometry": {
                "type": "Point",
                "coordinates": [
                    7.659444444,
                    7.101666666
                ]
            },
            "properties": {
                "name": "Otukpa",
                "article": "https://en.wikipedia.org/wiki/Otukpa"
            }
        },
        {
            "type": "Feature",
            "geometry": {
                "type": "Point",
                "coordinates": [
                    7.455277777,
                    6.982777777
                ]
            },
            "properties": {
                "name": "Enugu-Ezike",
                "article": "https://en.wikipedia.org/wiki/Enugu-Ezike"
            }
        },
        {
            "type": "Feature",
            "geometry": {
                "type": "Point",
                "coordinates": [
                    10.83,
                    3.233
                ]
            },
            "properties": {
                "name": "Abam",
                "article": "https://en.wikipedia.org/wiki/Abam"
            }
        },
        {
            "type": "Feature",
            "geometry": {
                "type": "Point",
                "coordinates": [
                    7.39583333,
                    6.85666667
                ]
            },
            "properties": {
                "name": "Nru Nsukka",
                "article": "https://en.wikipedia.org/wiki/Nru_Nsukka"
            }
        },
        {
            "type": "Feature",
            "geometry": {
                "type": "Point",
                "coordinates": [
                    7.7883,
                    5.499138888
                ]
            },
            "properties": {
                "name": "Ndi Oji Abam",
                "article": "https://en.wikipedia.org/wiki/Ndi_Oji_Abam"
            }
        },
        {
            "type": "Feature",
            "geometry": {
                "type": "Point",
                "coordinates": [
                    7.7883,
                    5.499138888
                ]
            },
            "properties": {
                "name": "Ndi Oji Abam",
                "article": "https://en.wikipedia.org/wiki/Ndi_Oji_Abam"
            }
        },
        {
            "type": "Feature",
            "geometry": {
                "type": "Point",
                "coordinates": [
                    3.412,
                    6.4098
                ]
            },
            "properties": {
                "name": "Eko Pearl Towers",
                "article": "https://en.wikipedia.org/wiki/Eko_Pearl_Towers"
            }
        },
        {
            "type": "Feature",
            "geometry": {
                "type": "Point",
                "coordinates": [
                    14.4636,
                    12.2701
                ]
            },
            "properties": {
                "name": "Rann",
                "article": "https://en.wikipedia.org/wiki/Rann,_Borno"
            }
        },
        {
            "type": "Feature",
            "geometry": {
                "type": "Point",
                "coordinates": [
                    7.004583,
                    4.812702
                ]
            },
            "properties": {
                "name": "Landmark Hotel",
                "article": "https://en.wikipedia.org/wiki/Landmark_Hotel_(Port_Harcourt)"
            }
        },
        {
            "type": "Feature",
            "geometry": {
                "type": "Point",
                "coordinates": [
                    5.394,
                    7.745
                ]
            },
            "properties": {
                "name": "Ire Ekiti",
                "article": "https://en.wikipedia.org/wiki/Ire_Ekiti"
            }
        },
        {
            "type": "Feature",
            "geometry": {
                "type": "Point",
                "coordinates": [
                    3.39888889,
                    6.44691667
                ]
            },
            "properties": {
                "name": "Independence House",
                "article": "https://en.wikipedia.org/wiki/Independence_House"
            }
        },
        {
            "type": "Feature",
            "geometry": {
                "type": "Point",
                "coordinates": [
                    7.94038,
                    4.99864
                ]
            },
            "properties": {
                "name": "Ibom Tropicana Entertainment Centre",
                "article": "https://en.wikipedia.org/wiki/Ibom_Tropicana_Entertainment_Centre"
            }
        },
        {
            "type": "Feature",
            "geometry": {
                "type": "Point",
                "coordinates": [
                    5.883333333,
                    5.116666666
                ]
            },
            "properties": {
                "name": "Tuomo Town",
                "article": "https://en.wikipedia.org/wiki/Tuomo_Town"
            }
        },
        {
            "type": "Feature",
            "geometry": {
                "type": "Point",
                "coordinates": [
                    7.10027778,
                    6.50611111
                ]
            },
            "properties": {
                "name": "Umulokpa",
                "article": "https://en.wikipedia.org/wiki/Umulokpa"
            }
        },
        {
            "type": "Feature",
            "geometry": {
                "type": "Point",
                "coordinates": [
                    6.104444444,
                    7.293611111
                ]
            },
            "properties": {
                "name": "Igarra",
                "article": "https://en.wikipedia.org/wiki/Igarra"
            }
        },
        {
            "type": "Feature",
            "geometry": {
                "type": "Point",
                "coordinates": [
                    6.909348999,
                    6.311395539
                ]
            },
            "properties": {
                "name": "Nando Community",
                "article": "https://en.wikipedia.org/wiki/Nando_Community"
            }
        },
        {
            "type": "Feature",
            "geometry": {
                "type": "Point",
                "coordinates": [
                    8.833611111,
                    9.958055555
                ]
            },
            "properties": {
                "name": "Charisibu",
                "article": null
            }
        },
        {
            "type": "Feature",
            "geometry": {
                "type": "Point",
                "coordinates": [
                    11.1358,
                    7.5967
                ]
            },
            "properties": {
                "name": "Songa Hill",
                "article": null
            }
        },
        {
            "type": "Feature",
            "geometry": {
                "type": "Point",
                "coordinates": [
                    11.55,
                    7.183333333
                ]
            },
            "properties": {
                "name": "Songa",
                "article": null
            }
        },
        {
            "type": "Feature",
            "geometry": {
                "type": "Point",
                "coordinates": [
                    12.441111111,
                    8.913611111
                ]
            },
            "properties": {
                "name": "Solumta",
                "article": null
            }
        },
        {
            "type": "Feature",
            "geometry": {
                "type": "Point",
                "coordinates": [
                    11.198055555,
                    8.834444444
                ]
            },
            "properties": {
                "name": "Sibre",
                "article": null
            }
        },
        {
            "type": "Feature",
            "geometry": {
                "type": "Point",
                "coordinates": [
                    11.5342,
                    7.3525
                ]
            },
            "properties": {
                "name": "Hosere Shuntun",
                "article": null
            }
        },
        {
            "type": "Feature",
            "geometry": {
                "type": "Point",
                "coordinates": [
                    11.4675,
                    7.0275
                ]
            },
            "properties": {
                "name": "Hosere Shirip",
                "article": null
            }
        },
        {
            "type": "Feature",
            "geometry": {
                "type": "Point",
                "coordinates": [
                    11.6758,
                    7.3658
                ]
            },
            "properties": {
                "name": "Chappal Shirigu",
                "article": null
            }
        },
        {
            "type": "Feature",
            "geometry": {
                "type": "Point",
                "coordinates": [
                    11.2475,
                    7.0192
                ]
            },
            "properties": {
                "name": "Shebo Hill",
                "article": null
            }
        },
        {
            "type": "Feature",
            "geometry": {
                "type": "Point",
                "coordinates": [
                    8.946944444,
                    10.235
                ]
            },
            "properties": {
                "name": "Sanga",
                "article": null
            }
        },
        {
            "type": "Feature",
            "geometry": {
                "type": "Point",
                "coordinates": [
                    8.897222222,
                    10.418333333
                ]
            },
            "properties": {
                "name": "Saiya Hill",
                "article": null
            }
        },
        {
            "type": "Feature",
            "geometry": {
                "type": "Point",
                "coordinates": [
                    11.5658,
                    7.5008
                ]
            },
            "properties": {
                "name": "Hosere Sabehendu",
                "article": null
            }
        },
        {
            "type": "Feature",
            "geometry": {
                "type": "Point",
                "coordinates": [
                    10.188611111,
                    7.146388888
                ]
            },
            "properties": {
                "name": "Rukwe Kusa",
                "article": null
            }
        },
        {
            "type": "Feature",
            "geometry": {
                "type": "Point",
                "coordinates": [
                    10.255,
                    7.114166666
                ]
            },
            "properties": {
                "name": "Rukwe Kusa",
                "article": null
            }
        },
        {
            "type": "Feature",
            "geometry": {
                "type": "Point",
                "coordinates": [
                    11.7008,
                    7.7625
                ]
            },
            "properties": {
                "name": "Rekuwa",
                "article": null
            }
        },
        {
            "type": "Feature",
            "geometry": {
                "type": "Point",
                "coordinates": [
                    11.546666666,
                    8.668055555
                ]
            },
            "properties": {
                "name": "Ramva",
                "article": null
            }
        },
        {
            "type": "Feature",
            "geometry": {
                "type": "Point",
                "coordinates": [
                    9.0633,
                    6.6275
                ]
            },
            "properties": {
                "name": "Okura Hill",
                "article": null
            }
        },
        {
            "type": "Feature",
            "geometry": {
                "type": "Point",
                "coordinates": [
                    10.9388,
                    7.0978
                ]
            },
            "properties": {
                "name": "Ofumbal Hill",
                "article": null
            }
        },
        {
            "type": "Feature",
            "geometry": {
                "type": "Point",
                "coordinates": [
                    11.5975,
                    7.8325
                ]
            },
            "properties": {
                "name": "Nyasikasi Hill",
                "article": null
            }
        },
        {
            "type": "Feature",
            "geometry": {
                "type": "Point",
                "coordinates": [
                    11.066666666,
                    7.6
                ]
            },
            "properties": {
                "name": "Nyakwei Hill",
                "article": null
            }
        },
        {
            "type": "Feature",
            "geometry": {
                "type": "Point",
                "coordinates": [
                    10.3633,
                    6.975
                ]
            },
            "properties": {
                "name": "Nsobi Hill",
                "article": null
            }
        },
        {
            "type": "Feature",
            "geometry": {
                "type": "Point",
                "coordinates": [
                    11.4233,
                    7.04
                ]
            },
            "properties": {
                "name": "Nkiri Hill",
                "article": null
            }
        },
        {
            "type": "Feature",
            "geometry": {
                "type": "Point",
                "coordinates": [
                    10.9039,
                    7.1195
                ]
            },
            "properties": {
                "name": "Ngombo Hill",
                "article": null
            }
        },
        {
            "type": "Feature",
            "geometry": {
                "type": "Point",
                "coordinates": [
                    11.0917,
                    7.5825
                ]
            },
            "properties": {
                "name": "Nga Hill",
                "article": null
            }
        },
        {
            "type": "Feature",
            "geometry": {
                "type": "Point",
                "coordinates": [
                    10.861944444,
                    8.299722222
                ]
            },
            "properties": {
                "name": "Ndurori",
                "article": null
            }
        },
        {
            "type": "Feature",
            "geometry": {
                "type": "Point",
                "coordinates": [
                    11.25,
                    7.116666666
                ]
            },
            "properties": {
                "name": "Ndiyam Danijum Hill",
                "article": null
            }
        },
        {
            "type": "Feature",
            "geometry": {
                "type": "Point",
                "coordinates": [
                    11.1875,
                    7.7692
                ]
            },
            "properties": {
                "name": "Nbon",
                "article": null
            }
        },
        {
            "type": "Feature",
            "geometry": {
                "type": "Point",
                "coordinates": [
                    13.395,
                    10.156388888
                ]
            },
            "properties": {
                "name": "Musuma",
                "article": null
            }
        },
        {
            "type": "Feature",
            "geometry": {
                "type": "Point",
                "coordinates": [
                    8.935555555,
                    10.309444444
                ]
            },
            "properties": {
                "name": "Dutsen Murria",
                "article": null
            }
        },