{
    "type": "FeatureCollection",
    "features": [
        {
            "type": "Feature",
            "geometry": {
                "type": "Point",
                "coordinates": [
                    10.785,
                    62.030277777
                ]
            },
            "properties": {
                "name": "Bellingmo Station",
                "article": null
            }
        },
        {
            "type": "Feature",
            "geometry": {
                "type": "Point",
                "coordinates": [
                    10.8339,
                    61.7323
                ]
            },
            "properties": {
                "name": "Atna Station",
                "article": null
            }
        },
        {
            "type": "Feature",
            "geometry": {
                "type": "Point",
                "coordinates": [
                    10.885833333,
                    61.992222222
                ]
            },
            "properties": {
                "name": "Barkald Station",
                "article": null
            }
        },
        {
            "type": "Feature",
            "geometry": {
                "type": "Point",
                "coordinates": [
                    10.8789,
                    61.838
                ]
            },
            "properties": {
                "name": "Hanestad Station",
                "article": null
            }
        },
        {
            "type": "Feature",
            "geometry": {
                "type": "Point",
                "coordinates": [
                    18.55,
                    69.616666666
                ]
            },
            "properties": {
                "name": "Kvaløya, Troms",
                "article": "https://en.wikipedia.org/wiki/Kval%C3%B8ya_(Troms%C3%B8)"
            }
        },
        {
            "type": "Feature",
            "geometry": {
                "type": "Point",
                "coordinates": [
                    10.783333333,
                    59.783333333
                ]
            },
            "properties": {
                "name": "Gjersjøen",
                "article": "https://en.wikipedia.org/wiki/Gjersj%C3%B8en"
            }
        },
        {
            "type": "Feature",
            "geometry": {
                "type": "Point",
                "coordinates": [
                    10.87694444,
                    59.87527778
                ]
            },
            "properties": {
                "name": "Nøklevann",
                "article": "https://en.wikipedia.org/wiki/N%C3%B8klevann"
            }
        },
        {
            "type": "Feature",
            "geometry": {
                "type": "Point",
                "coordinates": [
                    11.058333333,
                    61.494166666
                ]
            },
            "properties": {
                "name": "Stai Station",
                "article": null
            }
        },
        {
            "type": "Feature",
            "geometry": {
                "type": "Point",
                "coordinates": [
                    11.044,
                    61.5729
                ]
            },
            "properties": {
                "name": "Koppang Station",
                "article": "https://en.wikipedia.org/wiki/Koppang_Station"
            }
        },
        {
            "type": "Feature",
            "geometry": {
                "type": "Point",
                "coordinates": [
                    11.0998,
                    61.4233
                ]
            },
            "properties": {
                "name": "Evenstad Station",
                "article": null
            }
        },
        {
            "type": "Feature",
            "geometry": {
                "type": "Point",
                "coordinates": [
                    11.145218,
                    61.398859
                ]
            },
            "properties": {
                "name": "Rasta Station",
                "article": null
            }
        },
        {
            "type": "Feature",
            "geometry": {
                "type": "Point",
                "coordinates": [
                    11.323611111,
                    61.251388888
                ]
            },
            "properties": {
                "name": "Steinvik Station",
                "article": null
            }
        },
        {
            "type": "Feature",
            "geometry": {
                "type": "Point",
                "coordinates": [
                    11.54676111,
                    60.88254167
                ]
            },
            "properties": {
                "name": "Elverum station",
                "article": "https://en.wikipedia.org/wiki/Elverum_Station"
            }
        },
        {
            "type": "Feature",
            "geometry": {
                "type": "Point",
                "coordinates": [
                    11.076365,
                    60.791615
                ]
            },
            "properties": {
                "name": "Hamar Station",
                "article": "https://en.wikipedia.org/wiki/Hamar_Station"
            }
        },
        {
            "type": "Feature",
            "geometry": {
                "type": "Point",
                "coordinates": [
                    11.369166666,
                    61.134444444
                ]
            },
            "properties": {
                "name": "Rena Station",
                "article": "https://en.wikipedia.org/wiki/Rena_Station"
            }
        },
        {
            "type": "Feature",
            "geometry": {
                "type": "Point",
                "coordinates": [
                    11.2607,
                    61.3318
                ]
            },
            "properties": {
                "name": "Opphus Station",
                "article": null
            }
        },
        {
            "type": "Feature",
            "geometry": {
                "type": "Point",
                "coordinates": [
                    11.2225,
                    60.7767
                ]
            },
            "properties": {
                "name": "Ilseng Station",
                "article": null
            }
        },
        {
            "type": "Feature",
            "geometry": {
                "type": "Point",
                "coordinates": [
                    10.46130278,
                    61.11436944
                ]
            },
            "properties": {
                "name": "Lillehammer Station",
                "article": "https://en.wikipedia.org/wiki/Lillehammer_Station"
            }
        },
        {
            "type": "Feature",
            "geometry": {
                "type": "Point",
                "coordinates": [
                    11.34055111,
                    60.817594
                ]
            },
            "properties": {
                "name": "Løten Station",
                "article": "https://en.wikipedia.org/wiki/L%C3%B8ten_Station"
            }
        },
        {
            "type": "Feature",
            "geometry": {
                "type": "Point",
                "coordinates": [
                    10.248055555,
                    60.023611111
                ]
            },
            "properties": {
                "name": "Utøya",
                "article": "https://en.wikipedia.org/wiki/Ut%C3%B8ya"
            }
        },
        {
            "type": "Feature",
            "geometry": {
                "type": "Point",
                "coordinates": [
                    6.667222,
                    60.025833
                ]
            },
            "properties": {
                "name": "Odda Municipality",
                "article": "https://en.wikipedia.org/wiki/Odda"
            }
        },
        {
            "type": "Feature",
            "geometry": {
                "type": "Point",
                "coordinates": [
                    19.85,
                    70.15
                ]
            },
            "properties": {
                "name": "Vanna",
                "article": "https://en.wikipedia.org/wiki/Vanna_(Troms)"
            }
        },
        {
            "type": "Feature",
            "geometry": {
                "type": "Point",
                "coordinates": [
                    11.879166666,
                    59.161666666
                ]
            },
            "properties": {
                "name": "Stora Le",
                "article": "https://en.wikipedia.org/wiki/Stora_Le"
            }
        },
        {
            "type": "Feature",
            "geometry": {
                "type": "Point",
                "coordinates": [
                    10.759822222,
                    59.937772222
                ]
            },
            "properties": {
                "name": "Bentse Brug",
                "article": "https://en.wikipedia.org/wiki/Bentse_Brug"
            }
        },
        {
            "type": "Feature",
            "geometry": {
                "type": "Point",
                "coordinates": [
                    17.43,
                    69.1447
                ]
            },
            "properties": {
                "name": "Tranøya",
                "article": "https://en.wikipedia.org/wiki/Tran%C3%B8ya_(Troms)"
            }
        },
        {
            "type": "Feature",
            "geometry": {
                "type": "Point",
                "coordinates": [
                    11.04444444,
                    59.95305556
                ]
            },
            "properties": {
                "name": "Lillestrøm station",
                "article": "https://en.wikipedia.org/wiki/Lillestr%C3%B8m_Station"
            }
        },
        {
            "type": "Feature",
            "geometry": {
                "type": "Point",
                "coordinates": [
                    9.333333333,
                    59.3
                ]
            },
            "properties": {
                "name": "Norsjø",
                "article": "https://en.wikipedia.org/wiki/Norsj%C3%B8"
            }
        },
        {
            "type": "Feature",
            "geometry": {
                "type": "Point",
                "coordinates": [
                    6.336388888,
                    58.316944444
                ]
            },
            "properties": {
                "name": "Altmark Incident",
                "article": "https://en.wikipedia.org/wiki/Altmark_incident"
            }
        },
        {
            "type": "Feature",
            "geometry": {
                "type": "Point",
                "coordinates": [
                    11.016666666,
                    78.55
                ]
            },
            "properties": {
                "name": "Prins Karls Forland",
                "article": "https://en.wikipedia.org/wiki/Prins_Karls_Forland"
            }
        },
        {
            "type": "Feature",
            "geometry": {
                "type": "Point",
                "coordinates": [
                    8.775555555,
                    61.523055555
                ]
            },
            "properties": {
                "name": "Bessvatnet",
                "article": "https://en.wikipedia.org/wiki/Bessvatnet"
            }
        },
        {
            "type": "Feature",
            "geometry": {
                "type": "Point",
                "coordinates": [
                    19.0475,
                    74.44
                ]
            },
            "properties": {
                "name": "Bear Island",
                "article": "https://en.wikipedia.org/wiki/Bear_Island_(Svalbard)"
            }
        },
        {
            "type": "Feature",
            "geometry": {
                "type": "Point",
                "coordinates": [
                    8.770008,
                    58.46493
                ]
            },
            "properties": {
                "name": "Arendal Station",
                "article": "https://en.wikipedia.org/wiki/Arendal_station"
            }
        },
        {
            "type": "Feature",
            "geometry": {
                "type": "Point",
                "coordinates": [
                    11.24708333,
                    60.32945556
                ]
            },
            "properties": {
                "name": "Eidsvoll station",
                "article": "https://en.wikipedia.org/wiki/Eidsvoll_Station"
            }
        },
        {
            "type": "Feature",
            "geometry": {
                "type": "Point",
                "coordinates": [
                    10.20444444,
                    59.74
                ]
            },
            "properties": {
                "name": "Drammen station",
                "article": "https://en.wikipedia.org/wiki/Drammen_Station"
            }
        },
        {
            "type": "Feature",
            "geometry": {
                "type": "Point",
                "coordinates": [
                    6.35,
                    61.933333333
                ]
            },
            "properties": {
                "name": "Hornindalsvatnet",
                "article": "https://en.wikipedia.org/wiki/Hornindalsvatnet"
            }
        },
        {
            "type": "Feature",
            "geometry": {
                "type": "Point",
                "coordinates": [
                    8.3,
                    61.633333333
                ]
            },
            "properties": {
                "name": "Galdhøpiggen",
                "article": "https://en.wikipedia.org/wiki/Galdh%C3%B8piggen"
            }
        },
        {
            "type": "Feature",
            "geometry": {
                "type": "Point",
                "coordinates": [
                    22.4,
                    79.8
                ]
            },
            "properties": {
                "name": "Nordaustlandet",
                "article": "https://en.wikipedia.org/wiki/Nordaustlandet"
            }
        },
        {
            "type": "Feature",
            "geometry": {
                "type": "Point",
                "coordinates": [
                    30.04511,
                    69.72708
                ]
            },
            "properties": {
                "name": "Kirkenes",
                "article": "https://en.wikipedia.org/wiki/Kirkenes"
            }
        },
        {
            "type": "Feature",
            "geometry": {
                "type": "Point",
                "coordinates": [
                    10.694246,
                    60.797154
                ]
            },
            "properties": {
                "name": "Gjøvik Station",
                "article": "https://en.wikipedia.org/wiki/Gj%C3%B8vik_Station"
            }
        },
        {
            "type": "Feature",
            "geometry": {
                "type": "Point",
                "coordinates": [
                    11.0,
                    60.666666666
                ]
            },
            "properties": {
                "name": "Mjøsa",
                "article": "https://en.wikipedia.org/wiki/Mj%C3%B8sa"
            }
        },
        {
            "type": "Feature",
            "geometry": {
                "type": "Point",
                "coordinates": [
                    10.7119,
                    59.8906
                ]
            },
            "properties": {
                "name": "Lindøya",
                "article": "https://en.wikipedia.org/wiki/Lind%C3%B8ya"
            }
        },
        {
            "type": "Feature",
            "geometry": {
                "type": "Point",
                "coordinates": [
                    17.9659,
                    68.3977
                ]
            },
            "properties": {
                "name": "Katterat station",
                "article": "https://en.wikipedia.org/wiki/Katterat_Station"
            }
        },
        {
            "type": "Feature",
            "geometry": {
                "type": "Point",
                "coordinates": [
                    8.7034,
                    58.576
                ]
            },
            "properties": {
                "name": "Bøylestad Station",
                "article": "https://en.wikipedia.org/wiki/B%C3%B8ylestad_Station"
            }
        },
        {
            "type": "Feature",
            "geometry": {
                "type": "Point",
                "coordinates": [
                    8.68122,
                    58.6394
                ]
            },
            "properties": {
                "name": "Flaten Station",
                "article": "https://en.wikipedia.org/wiki/Flaten_Station"
            }
        },
        {
            "type": "Feature",
            "geometry": {
                "type": "Point",
                "coordinates": [
                    18.0712,
                    68.4323
                ]
            },
            "properties": {
                "name": "Bjørnfjell station",
                "article": "https://en.wikipedia.org/wiki/Bj%C3%B8rnfjell_Station"
            }
        },
        {
            "type": "Feature",
            "geometry": {
                "type": "Point",
                "coordinates": [
                    8.648694444,
                    58.507444444
                ]
            },
            "properties": {
                "name": "Blakstad Station",
                "article": "https://en.wikipedia.org/wiki/Blakstad_Station"
            }
        },
        {
            "type": "Feature",
            "geometry": {
                "type": "Point",
                "coordinates": [
                    8.6231,
                    58.4684
                ]
            },
            "properties": {
                "name": "Rise Station",
                "article": "https://en.wikipedia.org/wiki/Rise_Station"
            }
        },
        {
            "type": "Feature",
            "geometry": {
                "type": "Point",
                "coordinates": [
                    8.68981,
                    58.46278
                ]
            },
            "properties": {
                "name": "Bråstad Station",
                "article": "https://en.wikipedia.org/wiki/Br%C3%A5stad_Station"
            }
        },
        {
            "type": "Feature",
            "geometry": {
                "type": "Point",
                "coordinates": [
                    11.269611111,
                    60.615913888
                ]
            },
            "properties": {
                "name": "Tangen Station",
                "article": "https://en.wikipedia.org/wiki/Tangen_Station"
            }
        },
        {
            "type": "Feature",
            "geometry": {
                "type": "Point",
                "coordinates": [
                    9.15582,
                    58.9711
                ]
            },
            "properties": {
                "name": "Neslandsvatn station",
                "article": "https://en.wikipedia.org/wiki/Neslandsvatn_Station"
            }
        },
        {
            "type": "Feature",
            "geometry": {
                "type": "Point",
                "coordinates": [
                    7.58102,
                    61.76202
                ]
            },
            "properties": {
                "name": "Syrtbyttnosi",
                "article": "https://en.wikipedia.org/wiki/Syrtbyttnosi"
            }
        },
        {
            "type": "Feature",
            "geometry": {
                "type": "Point",
                "coordinates": [
                    10.738888888,
                    59.913333333
                ]
            },
            "properties": {
                "name": "Oslo",
                "article": "https://en.wikipedia.org/wiki/Oslo"
            }
        },
        {
            "type": "Feature",
            "geometry": {
                "type": "Point",
                "coordinates": [
                    9.6875,
                    59.058888888
                ]
            },
            "properties": {
                "name": "Brevik",
                "article": "https://en.wikipedia.org/wiki/Brevik,_Norway"
            }
        },
        {
            "type": "Feature",
            "geometry": {
                "type": "Point",
                "coordinates": [
                    -8.5336,
                    70.983
                ]
            },
            "properties": {
                "name": "Jan Mayen",
                "article": "https://en.wikipedia.org/wiki/Jan_Mayen"
            }
        },
        {
            "type": "Feature",
            "geometry": {
                "type": "Point",
                "coordinates": [
                    16.0,
                    78.75
                ]
            },
            "properties": {
                "name": "Spitsbergen",
                "article": "https://en.wikipedia.org/wiki/Spitsbergen"
            }
        },
        {
            "type": "Feature",
            "geometry": {
                "type": "Point",
                "coordinates": [
                    3.36,
                    -54.42
                ]
            },
            "properties": {
                "name": "Bouvet Island",
                "article": "https://en.wikipedia.org/wiki/Bouvet_Island"
            }
        },
        {
            "type": "Feature",
            "geometry": {
                "type": "Point",
                "coordinates": [
                    10.4,
                    63.44
                ]
            },
            "properties": {
                "name": "Trondheim",
                "article": "https://en.wikipedia.org/wiki/Trondheim"
            }
        },
        {
            "type": "Feature",
            "geometry": {
                "type": "Point",
                "coordinates": [
                    15.633333333,
                    78.216666666
                ]
            },
            "properties": {
                "name": "Longyearbyen",
                "article": "https://en.wikipedia.org/wiki/Longyearbyen"
            }
        },
        {
            "type": "Feature",
            "geometry": {
                "type": "Point",
                "coordinates": [
                    5.323333333,
                    60.3925
                ]
            },
            "properties": {
                "name": "Bergen",
                "article": "https://en.wikipedia.org/wiki/Bergen"
            }
        },
        {
            "type": "Feature",
            "geometry": {
                "type": "Point",
                "coordinates": [
                    14.37513,
                    67.28267
                ]
            },
            "properties": {
                "name": "Bodø",
                "article": "https://en.wikipedia.org/wiki/Bod%C3%B8_(town)"
            }
        },
        {
            "type": "Feature",
            "geometry": {
                "type": "Point",
                "coordinates": [
                    8.709166666,
                    58.466111111
                ]
            },
            "properties": {
                "name": "Stoa Station",
                "article": null
            }
        },
        {
            "type": "Feature",
            "geometry": {
                "type": "Point",
                "coordinates": [
                    11.933333333,
                    78.916666666
                ]
            },
            "properties": {
                "name": "Ny-Ålesund",
                "article": "https://en.wikipedia.org/wiki/Ny-%C3%85lesund"
            }
        },
        {
            "type": "Feature",
            "geometry": {
                "type": "Point",
                "coordinates": [
                    17.42777,
                    68.43828
                ]
            },
            "properties": {
                "name": "Narvik",
                "article": "https://en.wikipedia.org/wiki/Narvik_(town)"
            }
        },
        {
            "type": "Feature",
            "geometry": {
                "type": "Point",
                "coordinates": [
                    14.166666666,
                    66.316666666
                ]
            },
            "properties": {
                "name": "Mo i Rana",
                "article": "https://en.wikipedia.org/wiki/Mo_i_Rana"
            }
        },
        {
            "type": "Feature",
            "geometry": {
                "type": "Point",
                "coordinates": [
                    10.72883611,
                    62.956355
                ]
            },
            "properties": {
                "name": "Singsås Station",
                "article": "https://en.wikipedia.org/wiki/Sings%C3%A5s_Station"
            }
        },
        {
            "type": "Feature",
            "geometry": {
                "type": "Point",
                "coordinates": [
                    11.379166666,
                    62.8075
                ]
            },
            "properties": {
                "name": "Reitan Station",
                "article": null
            }
        },
        {
            "type": "Feature",
            "geometry": {
                "type": "Point",
                "coordinates": [
                    11.4166,
                    62.6745
                ]
            },
            "properties": {
                "name": "Glåmos Station",
                "article": null
            }
        },
        {
            "type": "Feature",
            "geometry": {
                "type": "Point",
                "coordinates": [
                    11.3116,
                    62.8468
                ]
            },
            "properties": {
                "name": "Ålen Station",
                "article": "https://en.wikipedia.org/wiki/%C3%85len_Station"
            }
        },
        {
            "type": "Feature",
            "geometry": {
                "type": "Point",
                "coordinates": [
                    11.3791,
                    62.574
                ]
            },
            "properties": {
                "name": "Røros Station",
                "article": "https://en.wikipedia.org/wiki/R%C3%B8ros_Station"
            }
        },
        {
            "type": "Feature",
            "geometry": {
                "type": "Point",
                "coordinates": [
                    11.2271,
                    62.4975
                ]
            },
            "properties": {
                "name": "Os Station",
                "article": null
            }
        },
        {
            "type": "Feature",
            "geometry": {
                "type": "Point",
                "coordinates": [
                    18.0,
                    80.166666666
                ]
            },
            "properties": {
                "name": "Lågøya",
                "article": "https://en.wikipedia.org/wiki/L%C3%A5g%C3%B8ya"
            }
        },
        {
            "type": "Feature",
            "geometry": {
                "type": "Point",
                "coordinates": [
                    10.66944444,
                    59.43944444
                ]
            },
            "properties": {
                "name": "Konvensjonsgården",
                "article": null
            }
        },
        {
            "type": "Feature",
            "geometry": {
                "type": "Point",
                "coordinates": [
                    14.566666666,
                    68.233333333
                ]
            },
            "properties": {
                "name": "Svolvær",
                "article": "https://en.wikipedia.org/wiki/Svolv%C3%A6r"
            }
        },
        {
            "type": "Feature",
            "geometry": {
                "type": "Point",
                "coordinates": [
                    15.833333333,
                    68.533333333
                ]
            },
            "properties": {
                "name": "Hinnøya",
                "article": "https://en.wikipedia.org/wiki/Hinn%C3%B8ya"
            }
        },
        {
            "type": "Feature",
            "geometry": {
                "type": "Point",
                "coordinates": [
                    8.02111111,
                    59.38611111
                ]
            },
            "properties": {
                "name": "Åmlivatn",
                "article": null
            }
        },
        {
            "type": "Feature",
            "geometry": {
                "type": "Point",
                "coordinates": [
                    7.686944444,
                    62.567222222
                ]
            },
            "properties": {
                "name": "Åndalsnes",
                "article": "https://en.wikipedia.org/wiki/%C3%85ndalsnes"
            }
        },
        {
            "type": "Feature",
            "geometry": {
                "type": "Point",
                "coordinates": [
                    17.266666666,
                    69.2
                ]
            },
            "properties": {
                "name": "Ånderdalen National Park",
                "article": "https://en.wikipedia.org/wiki/%C3%85nderdalen_National_Park"
            }
        },
        {
            "type": "Feature",
            "geometry": {
                "type": "Point",
                "coordinates": [
                    9.160833,
                    62.673056
                ]
            },
            "properties": {
                "name": "Ångardsvatnet",
                "article": "https://en.wikipedia.org/wiki/%C3%85ngardsvatnet"
            }
        },
        {
            "type": "Feature",
            "geometry": {
                "type": "Point",
                "coordinates": [
                    10.15277778,
                    63.21472222
                ]
            },
            "properties": {
                "name": "Ånøya",
                "article": null
            }
        },
        {
            "type": "Feature",
            "geometry": {
                "type": "Point",
                "coordinates": [
                    15.03666667,
                    68.28666667
                ]
            },
            "properties": {
                "name": "Årsteinen",
                "article": null
            }
        },
        {
            "type": "Feature",
            "geometry": {
                "type": "Point",
                "coordinates": [
                    10.4675,
                    59.348888888
                ]
            },
            "properties": {
                "name": "Åsgårdstrand",
                "article": "https://en.wikipedia.org/wiki/%C3%85sg%C3%A5rdstrand"
            }
        },
        {
            "type": "Feature",
            "geometry": {
                "type": "Point",
                "coordinates": [
                    12.216666666,
                    66.233333333
                ]
            },
            "properties": {
                "name": "Åsvær",
                "article": "https://en.wikipedia.org/wiki/%C3%85sv%C3%A6r"
            }
        },
        {
            "type": "Feature",
            "geometry": {
                "type": "Point",
                "coordinates": [
                    8.65371,
                    58.5295
                ]
            },
            "properties": {
                "name": "Froland Station",
                "article": "https://en.wikipedia.org/wiki/Froland_Station"
            }
        },
        {
            "type": "Feature",
            "geometry": {
                "type": "Point",
                "coordinates": [
                    7.94993,
                    59.04772
                ]
            },
            "properties": {
                "name": "Birtevatn",
                "article": null
            }
        },
        {
            "type": "Feature",
            "geometry": {
                "type": "Point",
                "coordinates": [
                    14.905833333,
                    68.565555555
                ]
            },
            "properties": {
                "name": "Stokmarknes",
                "article": "https://en.wikipedia.org/wiki/Stokmarknes"
            }
        },
        {
            "type": "Feature",
            "geometry": {
                "type": "Point",
                "coordinates": [
                    10.75111111,
                    59.91083333
                ]
            },
            "properties": {
                "name": "Oslo East Station",
                "article": null
            }
        },
        {
            "type": "Feature",
            "geometry": {
                "type": "Point",
                "coordinates": [
                    10.34049444,
                    59.74559722
                ]
            },
            "properties": {
                "name": "Spikkestad station",
                "article": "https://en.wikipedia.org/wiki/Spikkestad_Station"
            }
        },
        {
            "type": "Feature",
            "geometry": {
                "type": "Point",
                "coordinates": [
                    11.163333333,
                    59.857222222
                ]
            },
            "properties": {
                "name": "Øyeren",
                "article": "https://en.wikipedia.org/wiki/%C3%98yeren"
            }
        },
        {
            "type": "Feature",
            "geometry": {
                "type": "Point",
                "coordinates": [
                    30.205555555,
                    78.988888888
                ]
            },
            "properties": {
                "name": "Abeløya",
                "article": "https://en.wikipedia.org/wiki/Abel_Island"
            }
        },
        {
            "type": "Feature",
            "geometry": {
                "type": "Point",
                "coordinates": [
                    9.747105555,
                    61.595211111
                ]
            },
            "properties": {
                "name": "Vinstra Station",
                "article": "https://en.wikipedia.org/wiki/Vinstra_Station"
            }
        },
        {
            "type": "Feature",
            "geometry": {
                "type": "Point",
                "coordinates": [
                    9.70144167,
                    61.66493056
                ]
            },
            "properties": {
                "name": "Kvam Station",
                "article": "https://en.wikipedia.org/wiki/Kvam_Station"
            }
        },
        {
            "type": "Feature",
            "geometry": {
                "type": "Point",
                "coordinates": [
                    10.45297222,
                    59.30972222
                ]
            },
            "properties": {
                "name": "Oseberg tumulus",
                "article": null
            }
        },
        {
            "type": "Feature",
            "geometry": {
                "type": "Point",
                "coordinates": [
                    21.45,
                    78.416666666
                ]
            },
            "properties": {
                "name": "Barentsøya",
                "article": "https://en.wikipedia.org/wiki/Barents%C3%B8ya"
            }
        },
        {
            "type": "Feature",
            "geometry": {
                "type": "Point",
                "coordinates": [
                    6.078333333,
                    62.557777777
                ]
            },
            "properties": {
                "name": "Vigra",
                "article": "https://en.wikipedia.org/wiki/Vigra_(island)"
            }
        },
        {
            "type": "Feature",
            "geometry": {
                "type": "Point",
                "coordinates": [
                    5.495,
                    62.329722222
                ]
            },
            "properties": {
                "name": "Skorpa",
                "article": "https://en.wikipedia.org/wiki/Skorpa,_M%C3%B8re_og_Romsdal"
            }
        },
        {
            "type": "Feature",
            "geometry": {
                "type": "Point",
                "coordinates": [
                    14.29673,
                    68.18853
                ]
            },
            "properties": {
                "name": "Vågakallen",
                "article": "https://en.wikipedia.org/wiki/V%C3%A5gakallen"
            }
        },
        {
            "type": "Feature",
            "geometry": {
                "type": "Point",
                "coordinates": [
                    5.3869,
                    60.3775
                ]
            },
            "properties": {
                "name": "Ulriken",
                "article": "https://en.wikipedia.org/wiki/Ulriken"
            }
        },
        {
            "type": "Feature",
            "geometry": {
                "type": "Point",
                "coordinates": [
                    8.53852222,
                    62.19218056
                ]
            },
            "properties": {
                "name": "Lesjaverk Station",
                "article": "https://en.wikipedia.org/wiki/Lesjaverk_Station"
            }
        },
        {
            "type": "Feature",
            "geometry": {
                "type": "Point",
                "coordinates": [
                    8.554444444,
                    61.651944444
                ]
            },
            "properties": {
                "name": "Glittertind",
                "article": "https://en.wikipedia.org/wiki/Glittertind"
            }
        },
        {
            "type": "Feature",
            "geometry": {
                "type": "Point",
                "coordinates": [
                    8.853699,
                    62.118672
                ]
            },
            "properties": {
                "name": "Lesja Station",
                "article": "https://en.wikipedia.org/wiki/Lesja_Station"
            }
        },
        {
            "type": "Feature",
            "geometry": {
                "type": "Point",
                "coordinates": [
                    5.495,
                    62.329722222
                ]
            },
            "properties": {
                "name": "Skorpa",
                "article": "https://en.wikipedia.org/wiki/Skorpa,_M%C3%B8re_og_Romsdal"
            }
        },
        {
            "type": "Feature",
            "geometry": {
                "type": "Point",
                "coordinates": [
                    14.29673,
                    68.18853
                ]
            },
            "properties": {
                "name": "Vågakallen",
                "article": "https://en.wikipedia.org/wiki/V%C3%A5gakallen"
            }
        },
        {
            "type": "Feature",
            "geometry": {
                "type": "Point",
                "coordinates": [
                    5.3869,
                    60.3775
                ]
            },
            "properties": {
                "name": "Ulriken",
                "article": "https://en.wikipedia.org/wiki/Ulriken"
            }
        },
        {
            "type": "Feature",
            "geometry": {
                "type": "Point",
                "coordinates": [
                    8.53852222,
                    62.19218056
                ]
            },
            "properties": {
                "name": "Lesjaverk Station",
                "article": "https://en.wikipedia.org/wiki/Lesjaverk_Station"
            }
        },
        {
            "type": "Feature",
            "geometry": {
                "type": "Point",
                "coordinates": [
                    8.301944444,
                    61.615277777
                ]
            },
            "properties": {
                "name": "Store Tverråtinden",
                "article": "https://en.wikipedia.org/wiki/Store_Tverr%C3%A5tinden"
            }
        },
        {
            "type": "Feature",
            "geometry": {
                "type": "Point",
                "coordinates": [
                    6.016666666,
                    59.266666666
                ]
            },
            "properties": {
                "name": "Ombo",
                "article": "https://en.wikipedia.org/wiki/Ombo"
            }
        },
        {
            "type": "Feature",
            "geometry": {
                "type": "Point",
                "coordinates": [
                    5.733333333,
                    62.233333333
                ]
            },
            "properties": {
                "name": "Gurskøya",
                "article": "https://en.wikipedia.org/wiki/Gursk%C3%B8ya"
            }
        },
        {
            "type": "Feature",
            "geometry": {
                "type": "Point",
                "coordinates": [
                    5.552777777,
                    62.350833333
                ]
            },
            "properties": {
                "name": "Nerlandsøya",
                "article": "https://en.wikipedia.org/wiki/Nerlands%C3%B8ya"
            }
        },
        {
            "type": "Feature",
            "geometry": {
                "type": "Point",
                "coordinates": [
                    5.709166666,
                    62.346111111
                ]
            },
            "properties": {
                "name": "Leinøya",
                "article": "https://en.wikipedia.org/wiki/Lein%C3%B8ya"
            }
        },
        {
            "type": "Feature",
            "geometry": {
                "type": "Point",
                "coordinates": [
                    5.63305556,
                    62.34138889
                ]
            },
            "properties": {
                "name": "Bergsøya",
                "article": "https://en.wikipedia.org/wiki/Bergs%C3%B8ya,_Her%C3%B8y"
            }
        },
        {
            "type": "Feature",
            "geometry": {
                "type": "Point",
                "coordinates": [
                    10.83333,
                    79.75
                ]
            },
            "properties": {
                "name": "Amsterdamøya",
                "article": "https://en.wikipedia.org/wiki/Amsterdam_Island_(Spitsbergen)"
            }
        },
        {
            "type": "Feature",
            "geometry": {
                "type": "Point",
                "coordinates": [
                    25.983055555,
                    70.975833333
                ]
            },
            "properties": {
                "name": "Honningsvåg",
                "article": "https://en.wikipedia.org/wiki/Honningsv%C3%A5g"
            }
        },
        {
            "type": "Feature",
            "geometry": {
                "type": "Point",
                "coordinates": [
                    9.60555556,
                    62.30722222
                ]
            },
            "properties": {
                "name": "Kongsvoll Station",
                "article": "https://en.wikipedia.org/wiki/Kongsvoll_Station"
            }
        },
        {
            "type": "Feature",
            "geometry": {
                "type": "Point",
                "coordinates": [
                    9.541111,
                    62.22
                ]
            },
            "properties": {
                "name": "Hjerkinn Station",
                "article": "https://en.wikipedia.org/wiki/Hjerkinn_Station"
            }
        },
        {
            "type": "Feature",
            "geometry": {
                "type": "Point",
                "coordinates": [
                    10.764364,
                    59.926363
                ]
            },
            "properties": {
                "name": "Dælenenga idrettspark",
                "article": "https://en.wikipedia.org/wiki/D%C3%A6lenenga_idrettspark"
            }
        },
        {
            "type": "Feature",
            "geometry": {
                "type": "Point",
                "coordinates": [
                    15.716666666,
                    69.1
                ]
            },
            "properties": {
                "name": "Andøya",
                "article": "https://en.wikipedia.org/wiki/And%C3%B8ya"
            }
        },
        {
            "type": "Feature",
            "geometry": {
                "type": "Point",
                "coordinates": [
                    5.298885,
                    59.375933
                ]
            },
            "properties": {
                "name": "Q537676",
                "article": null
            }
        },
        {
            "type": "Feature",
            "geometry": {
                "type": "Point",
                "coordinates": [
                    7.5375,
                    59.344444444
                ]
            },
            "properties": {
                "name": "Store Bjørnevatn",
                "article": "https://en.wikipedia.org/wiki/Store_Bj%C3%B8rnevatn"
            }
        },
        {
            "type": "Feature",
            "geometry": {
                "type": "Point",
                "coordinates": [
                    16.779722222,
                    79.153611111
                ]
            },
            "properties": {
                "name": "Perriertoppen",
                "article": "https://en.wikipedia.org/wiki/Perriertoppen"
            }
        },
        {
            "type": "Feature",
            "geometry": {
                "type": "Point",
                "coordinates": [
                    10.85,
                    59.96666667
                ]
            },
            "properties": {
                "name": "Alnsjøen",
                "article": "https://en.wikipedia.org/wiki/Alnsj%C3%B8en"
            }
        },
        {
            "type": "Feature",
            "geometry": {
                "type": "Point",
                "coordinates": [
                    10.394166666,
                    60.390277777
                ]
            },
            "properties": {
                "name": "Randsfjorden",
                "article": "https://en.wikipedia.org/wiki/Randsfjorden"
            }
        },
        {
            "type": "Feature",
            "geometry": {
                "type": "Point",
                "coordinates": [
                    10.5927,
                    59.7009
                ]
            },
            "properties": {
                "name": "Battle of Drøbak Sound",
                "article": "https://en.wikipedia.org/wiki/Battle_of_Dr%C3%B8bak_Sound"
            }
        },
        {
            "type": "Feature",
            "geometry": {
                "type": "Point",
                "coordinates": [
                    8.73197,
                    62.68586
                ]
            },
            "properties": {
                "name": "Trolla",
                "article": "https://en.wikipedia.org/wiki/Trolla_(mountain)"
            }
        },
        {
            "type": "Feature",
            "geometry": {
                "type": "Point",
                "coordinates": [
                    8.68,
                    61.489444444
                ]
            },
            "properties": {
                "name": "Gjende",
                "article": "https://en.wikipedia.org/wiki/Gjende"
            }
        },
        {
            "type": "Feature",
            "geometry": {
                "type": "Point",
                "coordinates": [
                    7.868888888,
                    61.468055555
                ]
            },
            "properties": {
                "name": "Midtre Skagastølstind",
                "article": "https://en.wikipedia.org/wiki/Midtre_Skagast%C3%B8lstind"
            }
        },
        {
            "type": "Feature",
            "geometry": {
                "type": "Point",
                "coordinates": [
                    7.51215833,
                    58.21255
                ]
            },
            "properties": {
                "name": "Marnardal station",
                "article": "https://en.wikipedia.org/wiki/Marnardal_Station"
            }
        },
        {
            "type": "Feature",
            "geometry": {
                "type": "Point",
                "coordinates": [
                    5.998888888,
                    62.468888888
                ]
            },
            "properties": {
                "name": "Godøya",
                "article": "https://en.wikipedia.org/wiki/God%C3%B8ya"
            }
        },
        {
            "type": "Feature",
            "geometry": {
                "type": "Point",
                "coordinates": [
                    10.37777778,
                    63.39194444
                ]
            },
            "properties": {
                "name": "Selsbakk station",
                "article": "https://en.wikipedia.org/wiki/Selsbakk_Station"
            }
        },
        {
            "type": "Feature",
            "geometry": {
                "type": "Point",
                "coordinates": [
                    10.200555555,
                    63.403333333
                ]
            },
            "properties": {
                "name": "Storheia",
                "article": "https://en.wikipedia.org/wiki/Storheia"
            }
        },
        {
            "type": "Feature",
            "geometry": {
                "type": "Point",
                "coordinates": [
                    10.78388889,
                    59.96583333
                ]
            },
            "properties": {
                "name": "Kjelsås Station",
                "article": "https://en.wikipedia.org/wiki/Kjels%C3%A5s_station"
            }
        },
        {
            "type": "Feature",
            "geometry": {
                "type": "Point",
                "coordinates": [
                    9.69333333,
                    62.59277778
                ]
            },
            "properties": {
                "name": "Oppdal Station",
                "article": "https://en.wikipedia.org/wiki/Oppdal_Station"
            }
        },
        {
            "type": "Feature",
            "geometry": {
                "type": "Point",
                "coordinates": [
                    21.33454,
                    79.0228
                ]
            },
            "properties": {
                "name": "Bastianøyane",
                "article": "https://en.wikipedia.org/wiki/Bastian_Islands"
            }
        },
        {
            "type": "Feature",
            "geometry": {
                "type": "Point",
                "coordinates": [
                    21.3411,
                    78.9903
                ]
            },
            "properties": {
                "name": "Bastianøyane",
                "article": "https://en.wikipedia.org/wiki/Bastian_Islands"
            }
        },
        {
            "type": "Feature",
            "geometry": {
                "type": "Point",
                "coordinates": [
                    21.34166667,
                    79.0
                ]
            },
            "properties": {
                "name": "Bastianøyane",
                "article": "https://en.wikipedia.org/wiki/Bastian_Islands"
            }
        },
        {
            "type": "Feature",
            "geometry": {
                "type": "Point",
                "coordinates": [
                    3.350194444,
                    -54.404555555
                ]
            },
            "properties": {
                "name": "Olavtoppen",
                "article": "https://en.wikipedia.org/wiki/Olavtoppen"
            }
        },
        {
            "type": "Feature",
            "geometry": {
                "type": "Point",
                "coordinates": [
                    7.8825,
                    61.463611111
                ]
            },
            "properties": {
                "name": "Sentraltind",
                "article": "https://en.wikipedia.org/wiki/Sentraltind"
            }
        },
        {
            "type": "Feature",
            "geometry": {
                "type": "Point",
                "coordinates": [
                    10.693797222,
                    62.174741666
                ]
            },
            "properties": {
                "name": "Tronfjell",
                "article": "https://en.wikipedia.org/wiki/Tronfjell"
            }
        },
        {
            "type": "Feature",
            "geometry": {
                "type": "Point",
                "coordinates": [
                    6.864722222,
                    59.519166666
                ]
            },
            "properties": {
                "name": "Snønuten",
                "article": "https://en.wikipedia.org/wiki/Sn%C3%B8nuten"
            }
        },
        {
            "type": "Feature",
            "geometry": {
                "type": "Point",
                "coordinates": [
                    7.51416667,
                    59.85138889
                ]
            },
            "properties": {
                "name": "Songavatnet",
                "article": "https://en.wikipedia.org/wiki/Songavatnet"
            }
        },
        {
            "type": "Feature",
            "geometry": {
                "type": "Point",
                "coordinates": [
                    7.54083333,
                    59.84833333
                ]
            },
            "properties": {
                "name": "Songavatnet",
                "article": "https://en.wikipedia.org/wiki/Songavatnet"
            }
        },
        {
            "type": "Feature",
            "geometry": {
                "type": "Point",
                "coordinates": [
                    10.913611111,
                    63.470277777
                ]
            },
            "properties": {
                "name": "Stjørdal station",
                "article": "https://en.wikipedia.org/wiki/Stj%C3%B8rdal_Station"
            }
        },
        {
            "type": "Feature",
            "geometry": {
                "type": "Point",
                "coordinates": [
                    10.69457222,
                    59.88897222
                ]
            },
            "properties": {
                "name": "Nakholmen",
                "article": "https://en.wikipedia.org/wiki/Nakholmen"
            }
        },
        {
            "type": "Feature",
            "geometry": {
                "type": "Point",
                "coordinates": [
                    10.720277777,
                    59.884444444
                ]
            },
            "properties": {
                "name": "Gressholmen",
                "article": "https://en.wikipedia.org/wiki/Gressholmen"
            }
        },
        {
            "type": "Feature",
            "geometry": {
                "type": "Point",
                "coordinates": [
                    18.2135,
                    69.74101
                ]
            },
            "properties": {
                "name": "Sæsøya",
                "article": null
            }
        },
        {
            "type": "Feature",
            "geometry": {
                "type": "Point",
                "coordinates": [
                    10.92760889,
                    59.94810694
                ]
            },
            "properties": {
                "name": "Høybråten Station",
                "article": "https://en.wikipedia.org/wiki/H%C3%B8ybr%C3%A5ten_Station"
            }
        },
        {
            "type": "Feature",
            "geometry": {
                "type": "Point",
                "coordinates": [
                    11.17665833,
                    60.14173889
                ]
            },
            "properties": {
                "name": "Jessheim Station",
                "article": "https://en.wikipedia.org/wiki/Jessheim_Station"
            }
        },
        {
            "type": "Feature",
            "geometry": {
                "type": "Point",
                "coordinates": [
                    26.14988,
                    80.45036
                ]
            },
            "properties": {
                "name": "Foynøya",
                "article": "https://en.wikipedia.org/wiki/Foyn%C3%B8ya"
            }
        },
        {
            "type": "Feature",
            "geometry": {
                "type": "Point",
                "coordinates": [
                    26.155,
                    80.44833333
                ]
            },
            "properties": {
                "name": "Foynøya",
                "article": "https://en.wikipedia.org/wiki/Foyn%C3%B8ya"
            }
        },
        {
            "type": "Feature",
            "geometry": {
                "type": "Point",
                "coordinates": [
                    9.268333333,
                    62.32
                ]
            },
            "properties": {
                "name": "Snøhetta",
                "article": "https://en.wikipedia.org/wiki/Sn%C3%B8hetta"
            }
        },
        {
            "type": "Feature",
            "geometry": {
                "type": "Point",
                "coordinates": [
                    5.116666666,
                    61.933333333
                ]
            },
            "properties": {
                "name": "Måløy",
                "article": "https://en.wikipedia.org/wiki/M%C3%A5l%C3%B8y"
            }
        },
        {
            "type": "Feature",
            "geometry": {
                "type": "Point",
                "coordinates": [
                    5.65,
                    62.4
                ]
            },
            "properties": {
                "name": "Runde",
                "article": "https://en.wikipedia.org/wiki/Runde"
            }
        },
        {
            "type": "Feature",
            "geometry": {
                "type": "Point",
                "coordinates": [
                    9.54138889,
                    61.77055556
                ]
            },
            "properties": {
                "name": "Otta",
                "article": "https://en.wikipedia.org/wiki/Otta,_Norway"
            }
        },
        {
            "type": "Feature",
            "geometry": {
                "type": "Point",
                "coordinates": [
                    11.175277777,
                    60.14
                ]
            },
            "properties": {
                "name": "Jessheim",
                "article": "https://en.wikipedia.org/wiki/Jessheim"
            }
        },
        {
            "type": "Feature",
            "geometry": {
                "type": "Point",
                "coordinates": [
                    8.583055555,
                    59.881111111
                ]
            },
            "properties": {
                "name": "Rjukan",
                "article": "https://en.wikipedia.org/wiki/Rjukan"
            }
        },
        {
            "type": "Feature",
            "geometry": {
                "type": "Point",
                "coordinates": [
                    4.95,
                    60.56666667
                ]
            },
            "properties": {
                "name": "Herdla",
                "article": "https://en.wikipedia.org/wiki/Herdla_(island)"
            }
        },
        {
            "type": "Feature",
            "geometry": {
                "type": "Point",
                "coordinates": [
                    10.62975,
                    59.66333
                ]
            },
            "properties": {
                "name": "Drøbak",
                "article": "https://en.wikipedia.org/wiki/Dr%C3%B8bak"
            }
        },
        {
            "type": "Feature",
            "geometry": {
                "type": "Point",
                "coordinates": [
                    10.633333333,
                    59.666666666
                ]
            },
            "properties": {
                "name": "Drøbak",
                "article": "https://en.wikipedia.org/wiki/Dr%C3%B8bak"
            }
        },
        {
            "type": "Feature",
            "geometry": {
                "type": "Point",
                "coordinates": [
                    12.21196,
                    65.4749
                ]
            },
            "properties": {
                "name": "Brønnøysund",
                "article": "https://en.wikipedia.org/wiki/Br%C3%B8nn%C3%B8ysund"
            }
        },
        {
            "type": "Feature",
            "geometry": {
                "type": "Point",
                "coordinates": [
                    9.6,
                    58.866666666
                ]
            },
            "properties": {
                "name": "Jomfruland",
                "article": "https://en.wikipedia.org/wiki/Jomfruland"
            }
        },
        {
            "type": "Feature",
            "geometry": {
                "type": "Point",
                "coordinates": [
                    12.633333333,
                    66.016666666
                ]
            },
            "properties": {
                "name": "Sandnessjøen",
                "article": "https://en.wikipedia.org/wiki/Sandnessj%C3%B8en"
            }
        },
        {
            "type": "Feature",
            "geometry": {
                "type": "Point",
                "coordinates": [
                    9.75134,
                    61.59496
                ]
            },
            "properties": {
                "name": "Vinstra",
                "article": "https://en.wikipedia.org/wiki/Vinstra"
            }
        },
        {
            "type": "Feature",
            "geometry": {
                "type": "Point",
                "coordinates": [
                    9.75,
                    61.6
                ]
            },
            "properties": {
                "name": "Vinstra",
                "article": "https://en.wikipedia.org/wiki/Vinstra"
            }
        },
        {
            "type": "Feature",
            "geometry": {
                "type": "Point",
                "coordinates": [
                    8.518661,
                    61.348475
                ]
            },
            "properties": {
                "name": "Bygdin",
                "article": "https://en.wikipedia.org/wiki/Bygdin"
            }
        },
        {
            "type": "Feature",
            "geometry": {
                "type": "Point",
                "coordinates": [
                    5.017222222,
                    61.598611111
                ]
            },
            "properties": {
                "name": "Florø",
                "article": "https://en.wikipedia.org/wiki/Flor%C3%B8"
            }
        },
        {
            "type": "Feature",
            "geometry": {
                "type": "Point",
                "coordinates": [
                    6.006666666,
                    58.45
                ]
            },
            "properties": {
                "name": "Egersund",
                "article": "https://en.wikipedia.org/wiki/Egersund"
            }
        },
        {
            "type": "Feature",
            "geometry": {
                "type": "Point",
                "coordinates": [
                    7.203583333,
                    61.791861111
                ]
            },
            "properties": {
                "name": "Lodalskåpa",
                "article": "https://en.wikipedia.org/wiki/Lodalsk%C3%A5pa"
            }
        },
        {
            "type": "Feature",
            "geometry": {
                "type": "Point",
                "coordinates": [
                    16.53138889,
                    68.79888889
                ]
            },
            "properties": {
                "name": "Harstad",
                "article": "https://en.wikipedia.org/wiki/Harstad_(town)"
            }
        },
        {
            "type": "Feature",
            "geometry": {
                "type": "Point",
                "coordinates": [
                    11.4681,
                    60.8767
                ]
            },
            "properties": {
                "name": "Battle of Midtskogen",
                "article": "https://en.wikipedia.org/wiki/Battle_of_Midtskogen"
            }
        },
        {
            "type": "Feature",
            "geometry": {
                "type": "Point",
                "coordinates": [
                    7.871388888,
                    61.461388888
                ]
            },
            "properties": {
                "name": "Store Skagastølstind",
                "article": "https://en.wikipedia.org/wiki/Store_Skagast%C3%B8lstind"
            }
        },
        {
            "type": "Feature",
            "geometry": {
                "type": "Point",
                "coordinates": [
                    5.4,
                    61.5333
                ]
            },
            "properties": {
                "name": "Inste Håsteinen",
                "article": null
            }
        },
        {
            "type": "Feature",
            "geometry": {
                "type": "Point",
                "coordinates": [
                    7.91022,
                    61.46457
                ]
            },
            "properties": {
                "name": "Jervvasstind",
                "article": "https://en.wikipedia.org/wiki/Jervvasstind"
            }
        },
        {
            "type": "Feature",
            "geometry": {
                "type": "Point",
                "coordinates": [
                    7.911111111,
                    61.464722222
                ]
            },
            "properties": {
                "name": "Jervvasstind",
                "article": "https://en.wikipedia.org/wiki/Jervvasstind"
            }
        },
        {
            "type": "Feature",
            "geometry": {
                "type": "Point",
                "coordinates": [
                    10.483889,
                    59.875
                ]
            },
            "properties": {
                "name": "Billingstad station",
                "article": "https://en.wikipedia.org/wiki/Billingstad_station"
            }
        },
        {
            "type": "Feature",
            "geometry": {
                "type": "Point",
                "coordinates": [
                    28.583333333,
                    78.933333333
                ]
            },
            "properties": {
                "name": "Kongsøya",
                "article": "https://en.wikipedia.org/wiki/Kongs%C3%B8ya"
            }
        },
        {
            "type": "Feature",
            "geometry": {
                "type": "Point",
                "coordinates": [
                    28.5,
                    78.75
                ]
            },
            "properties": {
                "name": "Kong Karls Land",
                "article": "https://en.wikipedia.org/wiki/Kong_Karls_Land"
            }
        },
        {
            "type": "Feature",
            "geometry": {
                "type": "Point",
                "coordinates": [
                    12.919444444,
                    66.186666666
                ]
            },
            "properties": {
                "name": "Hugla",
                "article": "https://en.wikipedia.org/wiki/Hugla"
            }
        },
        {
            "type": "Feature",
            "geometry": {
                "type": "Point",
                "coordinates": [
                    12.739166666,
                    66.158888888
                ]
            },
            "properties": {
                "name": "Løkta",
                "article": "https://en.wikipedia.org/wiki/L%C3%B8kta"
            }
        },
        {
            "type": "Feature",
            "geometry": {
                "type": "Point",
                "coordinates": [
                    19.5,
                    68.75
                ]
            },
            "properties": {
                "name": "Njunis",
                "article": "https://en.wikipedia.org/wiki/Njunis"
            }
        },
        {
            "type": "Feature",
            "geometry": {
                "type": "Point",
                "coordinates": [
                    12.7157,
                    66.2465
                ]
            },
            "properties": {
                "name": "Tomma",
                "article": "https://en.wikipedia.org/wiki/Tomma"
            }
        },
        {
            "type": "Feature",
            "geometry": {
                "type": "Point",
                "coordinates": [
                    9.433433333,
                    61.633305555
                ]
            },
            "properties": {
                "name": "Saukampen i Lom",
                "article": "https://en.wikipedia.org/wiki/Saukampen_(Lom)"
            }
        },
        {
            "type": "Feature",
            "geometry": {
                "type": "Point",
                "coordinates": [
                    26.633333333,
                    78.716666666
                ]
            },
            "properties": {
                "name": "Svenskøya",
                "article": "https://en.wikipedia.org/wiki/Svensk%C3%B8ya"
            }
        },
        {
            "type": "Feature",
            "geometry": {
                "type": "Point",
                "coordinates": [
                    11.845833333,
                    61.252777777
                ]
            },
            "properties": {
                "name": "Osensjøen",
                "article": "https://en.wikipedia.org/wiki/Osensj%C3%B8en"
            }
        },
        {
            "type": "Feature",
            "geometry": {
                "type": "Point",
                "coordinates": [
                    9.91222222,
                    59.66638889
                ]
            },
            "properties": {
                "name": "Eikeren",
                "article": "https://en.wikipedia.org/wiki/Eikeren"
            }
        },
        {
            "type": "Feature",
            "geometry": {
                "type": "Point",
                "coordinates": [
                    28.64,
                    78.76
                ]
            },
            "properties": {
                "name": "Tirpitzøya",
                "article": "https://en.wikipedia.org/wiki/Tirpitz%C3%B8ya"
            }
        },
        {
            "type": "Feature",
            "geometry": {
                "type": "Point",
                "coordinates": [
                    7.269166666,
                    62.048611111
                ]
            },
            "properties": {
                "name": "Dalsnibba",
                "article": "https://en.wikipedia.org/wiki/Dalsnibba"
            }
        },
        {
            "type": "Feature",
            "geometry": {
                "type": "Point",
                "coordinates": [
                    10.9,
                    79.666666666
                ]
            },
            "properties": {
                "name": "Danes Island",
                "article": "https://en.wikipedia.org/wiki/Danes_Island"
            }
        },
        {
            "type": "Feature",
            "geometry": {
                "type": "Point",
                "coordinates": [
                    10.9484,
                    63.2312
                ]
            },
            "properties": {
                "name": "Selbusjø",
                "article": "https://en.wikipedia.org/wiki/Selbusj%C3%B8"
            }
        },
        {
            "type": "Feature",
            "geometry": {
                "type": "Point",
                "coordinates": [
                    18.95,
                    69.666666666
                ]
            },
            "properties": {
                "name": "Tromsøya",
                "article": "https://en.wikipedia.org/wiki/Troms%C3%B8ya"
            }
        },
        {
            "type": "Feature",
            "geometry": {
                "type": "Point",
                "coordinates": [
                    18.9498,
                    69.69272
                ]
            },
            "properties": {
                "name": "Tromsøya",
                "article": "https://en.wikipedia.org/wiki/Troms%C3%B8ya"
            }
        },
        {
            "type": "Feature",
            "geometry": {
                "type": "Point",
                "coordinates": [
                    5.118425,
                    61.92865
                ]
            },
            "properties": {
                "name": "Moldøen",
                "article": "https://en.wikipedia.org/wiki/Mold%C3%B8en"
            }
        },
        {
            "type": "Feature",
            "geometry": {
                "type": "Point",
                "coordinates": [
                    5.119166666,
                    61.929444444
                ]
            },
            "properties": {
                "name": "Moldøen",
                "article": "https://en.wikipedia.org/wiki/Mold%C3%B8en"
            }
        },
        {
            "type": "Feature",
            "geometry": {
                "type": "Point",
                "coordinates": [
                    10.526388888,
                    59.89
                ]
            },
            "properties": {
                "name": "Sandvika",
                "article": "https://en.wikipedia.org/wiki/Sandvika"
            }
        },
        {
            "type": "Feature",
            "geometry": {
                "type": "Point",
                "coordinates": [
                    10.29888889,
                    63.19805556
                ]
            },
            "properties": {
                "name": "Ler Station",
                "article": "https://en.wikipedia.org/wiki/Ler_Station"
            }
        },
        {
            "type": "Feature",
            "geometry": {
                "type": "Point",
                "coordinates": [
                    10.22972222,
                    63.10027778
                ]
            },
            "properties": {
                "name": "Hovin Station",
                "article": "https://en.wikipedia.org/wiki/Hovin_Station"
            }
        },
        {
            "type": "Feature",
            "geometry": {
                "type": "Point",
                "coordinates": [
                    10.28083333,
                    63.15194444
                ]
            },
            "properties": {
                "name": "Lundamo Station",
                "article": "https://en.wikipedia.org/wiki/Lundamo_Station"
            }
        },
        {
            "type": "Feature",
            "geometry": {
                "type": "Point",
                "coordinates": [
                    6.98059167,
                    61.15560556
                ]
            },
            "properties": {
                "name": "Fimreite",
                "article": "https://en.wikipedia.org/wiki/Battle_of_Fimreite"
            }
        },
        {
            "type": "Feature",
            "geometry": {
                "type": "Point",
                "coordinates": [
                    8.12191,
                    59.11709
                ]
            },
            "properties": {
                "name": "Fyresvatnet",
                "article": "https://en.wikipedia.org/wiki/Fyresvatnet"
            }
        },
        {
            "type": "Feature",
            "geometry": {
                "type": "Point",
                "coordinates": [
                    6.607222222,
                    58.401666666
                ]
            },
            "properties": {
                "name": "Lundevatnet",
                "article": "https://en.wikipedia.org/wiki/Lundevatn"
            }
        },
        {
            "type": "Feature",
            "geometry": {
                "type": "Point",
                "coordinates": [
                    7.794166666,
                    61.431388888
                ]
            },
            "properties": {
                "name": "Store Austanbottstind",
                "article": "https://en.wikipedia.org/wiki/Store_Austanbotntind"
            }
        },
        {
            "type": "Feature",
            "geometry": {
                "type": "Point",
                "coordinates": [
                    7.79545,
                    61.43186
                ]
            },
            "properties": {
                "name": "Store Austanbottstind",
                "article": "https://en.wikipedia.org/wiki/Store_Austanbotntind"
            }
        },
        {
            "type": "Feature",
            "geometry": {
                "type": "Point",
                "coordinates": [
                    25.116666666,
                    76.55
                ]
            },
            "properties": {
                "name": "Hopen",
                "article": "https://en.wikipedia.org/wiki/Hopen_(Svalbard)"
            }
        },
        {
            "type": "Feature",
            "geometry": {
                "type": "Point",
                "coordinates": [
                    8.29,
                    61.542777777
                ]
            },
            "properties": {
                "name": "Kyrkja",
                "article": "https://en.wikipedia.org/wiki/Kyrkja"
            }
        },
        {
            "type": "Feature",
            "geometry": {
                "type": "Point",
                "coordinates": [
                    32.593611111,
                    80.151388888
                ]
            },
            "properties": {
                "name": "Kvitøya",
                "article": "https://en.wikipedia.org/wiki/Kvit%C3%B8ya"
            }
        },
        {
            "type": "Feature",
            "geometry": {
                "type": "Point",
                "coordinates": [
                    18.591666666,
                    69.735
                ]
            },
            "properties": {
                "name": "Store Blåmann",
                "article": "https://en.wikipedia.org/wiki/Store_Bl%C3%A5mannen"
            }
        },
        {
            "type": "Feature",
            "geometry": {
                "type": "Point",
                "coordinates": [
                    8.096944444,
                    61.384444444
                ]
            },
            "properties": {
                "name": "Falketind",
                "article": "https://en.wikipedia.org/wiki/Falketind"
            }
        },
        {
            "type": "Feature",
            "geometry": {
                "type": "Point",
                "coordinates": [
                    3.40139,
                    -54.39722
                ]
            },
            "properties": {
                "name": "Victoria Terrace",
                "article": null
            }
        },
        {
            "type": "Feature",
            "geometry": {
                "type": "Point",
                "coordinates": [
                    3.2878372,
                    -54.4067993
                ]
            },
            "properties": {
                "name": "Nyrøysa",
                "article": null
            }
        },
        {
            "type": "Feature",
            "geometry": {
                "type": "Point",
                "coordinates": [
                    3.315,
                    -54.4531
                ]
            },
            "properties": {
                "name": "Larsøya",
                "article": "https://en.wikipedia.org/wiki/Lars%C3%B8ya"
            }
        },
        {
            "type": "Feature",
            "geometry": {
                "type": "Point",
                "coordinates": [
                    8.916666666,
                    59.9
                ]
            },
            "properties": {
                "name": "Tinnsjå",
                "article": "https://en.wikipedia.org/wiki/Tinnsj%C3%A5"
            }
        },
        {
            "type": "Feature",
            "geometry": {
                "type": "Point",
                "coordinates": [
                    10.3,
                    60.166666666
                ]
            },
            "properties": {
                "name": "Hønefoss",
                "article": "https://en.wikipedia.org/wiki/H%C3%B8nefoss"
            }
        },
        {
            "type": "Feature",
            "geometry": {
                "type": "Point",
                "coordinates": [
                    11.10361111,
                    60.02305556
                ]
            },
            "properties": {
                "name": "Frogner Station",
                "article": "https://en.wikipedia.org/wiki/Frogner_Station"
            }
        },
        {
            "type": "Feature",
            "geometry": {
                "type": "Point",
                "coordinates": [
                    11.139278,
                    60.074775
                ]
            },
            "properties": {
                "name": "Kløfta Station",
                "article": "https://en.wikipedia.org/wiki/Kl%C3%B8fta_Station"
            }
        },
        {
            "type": "Feature",
            "geometry": {
                "type": "Point",
                "coordinates": [
                    8.798611111,
                    61.295277777
                ]
            },
            "properties": {
                "name": "Bitihorn",
                "article": "https://en.wikipedia.org/wiki/Bitihorn"
            }
        },
        {
            "type": "Feature",
            "geometry": {
                "type": "Point",
                "coordinates": [
                    18.086930555,
                    68.449238888
                ]
            },
            "properties": {
                "name": "Bjørnfjell",
                "article": "https://en.wikipedia.org/wiki/Bj%C3%B8rnfjell,_Nordland"
            }
        },
        {
            "type": "Feature",
            "geometry": {
                "type": "Point",
                "coordinates": [
                    18.08891,
                    68.44907
                ]
            },
            "properties": {
                "name": "Bjørnfjell",
                "article": "https://en.wikipedia.org/wiki/Bj%C3%B8rnfjell,_Nordland"
            }
        },
        {
            "type": "Feature",
            "geometry": {
                "type": "Point",
                "coordinates": [
                    10.98162222,
                    59.94071389
                ]
            },
            "properties": {
                "name": "Fjellhamar Station",
                "article": "https://en.wikipedia.org/wiki/Fjellhamar_Station"
            }
        },
        {
            "type": "Feature",
            "geometry": {
                "type": "Point",
                "coordinates": [
                    11.08638889,
                    59.99972222
                ]
            },
            "properties": {
                "name": "Leirsund Station",
                "article": "https://en.wikipedia.org/wiki/Leirsund_Station"
            }
        },
        {
            "type": "Feature",
            "geometry": {
                "type": "Point",
                "coordinates": [
                    10.96604722,
                    59.93890833
                ]
            },
            "properties": {
                "name": "Hanaborg Station",
                "article": "https://en.wikipedia.org/wiki/Hanaborg_Station"
            }
        },
        {
            "type": "Feature",
            "geometry": {
                "type": "Point",
                "coordinates": [
                    10.835278,
                    59.9325
                ]
            },
            "properties": {
                "name": "Alna Station",
                "article": "https://en.wikipedia.org/wiki/Alna_station"
            }
        },
        {
            "type": "Feature",
            "geometry": {
                "type": "Point",
                "coordinates": [
                    11.002436111,
                    59.950188888
                ]
            },
            "properties": {
                "name": "Strømmen Station",
                "article": "https://en.wikipedia.org/wiki/Str%C3%B8mmen_Station"
            }
        },
        {
            "type": "Feature",
            "geometry": {
                "type": "Point",
                "coordinates": [
                    10.88762222,
                    59.94984444
                ]
            },
            "properties": {
                "name": "Grorud Station",
                "article": "https://en.wikipedia.org/wiki/Grorud_Station"
            }
        },
        {
            "type": "Feature",
            "geometry": {
                "type": "Point",
                "coordinates": [
                    11.01674444,
                    59.95604167
                ]
            },
            "properties": {
                "name": "Sagdalen Station",
                "article": "https://en.wikipedia.org/wiki/Sagdalen_Station"
            }
        },
        {
            "type": "Feature",
            "geometry": {
                "type": "Point",
                "coordinates": [
                    10.8708,
                    59.9437
                ]
            },
            "properties": {
                "name": "Nyland Station",
                "article": "https://en.wikipedia.org/wiki/Nyland_Station"
            }
        },
        {
            "type": "Feature",
            "geometry": {
                "type": "Point",
                "coordinates": [
                    7.77194444,
                    59.3875
                ]
            },
            "properties": {
                "name": "Borsæ",
                "article": null
            }
        },
        {
            "type": "Feature",
            "geometry": {
                "type": "Point",
                "coordinates": [
                    11.35805556,
                    59.11333333
                ]
            },
            "properties": {
                "name": "Brattøya",
                "article": null
            }
        },
        {
            "type": "Feature",
            "geometry": {
                "type": "Point",
                "coordinates": [
                    6.383333333,
                    61.683333333
                ]
            },
            "properties": {
                "name": "Breimsvatnet",
                "article": "https://en.wikipedia.org/wiki/Breimsvatn"
            }
        },
        {
            "type": "Feature",
            "geometry": {
                "type": "Point",
                "coordinates": [
                    6.118888888,
                    62.497222222
                ]
            },
            "properties": {
                "name": "Valderøya",
                "article": "https://en.wikipedia.org/wiki/Valder%C3%B8ya"
            }
        },
        {
            "type": "Feature",
            "geometry": {
                "type": "Point",
                "coordinates": [
                    11.77055556,
                    62.01777778
                ]
            },
            "properties": {
                "name": "Isteren",
                "article": "https://en.wikipedia.org/wiki/Isteren"
            }
        },
        {
            "type": "Feature",
            "geometry": {
                "type": "Point",
                "coordinates": [
                    14.83027778,
                    68.82111111
                ]
            },
            "properties": {
                "name": "Dyrøya",
                "article": "https://en.wikipedia.org/wiki/Dyr%C3%B8ya,_%C3%98ksnes"
            }
        },
        {
            "type": "Feature",
            "geometry": {
                "type": "Point",
                "coordinates": [
                    14.915,
                    68.87638889
                ]
            },
            "properties": {
                "name": "Skogsøya",
                "article": "https://en.wikipedia.org/wiki/Skogs%C3%B8ya"
            }
        },
        {
            "type": "Feature",
            "geometry": {
                "type": "Point",
                "coordinates": [
                    7.901388888,
                    61.464444444
                ]
            },
            "properties": {
                "name": "Store Styggedalstinden",
                "article": "https://en.wikipedia.org/wiki/Store_Styggedalstinden"
            }
        },
        {
            "type": "Feature",
            "geometry": {
                "type": "Point",
                "coordinates": [
                    17.5,
                    69.333333333
                ]
            },
            "properties": {
                "name": "Senja",
                "article": "https://en.wikipedia.org/wiki/Senja"
            }
        },
        {
            "type": "Feature",
            "geometry": {
                "type": "Point",
                "coordinates": [
                    19.191666666,
                    74.423333333
                ]
            },
            "properties": {
                "name": "Miseryfjellet",
                "article": "https://en.wikipedia.org/wiki/Miseryfjellet"
            }
        },
        {
            "type": "Feature",
            "geometry": {
                "type": "Point",
                "coordinates": [
                    8.19638889,
                    61.55
                ]
            },
            "properties": {
                "name": "Stetinden",
                "article": "https://en.wikipedia.org/wiki/Stetinden_(Lom)"
            }
        },
        {
            "type": "Feature",
            "geometry": {
                "type": "Point",
                "coordinates": [
                    8.84888889,
                    59.43611111
                ]
            },
            "properties": {
                "name": "Seljordsvatn",
                "article": "https://en.wikipedia.org/wiki/Seljordsvatnet"
            }
        },
        {
            "type": "Feature",
            "geometry": {
                "type": "Point",
                "coordinates": [
                    11.30972222,
                    61.45222222
                ]
            },
            "properties": {
                "name": "Storsjøen",
                "article": "https://en.wikipedia.org/wiki/Storsj%C3%B8en_(Rendalen)"
            }
        },
        {
            "type": "Feature",
            "geometry": {
                "type": "Point",
                "coordinates": [
                    10.72361111,
                    59.91805556
                ]
            },
            "properties": {
                "name": "Inkognitogata 18",
                "article": "https://en.wikipedia.org/wiki/Inkognitogata_18"
            }
        },
        {
            "type": "Feature",
            "geometry": {
                "type": "Point",
                "coordinates": [
                    11.104444444,
                    60.31
                ]
            },
            "properties": {
                "name": "Hurdalssjøen",
                "article": "https://en.wikipedia.org/wiki/Hurdalsj%C3%B8en"
            }
        },
        {
            "type": "Feature",
            "geometry": {
                "type": "Point",
                "coordinates": [
                    7.068361111,
                    60.195402777
                ]
            },
            "properties": {
                "name": "Hårteigen",
                "article": "https://en.wikipedia.org/wiki/H%C3%A5rteigen"
            }
        },
        {
            "type": "Feature",
            "geometry": {
                "type": "Point",
                "coordinates": [
                    11.35825,
                    62.15927
                ]
            },
            "properties": {
                "name": "Elgpiggen",
                "article": "https://en.wikipedia.org/wiki/Elgspiggen"
            }
        },
        {
            "type": "Feature",
            "geometry": {
                "type": "Point",
                "coordinates": [
                    10.913611111,
                    63.470277777
                ]
            },
            "properties": {
                "name": "Stjørdal station",
                "article": "https://en.wikipedia.org/wiki/Stj%C3%B8rdal_Station"
            }
        },
        {
            "type": "Feature",
            "geometry": {
                "type": "Point",
                "coordinates": [
                    16.53138889,
                    68.79888889
                ]
            },
            "properties": {
                "name": "Harstad",
                "article": "https://en.wikipedia.org/wiki/Harstad_(town)"
            }
        },
        {
            "type": "Feature",
            "geometry": {
                "type": "Point",
                "coordinates": [
                    11.4681,
                    60.8767
                ]
            },
            "properties": {
                "name": "Battle of Midtskogen",
                "article": "https://en.wikipedia.org/wiki/Battle_of_Midtskogen"
            }
        },
        {
            "type": "Feature",
            "geometry": {
                "type": "Point",
                "coordinates": [
                    7.871388888,
                    61.461388888
                ]
            },
            "properties": {
                "name": "Store Skagastølstind",
                "article": "https://en.wikipedia.org/wiki/Store_Skagast%C3%B8lstind"
            }
        },
        {
            "type": "Feature",
            "geometry": {
                "type": "Point",
                "coordinates": [
                    5.4,
                    61.5333
                ]
            },
            "properties": {
                "name": "Inste Håsteinen",
                "article": null
            }
        },
        {
            "type": "Feature",
            "geometry": {
                "type": "Point",
                "coordinates": [
                    7.91022,
                    61.46457
                ]
            },
            "properties": {
                "name": "Jervvasstind",
                "article": "https://en.wikipedia.org/wiki/Jervvasstind"
            }
        },
        {
            "type": "Feature",
            "geometry": {
                "type": "Point",
                "coordinates": [
                    7.911111111,
                    61.464722222
                ]
            },
            "properties": {
                "name": "Jervvasstind",
                "article": "https://en.wikipedia.org/wiki/Jervvasstind"
            }
        },
        {
            "type": "Feature",
            "geometry": {
                "type": "Point",
                "coordinates": [
                    10.483889,
                    59.875
                ]
            },
            "properties": {
                "name": "Billingstad station",
                "article": "https://en.wikipedia.org/wiki/Billingstad_station"
            }
        },
        {
            "type": "Feature",
            "geometry": {
                "type": "Point",
                "coordinates": [
                    28.583333333,
                    78.933333333
                ]
            },
            "properties": {
                "name": "Kongsøya",
                "article": "https://en.wikipedia.org/wiki/Kongs%C3%B8ya"
            }
        },
        {
            "type": "Feature",
            "geometry": {
                "type": "Point",
                "coordinates": [
                    28.5,
                    78.75
                ]
            },
            "properties": {
                "name": "Kong Karls Land",
                "article": "https://en.wikipedia.org/wiki/Kong_Karls_Land"
            }
        },
        {
            "type": "Feature",
            "geometry": {
                "type": "Point",
                "coordinates": [
                    12.919444444,
                    66.186666666
                ]
            },
            "properties": {
                "name": "Hugla",
                "article": "https://en.wikipedia.org/wiki/Hugla"
            }
        },
        {
            "type": "Feature",
            "geometry": {
                "type": "Point",
                "coordinates": [
                    12.739166666,
                    66.158888888
                ]
            },
            "properties": {
                "name": "Løkta",
                "article": "https://en.wikipedia.org/wiki/L%C3%B8kta"
            }
        },
        {
            "type": "Feature",
            "geometry": {
                "type": "Point",
                "coordinates": [
                    19.5,
                    68.75
                ]
            },
            "properties": {
                "name": "Njunis",
                "article": "https://en.wikipedia.org/wiki/Njunis"
            }
        },
        {
            "type": "Feature",
            "geometry": {
                "type": "Point",
                "coordinates": [
                    12.7157,
                    66.2465
                ]
            },
            "properties": {
                "name": "Tomma",
                "article": "https://en.wikipedia.org/wiki/Tomma"
            }
        },
        {
            "type": "Feature",
            "geometry": {
                "type": "Point",
                "coordinates": [
                    9.433433333,
                    61.633305555
                ]
            },
            "properties": {
                "name": "Saukampen i Lom",
                "article": "https://en.wikipedia.org/wiki/Saukampen_(Lom)"
            }
        },
        {
            "type": "Feature",
            "geometry": {
                "type": "Point",
                "coordinates": [
                    26.633333333,
                    78.716666666
                ]
            },
            "properties": {
                "name": "Svenskøya",
                "article": "https://en.wikipedia.org/wiki/Svensk%C3%B8ya"
            }
        },
        {
            "type": "Feature",
            "geometry": {
                "type": "Point",
                "coordinates": [
                    11.845833333,
                    61.252777777
                ]
            },