{
    "type": "FeatureCollection",
    "features": [
        {
            "type": "Feature",
            "geometry": {
                "type": "Point",
                "coordinates": [
                    72.689027777,
                    33.819486111
                ]
            },
            "properties": {
                "name": "Hasan Abdal",
                "article": "https://en.wikipedia.org/wiki/Hasan_Abdal"
            }
        },
        {
            "type": "Feature",
            "geometry": {
                "type": "Point",
                "coordinates": [
                    73.0679,
                    33.6007
                ]
            },
            "properties": {
                "name": "Rawalpindi",
                "article": "https://en.wikipedia.org/wiki/Rawalpindi"
            }
        },
        {
            "type": "Feature",
            "geometry": {
                "type": "Point",
                "coordinates": [
                    68.282222222,
                    25.428333333
                ]
            },
            "properties": {
                "name": "Jamshoro",
                "article": "https://en.wikipedia.org/wiki/Jamshoro"
            }
        },
        {
            "type": "Feature",
            "geometry": {
                "type": "Point",
                "coordinates": [
                    71.945833333,
                    34.320833333
                ]
            },
            "properties": {
                "name": "Takht-i-Bahi",
                "article": "https://en.wikipedia.org/wiki/Takht-i-Bahi"
            }
        },
        {
            "type": "Feature",
            "geometry": {
                "type": "Point",
                "coordinates": [
                    73.72637,
                    32.93313
                ]
            },
            "properties": {
                "name": "Jhelum",
                "article": "https://en.wikipedia.org/wiki/Jhelum"
            }
        },
        {
            "type": "Feature",
            "geometry": {
                "type": "Point",
                "coordinates": [
                    73.733333333,
                    32.933333333
                ]
            },
            "properties": {
                "name": "Jhelum",
                "article": "https://en.wikipedia.org/wiki/Jhelum"
            }
        },
        {
            "type": "Feature",
            "geometry": {
                "type": "Point",
                "coordinates": [
                    70.066666666,
                    33.0
                ]
            },
            "properties": {
                "name": "Miranshah",
                "article": "https://en.wikipedia.org/wiki/Miranshah"
            }
        },
        {
            "type": "Feature",
            "geometry": {
                "type": "Point",
                "coordinates": [
                    74.59,
                    35.239166666
                ]
            },
            "properties": {
                "name": "Nanga Parbat",
                "article": "https://en.wikipedia.org/wiki/Nanga_Parbat"
            }
        },
        {
            "type": "Feature",
            "geometry": {
                "type": "Point",
                "coordinates": [
                    72.7875,
                    33.745833333
                ]
            },
            "properties": {
                "name": "Taxila",
                "article": "https://en.wikipedia.org/wiki/Taxila"
            }
        },
        {
            "type": "Feature",
            "geometry": {
                "type": "Point",
                "coordinates": [
                    73.216666666,
                    34.15
                ]
            },
            "properties": {
                "name": "Abbottabad",
                "article": "https://en.wikipedia.org/wiki/Abbottabad"
            }
        },
        {
            "type": "Feature",
            "geometry": {
                "type": "Point",
                "coordinates": [
                    73.079,
                    31.418
                ]
            },
            "properties": {
                "name": "Faisalabad",
                "article": "https://en.wikipedia.org/wiki/Faisalabad"
            }
        },
        {
            "type": "Feature",
            "geometry": {
                "type": "Point",
                "coordinates": [
                    76.568055555,
                    35.810555555
                ]
            },
            "properties": {
                "name": "Broad Peak",
                "article": "https://en.wikipedia.org/wiki/Broad_Peak"
            }
        },
        {
            "type": "Feature",
            "geometry": {
                "type": "Point",
                "coordinates": [
                    71.471111111,
                    30.197777777
                ]
            },
            "properties": {
                "name": "Multan",
                "article": "https://en.wikipedia.org/wiki/Multan"
            }
        },
        {
            "type": "Feature",
            "geometry": {
                "type": "Point",
                "coordinates": [
                    67.007,
                    30.192
                ]
            },
            "properties": {
                "name": "Quetta",
                "article": "https://en.wikipedia.org/wiki/Quetta"
            }
        },
        {
            "type": "Feature",
            "geometry": {
                "type": "Point",
                "coordinates": [
                    72.866666666,
                    30.633333333
                ]
            },
            "properties": {
                "name": "Harappa",
                "article": "https://en.wikipedia.org/wiki/Harappa"
            }
        },
        {
            "type": "Feature",
            "geometry": {
                "type": "Point",
                "coordinates": [
                    76.652777777,
                    35.7575
                ]
            },
            "properties": {
                "name": "Gasherbrum II",
                "article": "https://en.wikipedia.org/wiki/Gasherbrum_II"
            }
        },
        {
            "type": "Feature",
            "geometry": {
                "type": "Point",
                "coordinates": [
                    76.696388888,
                    35.724444444
                ]
            },
            "properties": {
                "name": "Gasherbrum",
                "article": "https://en.wikipedia.org/wiki/Gasherbrum_I"
            }
        },
        {
            "type": "Feature",
            "geometry": {
                "type": "Point",
                "coordinates": [
                    71.843888888,
                    36.245833333
                ]
            },
            "properties": {
                "name": "Terich Mir",
                "article": "https://en.wikipedia.org/wiki/Terich_Mir"
            }
        },
        {
            "type": "Feature",
            "geometry": {
                "type": "Point",
                "coordinates": [
                    67.670833,
                    29.2125
                ]
            },
            "properties": {
                "name": "Mehrgarh",
                "article": "https://en.wikipedia.org/wiki/Mehrgarh"
            }
        },
        {
            "type": "Feature",
            "geometry": {
                "type": "Point",
                "coordinates": [
                    74.183333333,
                    32.15
                ]
            },
            "properties": {
                "name": "Gujranwala",
                "article": "https://en.wikipedia.org/wiki/Gujranwala"
            }
        },
        {
            "type": "Feature",
            "geometry": {
                "type": "Point",
                "coordinates": [
                    67.651111111,
                    29.475277777
                ]
            },
            "properties": {
                "name": "Dhadar",
                "article": "https://en.wikipedia.org/wiki/Dhadar"
            }
        },
        {
            "type": "Feature",
            "geometry": {
                "type": "Point",
                "coordinates": [
                    71.828333333,
                    36.431666666
                ]
            },
            "properties": {
                "name": "Noshaq",
                "article": "https://en.wikipedia.org/wiki/Noshaq"
            }
        },
        {
            "type": "Feature",
            "geometry": {
                "type": "Point",
                "coordinates": [
                    74.587777777,
                    36.487777777
                ]
            },
            "properties": {
                "name": "Passu Sar",
                "article": "https://en.wikipedia.org/wiki/Passu_Sar"
            }
        },
        {
            "type": "Feature",
            "geometry": {
                "type": "Point",
                "coordinates": [
                    71.193333333,
                    30.070277777
                ]
            },
            "properties": {
                "name": "Muzaffargarh",
                "article": "https://en.wikipedia.org/wiki/Muzaffargarh"
            }
        },
        {
            "type": "Feature",
            "geometry": {
                "type": "Point",
                "coordinates": [
                    74.716666666,
                    36.276111111
                ]
            },
            "properties": {
                "name": "Nagarkhas",
                "article": "https://en.wikipedia.org/wiki/Nagarkhas"
            }
        },
        {
            "type": "Feature",
            "geometry": {
                "type": "Point",
                "coordinates": [
                    71.672222222,
                    29.395555555
                ]
            },
            "properties": {
                "name": "Bahawalpur",
                "article": "https://en.wikipedia.org/wiki/Bahawalpur"
            }
        },
        {
            "type": "Feature",
            "geometry": {
                "type": "Point",
                "coordinates": [
                    73.240555555,
                    36.730833333
                ]
            },
            "properties": {
                "name": "Koyo Zom",
                "article": "https://en.wikipedia.org/wiki/Koyo_Zom"
            }
        },
        {
            "type": "Feature",
            "geometry": {
                "type": "Point",
                "coordinates": [
                    72.961111111,
                    31.063888888
                ]
            },
            "properties": {
                "name": "Samundri",
                "article": "https://en.wikipedia.org/wiki/Samundri"
            }
        },
        {
            "type": "Feature",
            "geometry": {
                "type": "Point",
                "coordinates": [
                    72.357222222,
                    34.75
                ]
            },
            "properties": {
                "name": "Saidu Sharif",
                "article": "https://en.wikipedia.org/wiki/Saidu_Sharif"
            }
        },
        {
            "type": "Feature",
            "geometry": {
                "type": "Point",
                "coordinates": [
                    72.23166667,
                    36.6725
                ]
            },
            "properties": {
                "name": "Akher Tsagh",
                "article": null
            }
        },
        {
            "type": "Feature",
            "geometry": {
                "type": "Point",
                "coordinates": [
                    73.21234,
                    32.55362
                ]
            },
            "properties": {
                "name": "Malakwal",
                "article": "https://en.wikipedia.org/wiki/Malakwal"
            }
        },
        {
            "type": "Feature",
            "geometry": {
                "type": "Point",
                "coordinates": [
                    67.92361111,
                    25.90972222
                ]
            },
            "properties": {
                "name": "Amri",
                "article": "https://en.wikipedia.org/wiki/Amri,_Sindh"
            }
        },
        {
            "type": "Feature",
            "geometry": {
                "type": "Point",
                "coordinates": [
                    67.521983,
                    24.752229
                ]
            },
            "properties": {
                "name": "Banbhore",
                "article": "https://en.wikipedia.org/wiki/Banbhore"
            }
        },
        {
            "type": "Feature",
            "geometry": {
                "type": "Point",
                "coordinates": [
                    76.410277777,
                    35.591666666
                ]
            },
            "properties": {
                "name": "Laila Peak",
                "article": "https://en.wikipedia.org/wiki/Laila_Peak_(Hushe_Valley)"
            }
        },
        {
            "type": "Feature",
            "geometry": {
                "type": "Point",
                "coordinates": [
                    72.933333333,
                    33.994166666
                ]
            },
            "properties": {
                "name": "Haripur",
                "article": "https://en.wikipedia.org/wiki/Haripur,_Pakistan"
            }
        },
        {
            "type": "Feature",
            "geometry": {
                "type": "Point",
                "coordinates": [
                    76.667191,
                    35.754392
                ]
            },
            "properties": {
                "name": "Gasherbrum II East",
                "article": null
            }
        },
        {
            "type": "Feature",
            "geometry": {
                "type": "Point",
                "coordinates": [
                    73.694166666,
                    34.876666666
                ]
            },
            "properties": {
                "name": "Lake Saiful Muluk",
                "article": "https://en.wikipedia.org/wiki/Lake_Saiful_Muluk"
            }
        },
        {
            "type": "Feature",
            "geometry": {
                "type": "Point",
                "coordinates": [
                    73.106388888,
                    30.670555555
                ]
            },
            "properties": {
                "name": "Sahiwal",
                "article": "https://en.wikipedia.org/wiki/Sahiwal"
            }
        },
        {
            "type": "Feature",
            "geometry": {
                "type": "Point",
                "coordinates": [
                    71.061111111,
                    29.239444444
                ]
            },
            "properties": {
                "name": "Uch",
                "article": "https://en.wikipedia.org/wiki/Uch"
            }
        },
        {
            "type": "Feature",
            "geometry": {
                "type": "Point",
                "coordinates": [
                    74.3290015,
                    31.5582766
                ]
            },
            "properties": {
                "name": "Alhamra Arts Council",
                "article": "https://en.wikipedia.org/wiki/Alhamra_Arts_Council"
            }
        },
        {
            "type": "Feature",
            "geometry": {
                "type": "Point",
                "coordinates": [
                    76.48,
                    35.7
                ]
            },
            "properties": {
                "name": "Mitre Peak",
                "article": "https://en.wikipedia.org/wiki/Mitre_Peak,_Pakistan"
            }
        },
        {
            "type": "Feature",
            "geometry": {
                "type": "Point",
                "coordinates": [
                    62.3225,
                    25.126388888
                ]
            },
            "properties": {
                "name": "Gwadar",
                "article": "https://en.wikipedia.org/wiki/Gwadar"
            }
        },
        {
            "type": "Feature",
            "geometry": {
                "type": "Point",
                "coordinates": [
                    74.661111111,
                    36.327777777
                ]
            },
            "properties": {
                "name": "Karimabad",
                "article": "https://en.wikipedia.org/wiki/Karimabad,_Gilgit-Baltistan"
            }
        },
        {
            "type": "Feature",
            "geometry": {
                "type": "Point",
                "coordinates": [
                    74.314444444,
                    35.920833333
                ]
            },
            "properties": {
                "name": "Gilgit",
                "article": "https://en.wikipedia.org/wiki/Gilgit"
            }
        },
        {
            "type": "Feature",
            "geometry": {
                "type": "Point",
                "coordinates": [
                    76.630833333,
                    35.708333333
                ]
            },
            "properties": {
                "name": "Gasherbrum VI",
                "article": "https://en.wikipedia.org/wiki/Gasherbrum_VI"
            }
        },
        {
            "type": "Feature",
            "geometry": {
                "type": "Point",
                "coordinates": [
                    76.63144,
                    35.70854
                ]
            },
            "properties": {
                "name": "Gasherbrum VI",
                "article": "https://en.wikipedia.org/wiki/Gasherbrum_VI"
            }
        },
        {
            "type": "Feature",
            "geometry": {
                "type": "Point",
                "coordinates": [
                    71.736,
                    34.168
                ]
            },
            "properties": {
                "name": "Pushkalavati",
                "article": "https://en.wikipedia.org/wiki/Pushkalavati"
            }
        },
        {
            "type": "Feature",
            "geometry": {
                "type": "Point",
                "coordinates": [
                    68.138888888,
                    27.329166666
                ]
            },
            "properties": {
                "name": "Mohenjo-daro",
                "article": "https://en.wikipedia.org/wiki/Mohenjo-daro"
            }
        },
        {
            "type": "Feature",
            "geometry": {
                "type": "Point",
                "coordinates": [
                    74.343611111,
                    31.549722222
                ]
            },
            "properties": {
                "name": "Lahore",
                "article": "https://en.wikipedia.org/wiki/Lahore"
            }
        },
        {
            "type": "Feature",
            "geometry": {
                "type": "Point",
                "coordinates": [
                    67.924336111,
                    24.746116666
                ]
            },
            "properties": {
                "name": "Thatta",
                "article": "https://en.wikipedia.org/wiki/Thatta"
            }
        },
        {
            "type": "Feature",
            "geometry": {
                "type": "Point",
                "coordinates": [
                    69.483333333,
                    28.133333333
                ]
            },
            "properties": {
                "name": "Rohri",
                "article": "https://en.wikipedia.org/wiki/Rohri"
            }
        },
        {
            "type": "Feature",
            "geometry": {
                "type": "Point",
                "coordinates": [
                    76.513333333,
                    35.881111111
                ]
            },
            "properties": {
                "name": "K2",
                "article": "https://en.wikipedia.org/wiki/K2"
            }
        },
        {
            "type": "Feature",
            "geometry": {
                "type": "Point",
                "coordinates": [
                    74.65,
                    36.37
                ]
            },
            "properties": {
                "name": "Ladyfinger Peak",
                "article": "https://en.wikipedia.org/wiki/Ladyfinger_Peak"
            }
        },
        {
            "type": "Feature",
            "geometry": {
                "type": "Point",
                "coordinates": [
                    73.977777777,
                    33.813888888
                ]
            },
            "properties": {
                "name": "Abbaspur",
                "article": "https://en.wikipedia.org/wiki/Abbaspur_Tehsil"
            }
        },
        {
            "type": "Feature",
            "geometry": {
                "type": "Point",
                "coordinates": [
                    73.014166666,
                    34.498333333
                ]
            },
            "properties": {
                "name": "Oghi",
                "article": "https://en.wikipedia.org/wiki/Oghi,_Pakistan"
            }
        },
        {
            "type": "Feature",
            "geometry": {
                "type": "Point",
                "coordinates": [
                    68.122777777,
                    26.842222222
                ]
            },
            "properties": {
                "name": "Naushahro Feroze",
                "article": "https://en.wikipedia.org/wiki/Naushahro_Feroze"
            }
        },
        {
            "type": "Feature",
            "geometry": {
                "type": "Point",
                "coordinates": [
                    70.945555555,
                    30.965277777
                ]
            },
            "properties": {
                "name": "Layyah",
                "article": "https://en.wikipedia.org/wiki/Layyah"
            }
        },
        {
            "type": "Feature",
            "geometry": {
                "type": "Point",
                "coordinates": [
                    67.329722222,
                    29.863611111
                ]
            },
            "properties": {
                "name": "Mach",
                "article": "https://en.wikipedia.org/wiki/Machh"
            }
        },
        {
            "type": "Feature",
            "geometry": {
                "type": "Point",
                "coordinates": [
                    74.533333333,
                    32.5
                ]
            },
            "properties": {
                "name": "Sialkot",
                "article": "https://en.wikipedia.org/wiki/Sialkot"
            }
        },
        {
            "type": "Feature",
            "geometry": {
                "type": "Point",
                "coordinates": [
                    76.9828,
                    35.5989
                ]
            },
            "properties": {
                "name": "Singhi Kangri",
                "article": "https://en.wikipedia.org/wiki/Singhi_Kangri"
            }
        },
        {
            "type": "Feature",
            "geometry": {
                "type": "Point",
                "coordinates": [
                    76.9825,
                    35.6001
                ]
            },
            "properties": {
                "name": "Singhi Kangri",
                "article": "https://en.wikipedia.org/wiki/Singhi_Kangri"
            }
        },
        {
            "type": "Feature",
            "geometry": {
                "type": "Point",
                "coordinates": [
                    71.875555555,
                    35.205833333
                ]
            },
            "properties": {
                "name": "Dir",
                "article": "https://en.wikipedia.org/wiki/Dir_(city)"
            }
        },
        {
            "type": "Feature",
            "geometry": {
                "type": "Point",
                "coordinates": [
                    75.03524167,
                    36.31900556
                ]
            },
            "properties": {
                "name": "Momhil Sar",
                "article": "https://en.wikipedia.org/wiki/Momhil_Sar"
            }
        },
        {
            "type": "Feature",
            "geometry": {
                "type": "Point",
                "coordinates": [
                    75.0375,
                    36.317777777
                ]
            },
            "properties": {
                "name": "Momhil Sar",
                "article": "https://en.wikipedia.org/wiki/Momhil_Sar"
            }
        },
        {
            "type": "Feature",
            "geometry": {
                "type": "Point",
                "coordinates": [
                    68.226388888,
                    27.56
                ]
            },
            "properties": {
                "name": "Larkana",
                "article": "https://en.wikipedia.org/wiki/Larkana"
            }
        },
        {
            "type": "Feature",
            "geometry": {
                "type": "Point",
                "coordinates": [
                    71.933333333,
                    32.533333333
                ]
            },
            "properties": {
                "name": "Sakaser",
                "article": "https://en.wikipedia.org/wiki/Sakaser"
            }
        },
        {
            "type": "Feature",
            "geometry": {
                "type": "Point",
                "coordinates": [
                    73.495277777,
                    34.573888888
                ]
            },
            "properties": {
                "name": "Makra Peak",
                "article": "https://en.wikipedia.org/wiki/Makra_Peak"
            }
        },
        {
            "type": "Feature",
            "geometry": {
                "type": "Point",
                "coordinates": [
                    63.471666666,
                    25.265277777
                ]
            },
            "properties": {
                "name": "Pasni",
                "article": "https://en.wikipedia.org/wiki/Pasni_(city)"
            }
        },
        {
            "type": "Feature",
            "geometry": {
                "type": "Point",
                "coordinates": [
                    76.847516666,
                    35.399578333
                ]
            },
            "properties": {
                "name": "Saltoro Kangri",
                "article": "https://en.wikipedia.org/wiki/Saltoro_Kangri"
            }
        },
        {
            "type": "Feature",
            "geometry": {
                "type": "Point",
                "coordinates": [
                    74.86753333,
                    36.33683889
                ]
            },
            "properties": {
                "name": "Attabad Lake",
                "article": "https://en.wikipedia.org/wiki/Attabad_Lake"
            }
        },
        {
            "type": "Feature",
            "geometry": {
                "type": "Point",
                "coordinates": [
                    75.188333333,
                    36.325833333
                ]
            },
            "properties": {
                "name": "Distaghil Sar",
                "article": "https://en.wikipedia.org/wiki/Distaghil_Sar"
            }
        },
        {
            "type": "Feature",
            "geometry": {
                "type": "Point",
                "coordinates": [
                    72.7,
                    32.783333333
                ]
            },
            "properties": {
                "name": "Kallar Kahar",
                "article": "https://en.wikipedia.org/wiki/Kallar_Kahar"
            }
        },
        {
            "type": "Feature",
            "geometry": {
                "type": "Point",
                "coordinates": [
                    76.66975,
                    35.647969444
                ]
            },
            "properties": {
                "name": "Baltoro Kangri",
                "article": "https://en.wikipedia.org/wiki/Baltoro_Kangri"
            }
        },
        {
            "type": "Feature",
            "geometry": {
                "type": "Point",
                "coordinates": [
                    70.605555555,
                    32.988888888
                ]
            },
            "properties": {
                "name": "Bannu",
                "article": "https://en.wikipedia.org/wiki/Bannu"
            }
        },
        {
            "type": "Feature",
            "geometry": {
                "type": "Point",
                "coordinates": [
                    74.5225,
                    36.51
                ]
            },
            "properties": {
                "name": "Batura Sar",
                "article": "https://en.wikipedia.org/wiki/Batura_Sar"
            }
        },
        {
            "type": "Feature",
            "geometry": {
                "type": "Point",
                "coordinates": [
                    66.310555555,
                    26.226666666
                ]
            },
            "properties": {
                "name": "Bela",
                "article": "https://en.wikipedia.org/wiki/Bela,_Pakistan"
            }
        },
        {
            "type": "Feature",
            "geometry": {
                "type": "Point",
                "coordinates": [
                    71.281111111,
                    32.674722222
                ]
            },
            "properties": {
                "name": "Isakhel",
                "article": "https://en.wikipedia.org/wiki/Isakhel"
            }
        },
        {
            "type": "Feature",
            "geometry": {
                "type": "Point",
                "coordinates": [
                    76.615833333,
                    35.759166666
                ]
            },
            "properties": {
                "name": "Gasherbrum IV",
                "article": "https://en.wikipedia.org/wiki/Gasherbrum_IV"
            }
        },
        {
            "type": "Feature",
            "geometry": {
                "type": "Point",
                "coordinates": [
                    76.761388888,
                    35.663611111
                ]
            },
            "properties": {
                "name": "Sia Kangri",
                "article": "https://en.wikipedia.org/wiki/Sia_Kangri"
            }
        },
        {
            "type": "Feature",
            "geometry": {
                "type": "Point",
                "coordinates": [
                    76.310833333,
                    35.6425
                ]
            },
            "properties": {
                "name": "Masherbrum",
                "article": "https://en.wikipedia.org/wiki/Masherbrum"
            }
        },
        {
            "type": "Feature",
            "geometry": {
                "type": "Point",
                "coordinates": [
                    72.648333333,
                    31.566388888
                ]
            },
            "properties": {
                "name": "Bhawana",
                "article": "https://en.wikipedia.org/wiki/Bhawana"
            }
        },
        {
            "type": "Feature",
            "geometry": {
                "type": "Point",
                "coordinates": [
                    72.82138889,
                    33.74333333
                ]
            },
            "properties": {
                "name": "Bhir Mound",
                "article": "https://en.wikipedia.org/wiki/Bhir_Mound"
            }
        },
        {
            "type": "Feature",
            "geometry": {
                "type": "Point",
                "coordinates": [
                    76.23972222,
                    35.80416667
                ]
            },
            "properties": {
                "name": "Biale",
                "article": null
            }
        },
        {
            "type": "Feature",
            "geometry": {
                "type": "Point",
                "coordinates": [
                    72.671111111,
                    32.083611111
                ]
            },
            "properties": {
                "name": "Sargodha",
                "article": "https://en.wikipedia.org/wiki/Sargodha"
            }
        },
        {
            "type": "Feature",
            "geometry": {
                "type": "Point",
                "coordinates": [
                    72.7,
                    31.95
                ]
            },
            "properties": {
                "name": "Kirana Hills",
                "article": "https://en.wikipedia.org/wiki/Kirana_Hills_Site"
            }
        },
        {
            "type": "Feature",
            "geometry": {
                "type": "Point",
                "coordinates": [
                    76.567222222,
                    35.926666666
                ]
            },
            "properties": {
                "name": "Skyang Kangri",
                "article": "https://en.wikipedia.org/wiki/Skyang_Kangri"
            }
        },
        {
            "type": "Feature",
            "geometry": {
                "type": "Point",
                "coordinates": [
                    68.867286111,
                    27.699522222
                ]
            },
            "properties": {
                "name": "Sukkur",
                "article": "https://en.wikipedia.org/wiki/Sukkur"
            }
        },
        {
            "type": "Feature",
            "geometry": {
                "type": "Point",
                "coordinates": [
                    74.691944444,
                    36.399722222
                ]
            },
            "properties": {
                "name": "Bojohagur Duanasir",
                "article": "https://en.wikipedia.org/wiki/Bojohagur_Duanasir"
            }
        },
        {
            "type": "Feature",
            "geometry": {
                "type": "Point",
                "coordinates": [
                    68.00103,
                    27.58676
                ]
            },
            "properties": {
                "name": "Qambar",
                "article": "https://en.wikipedia.org/wiki/Qambar"
            }
        },
        {
            "type": "Feature",
            "geometry": {
                "type": "Point",
                "coordinates": [
                    74.078888888,
                    32.573611111
                ]
            },
            "properties": {
                "name": "Gujrat",
                "article": "https://en.wikipedia.org/wiki/Gujrat,_Pakistan"
            }
        },
        {
            "type": "Feature",
            "geometry": {
                "type": "Point",
                "coordinates": [
                    74.489166666,
                    36.1425
                ]
            },
            "properties": {
                "name": "Rakaposhi",
                "article": "https://en.wikipedia.org/wiki/Rakaposhi"
            }
        },
        {
            "type": "Feature",
            "geometry": {
                "type": "Point",
                "coordinates": [
                    74.88975,
                    36.170638888
                ]
            },
            "properties": {
                "name": "Rush Peak",
                "article": "https://en.wikipedia.org/wiki/Rush_Peak"
            }
        },
        {
            "type": "Feature",
            "geometry": {
                "type": "Point",
                "coordinates": [
                    74.897777777,
                    35.841388888
                ]
            },
            "properties": {
                "name": "Haramosh Peak",
                "article": "https://en.wikipedia.org/wiki/Haramosh_Peak"
            }
        },
        {
            "type": "Feature",
            "geometry": {
                "type": "Point",
                "coordinates": [
                    71.101944444,
                    34.121111111
                ]
            },
            "properties": {
                "name": "Torkham",
                "article": "https://en.wikipedia.org/wiki/Torkham"
            }
        },
        {
            "type": "Feature",
            "geometry": {
                "type": "Point",
                "coordinates": [
                    74.203305555,
                    32.641944444
                ]
            },
            "properties": {
                "name": "Jalalpur Jattan",
                "article": "https://en.wikipedia.org/wiki/Jalalpur_Jattan"
            }
        },
        {
            "type": "Feature",
            "geometry": {
                "type": "Point",
                "coordinates": [
                    73.459722222,
                    30.81
                ]
            },
            "properties": {
                "name": "Okara",
                "article": "https://en.wikipedia.org/wiki/Okara,_Pakistan"
            }
        },
        {
            "type": "Feature",
            "geometry": {
                "type": "Point",
                "coordinates": [
                    74.0,
                    31.708333333
                ]
            },
            "properties": {
                "name": "Sheikhupura",
                "article": "https://en.wikipedia.org/wiki/Sheikhupura"
            }
        },
        {
            "type": "Feature",
            "geometry": {
                "type": "Point",
                "coordinates": [
                    75.616666666,
                    35.3
                ]
            },
            "properties": {
                "name": "Skardu",
                "article": "https://en.wikipedia.org/wiki/Skardu"
            }
        },
        {
            "type": "Feature",
            "geometry": {
                "type": "Point",
                "coordinates": [
                    66.731944444,
                    25.119444444
                ]
            },
            "properties": {
                "name": "Gadani",
                "article": "https://en.wikipedia.org/wiki/Gadani"
            }
        },
        {
            "type": "Feature",
            "geometry": {
                "type": "Point",
                "coordinates": [
                    74.45,
                    31.116666666
                ]
            },
            "properties": {
                "name": "Kasur",
                "article": "https://en.wikipedia.org/wiki/Kasur"
            }
        },
        {
            "type": "Feature",
            "geometry": {
                "type": "Point",
                "coordinates": [
                    70.303333333,
                    28.420555555
                ]
            },
            "properties": {
                "name": "Rahim Yar Khan",
                "article": "https://en.wikipedia.org/wiki/Rahim_Yar_Khan"
            }
        },
        {
            "type": "Feature",
            "geometry": {
                "type": "Point",
                "coordinates": [
                    72.044722222,
                    34.195833333
                ]
            },
            "properties": {
                "name": "Mardan",
                "article": "https://en.wikipedia.org/wiki/Mardan"
            }
        },
        {
            "type": "Feature",
            "geometry": {
                "type": "Point",
                "coordinates": [
                    70.633333333,
                    30.05
                ]
            },
            "properties": {
                "name": "Dera Ghazi Khan",
                "article": "https://en.wikipedia.org/wiki/Dera_Ghazi_Khan"
            }
        },
        {
            "type": "Feature",
            "geometry": {
                "type": "Point",
                "coordinates": [
                    68.71666667,
                    27.35
                ]
            },
            "properties": {
                "name": "Kot Diji",
                "article": "https://en.wikipedia.org/wiki/Kot_Diji"
            }
        },
        {
            "type": "Feature",
            "geometry": {
                "type": "Point",
                "coordinates": [
                    68.41,
                    26.244166666
                ]
            },
            "properties": {
                "name": "Nawabshah",
                "article": "https://en.wikipedia.org/wiki/Nawabshah"
            }
        },
        {
            "type": "Feature",
            "geometry": {
                "type": "Point",
                "coordinates": [
                    66.45975,
                    30.92102
                ]
            },
            "properties": {
                "name": "Chaman",
                "article": "https://en.wikipedia.org/wiki/Chaman"
            }
        },
        {
            "type": "Feature",
            "geometry": {
                "type": "Point",
                "coordinates": [
                    72.983333333,
                    31.716666666
                ]
            },
            "properties": {
                "name": "Chiniot",
                "article": "https://en.wikipedia.org/wiki/Chiniot"
            }
        },
        {
            "type": "Feature",
            "geometry": {
                "type": "Point",
                "coordinates": [
                    68.451388888,
                    28.276944444
                ]
            },
            "properties": {
                "name": "Jacobabad",
                "article": "https://en.wikipedia.org/wiki/Jacobabad"
            }
        },
        {
            "type": "Feature",
            "geometry": {
                "type": "Point",
                "coordinates": [
                    73.3903,
                    33.9042
                ]
            },
            "properties": {
                "name": "Murree",
                "article": "https://en.wikipedia.org/wiki/Murree"
            }
        },
        {
            "type": "Feature",
            "geometry": {
                "type": "Point",
                "coordinates": [
                    69.011111111,
                    25.526944444
                ]
            },
            "properties": {
                "name": "Mirpur Khas",
                "article": "https://en.wikipedia.org/wiki/Mirpur_Khas"
            }
        },
        {
            "type": "Feature",
            "geometry": {
                "type": "Point",
                "coordinates": [
                    74.114166666,
                    32.441111111
                ]
            },
            "properties": {
                "name": "Wazirabad",
                "article": "https://en.wikipedia.org/wiki/Wazirabad"
            }
        },
        {
            "type": "Feature",
            "geometry": {
                "type": "Point",
                "coordinates": [
                    72.318055555,
                    31.268055555
                ]
            },
            "properties": {
                "name": "Jhang",
                "article": "https://en.wikipedia.org/wiki/Jhang"
            }
        },
        {
            "type": "Feature",
            "geometry": {
                "type": "Point",
                "coordinates": [
                    70.100833333,
                    33.899166666
                ]
            },
            "properties": {
                "name": "Parachinar",
                "article": "https://en.wikipedia.org/wiki/Parachinar"
            }
        },
        {
            "type": "Feature",
            "geometry": {
                "type": "Point",
                "coordinates": [
                    69.588888888,
                    32.305
                ]
            },
            "properties": {
                "name": "Wana",
                "article": "https://en.wikipedia.org/wiki/Wanna,_Pakistan"
            }
        },
        {
            "type": "Feature",
            "geometry": {
                "type": "Point",
                "coordinates": [
                    76.574444444,
                    35.610555555
                ]
            },
            "properties": {
                "name": "Chogolisa",
                "article": "https://en.wikipedia.org/wiki/Chogolisa"
            }
        },
        {
            "type": "Feature",
            "geometry": {
                "type": "Point",
                "coordinates": [
                    68.32305556,
                    26.17361111
                ]
            },
            "properties": {
                "name": "Chāñhu-daro",
                "article": "https://en.wikipedia.org/wiki/Chanhudaro"
            }
        },
        {
            "type": "Feature",
            "geometry": {
                "type": "Point",
                "coordinates": [
                    72.916666666,
                    31.75
                ]
            },
            "properties": {
                "name": "Rabwah",
                "article": "https://en.wikipedia.org/wiki/Rabwah"
            }
        },
        {
            "type": "Feature",
            "geometry": {
                "type": "Point",
                "coordinates": [
                    67.775,
                    26.731944444
                ]
            },
            "properties": {
                "name": "Dadu",
                "article": "https://en.wikipedia.org/wiki/Dadu,_Sindh"
            }
        },
        {
            "type": "Feature",
            "geometry": {
                "type": "Point",
                "coordinates": [
                    71.5675,
                    34.014444444
                ]
            },
            "properties": {
                "name": "Peshawar",
                "article": "https://en.wikipedia.org/wiki/Peshawar"
            }
        },
        {
            "type": "Feature",
            "geometry": {
                "type": "Point",
                "coordinates": [
                    76.641944444,
                    35.759444444
                ]
            },
            "properties": {
                "name": "Gasherbrum III",
                "article": "https://en.wikipedia.org/wiki/Gasherbrum_III"
            }
        },
        {
            "type": "Feature",
            "geometry": {
                "type": "Point",
                "coordinates": [
                    69.748888888,
                    32.905277777
                ]
            },
            "properties": {
                "name": "Datta Khel",
                "article": "https://en.wikipedia.org/wiki/Datakhel"
            }
        },
        {
            "type": "Feature",
            "geometry": {
                "type": "Point",
                "coordinates": [
                    68.766666666,
                    27.533333333
                ]
            },
            "properties": {
                "name": "Khairpur",
                "article": "https://en.wikipedia.org/wiki/Khairpur"
            }
        },
        {
            "type": "Feature",
            "geometry": {
                "type": "Point",
                "coordinates": [
                    71.441388888,
                    33.586944444
                ]
            },
            "properties": {
                "name": "Kohat",
                "article": "https://en.wikipedia.org/wiki/Kohat"
            }
        },
        {
            "type": "Feature",
            "geometry": {
                "type": "Point",
                "coordinates": [
                    73.601111111,
                    33.028333333
                ]
            },
            "properties": {
                "name": "Dina",
                "article": "https://en.wikipedia.org/wiki/Dina,_Pakistan"
            }
        },
        {
            "type": "Feature",
            "geometry": {
                "type": "Point",
                "coordinates": [
                    74.666666666,
                    36.116666666
                ]
            },
            "properties": {
                "name": "Diran",
                "article": "https://en.wikipedia.org/wiki/Diran"
            }
        },
        {
            "type": "Feature",
            "geometry": {
                "type": "Point",
                "coordinates": [
                    74.9625,
                    35.95666667
                ]
            },
            "properties": {
                "name": "Laila Peak",
                "article": "https://en.wikipedia.org/wiki/Laila_Peak_(Haramosh_Valley)"
            }
        },
        {
            "type": "Feature",
            "geometry": {
                "type": "Point",
                "coordinates": [
                    71.633333333,
                    29.538333333
                ]
            },
            "properties": {
                "name": "Lodhran",
                "article": "https://en.wikipedia.org/wiki/Lodhran"
            }
        },
        {
            "type": "Feature",
            "geometry": {
                "type": "Point",
                "coordinates": [
                    73.4,
                    30.35
                ]
            },
            "properties": {
                "name": "Pakpattan",
                "article": "https://en.wikipedia.org/wiki/Pakpattan"
            }
        },
        {
            "type": "Feature",
            "geometry": {
                "type": "Point",
                "coordinates": [
                    70.916666666,
                    31.816666666
                ]
            },
            "properties": {
                "name": "Dera Ismail Khan",
                "article": "https://en.wikipedia.org/wiki/Dera_Ismail_Khan"
            }
        },
        {
            "type": "Feature",
            "geometry": {
                "type": "Point",
                "coordinates": [
                    73.253611111,
                    29.994444444
                ]
            },
            "properties": {
                "name": "Bahawalnagar",
                "article": "https://en.wikipedia.org/wiki/Bahawalnagar"
            }
        },
        {
            "type": "Feature",
            "geometry": {
                "type": "Point",
                "coordinates": [
                    72.35,
                    32.291666666
                ]
            },
            "properties": {
                "name": "Khushab",
                "article": "https://en.wikipedia.org/wiki/Khushab"
            }
        },
        {
            "type": "Feature",
            "geometry": {
                "type": "Point",
                "coordinates": [
                    72.683333333,
                    31.15
                ]
            },
            "properties": {
                "name": "Gojra",
                "article": "https://en.wikipedia.org/wiki/Gojra"
            }
        },
        {
            "type": "Feature",
            "geometry": {
                "type": "Point",
                "coordinates": [
                    72.683333333,
                    30.15
                ]
            },
            "properties": {
                "name": "Burewala",
                "article": "https://en.wikipedia.org/wiki/Burewala"
            }
        },
        {
            "type": "Feature",
            "geometry": {
                "type": "Point",
                "coordinates": [
                    70.6567,
                    28.64534
                ]
            },
            "properties": {
                "name": "Khanpur",
                "article": "https://en.wikipedia.org/wiki/Khanpur,_Rahim_Yar_Khan"
            }
        },
        {
            "type": "Feature",
            "geometry": {
                "type": "Point",
                "coordinates": [
                    70.661995,
                    28.647135
                ]
            },
            "properties": {
                "name": "Khanpur",
                "article": "https://en.wikipedia.org/wiki/Khanpur,_Rahim_Yar_Khan"
            }
        },
        {
            "type": "Feature",
            "geometry": {
                "type": "Point",
                "coordinates": [
                    66.616666666,
                    27.8
                ]
            },
            "properties": {
                "name": "Khuzdar",
                "article": "https://en.wikipedia.org/wiki/Khuzdar"
            }
        },
        {
            "type": "Feature",
            "geometry": {
                "type": "Point",
                "coordinates": [
                    71.261666666,
                    29.145277777
                ]
            },
            "properties": {
                "name": "Ahmedpur East",
                "article": "https://en.wikipedia.org/wiki/Ahmedpur_East"
            }
        },
        {
            "type": "Feature",
            "geometry": {
                "type": "Point",
                "coordinates": [
                    72.857777777,
                    29.795833333
                ]
            },
            "properties": {
                "name": "Chishtian",
                "article": "https://en.wikipedia.org/wiki/Chishtian"
            }
        },
        {
            "type": "Feature",
            "geometry": {
                "type": "Point",
                "coordinates": [
                    68.716666666,
                    25.466666666
                ]
            },
            "properties": {
                "name": "Tando Allahyar",
                "article": "https://en.wikipedia.org/wiki/Tando_Allahyar"
            }
        },
        {
            "type": "Feature",
            "geometry": {
                "type": "Point",
                "coordinates": [
                    73.419444444,
                    31.334166666
                ]
            },
            "properties": {
                "name": "Jaranwala",
                "article": "https://en.wikipedia.org/wiki/Jaranwala"
            }
        },
        {
            "type": "Feature",
            "geometry": {
                "type": "Point",
                "coordinates": [
                    72.352777777,
                    30.041944444
                ]
            },
            "properties": {
                "name": "Vehari",
                "article": "https://en.wikipedia.org/wiki/Vehari"
            }
        },
        {
            "type": "Feature",
            "geometry": {
                "type": "Point",
                "coordinates": [
                    72.725277777,
                    33.789166666
                ]
            },
            "properties": {
                "name": "Wah Cantonment",
                "article": "https://en.wikipedia.org/wiki/Wah_Cantonment"
            }
        },
        {
            "type": "Feature",
            "geometry": {
                "type": "Point",
                "coordinates": [
                    72.85,
                    32.93
                ]
            },
            "properties": {
                "name": "Chakwal",
                "article": "https://en.wikipedia.org/wiki/Chakwal"
            }
        },
        {
            "type": "Feature",
            "geometry": {
                "type": "Point",
                "coordinates": [
                    73.491666666,
                    32.586111111
                ]
            },
            "properties": {
                "name": "Mandi Bahauddin",
                "article": "https://en.wikipedia.org/wiki/Mandi_Bahauddin"
            }
        },
        {
            "type": "Feature",
            "geometry": {
                "type": "Point",
                "coordinates": [
                    73.683333333,
                    32.066666666
                ]
            },
            "properties": {
                "name": "Hafizabad",
                "article": "https://en.wikipedia.org/wiki/Hafizabad"
            }
        },
        {
            "type": "Feature",
            "geometry": {
                "type": "Point",
                "coordinates": [
                    70.964444444,
                    30.47
                ]
            },
            "properties": {
                "name": "Kot Addu",
                "article": "https://en.wikipedia.org/wiki/Kot_Addu,_Pakistan"
            }
        },
        {
            "type": "Feature",
            "geometry": {
                "type": "Point",
                "coordinates": [
                    76.5975,
                    35.4475
                ]
            },
            "properties": {
                "name": "Link Sar",
                "article": "https://en.wikipedia.org/wiki/Link_Sar"
            }
        },
        {
            "type": "Feature",
            "geometry": {
                "type": "Point",
                "coordinates": [
                    72.82916667,
                    33.75611111
                ]
            },
            "properties": {
                "name": "Sirkap",
                "article": "https://en.wikipedia.org/wiki/Sirkap"
            }
        },
        {
            "type": "Feature",
            "geometry": {
                "type": "Point",
                "coordinates": [
                    73.41666667,
                    32.83333333
                ]
            },
            "properties": {
                "name": "Tilla Jogian",
                "article": "https://en.wikipedia.org/wiki/Tilla_Jogian"
            }
        },
        {
            "type": "Feature",
            "geometry": {
                "type": "Point",
                "coordinates": [
                    74.957983333,
                    36.057319444
                ]
            },
            "properties": {
                "name": "Spantik",
                "article": "https://en.wikipedia.org/wiki/Spantik"
            }
        },
        {
            "type": "Feature",
            "geometry": {
                "type": "Point",
                "coordinates": [
                    76.60805556,
                    35.73694444
                ]
            },
            "properties": {
                "name": "Q1392413",
                "article": null
            }
        },
        {
            "type": "Feature",
            "geometry": {
                "type": "Point",
                "coordinates": [
                    77.0783,
                    35.58
                ]
            },
            "properties": {
                "name": "Teram Kangri",
                "article": "https://en.wikipedia.org/wiki/Teram_Kangri"
            }
        },
        {
            "type": "Feature",
            "geometry": {
                "type": "Point",
                "coordinates": [
                    71.889166666,
                    36.386944444
                ]
            },
            "properties": {
                "name": "Istor-o-Nal",
                "article": "https://en.wikipedia.org/wiki/Istor-o-Nal"
            }
        },
        {
            "type": "Feature",
            "geometry": {
                "type": "Point",
                "coordinates": [
                    75.6389,
                    35.3039
                ]
            },
            "properties": {
                "name": "Skardu Fort",
                "article": "https://en.wikipedia.org/wiki/Skardu_Fort"
            }
        },
        {
            "type": "Feature",
            "geometry": {
                "type": "Point",
                "coordinates": [
                    75.83916667,
                    35.92055556
                ]
            },
            "properties": {
                "name": "Q1439947",
                "article": null
            }
        },
        {
            "type": "Feature",
            "geometry": {
                "type": "Point",
                "coordinates": [
                    75.207777777,
                    36.205277777
                ]
            },
            "properties": {
                "name": "Khunyang Chhish",
                "article": "https://en.wikipedia.org/wiki/Kunyang_Chhish"
            }
        },
        {
            "type": "Feature",
            "geometry": {
                "type": "Point",
                "coordinates": [
                    76.59861111,
                    35.73916667
                ]
            },
            "properties": {
                "name": "Q1495139",
                "article": null
            }
        },
        {
            "type": "Feature",
            "geometry": {
                "type": "Point",
                "coordinates": [
                    76.6125,
                    35.729722222
                ]
            },
            "properties": {
                "name": "Gasherbrum V",
                "article": "https://en.wikipedia.org/wiki/Gasherbrum_V"
            }
        },
        {
            "type": "Feature",
            "geometry": {
                "type": "Point",
                "coordinates": [
                    76.360833333,
                    35.828333333
                ]
            },
            "properties": {
                "name": "Muztagh Tower",
                "article": "https://en.wikipedia.org/wiki/Muztagh_Tower"
            }
        },
        {
            "type": "Feature",
            "geometry": {
                "type": "Point",
                "coordinates": [
                    71.950688888,
                    34.255475
                ]
            },
            "properties": {
                "name": "Seri Bahlol",
                "article": "https://en.wikipedia.org/wiki/Seri_Bahlol"
            }
        },
        {
            "type": "Feature",
            "geometry": {
                "type": "Point",
                "coordinates": [
                    75.80138889,
                    35.91805556
                ]
            },
            "properties": {
                "name": "Latok II",
                "article": null
            }
        },
        {
            "type": "Feature",
            "geometry": {
                "type": "Point",
                "coordinates": [
                    71.553,
                    32.966
                ]
            },
            "properties": {
                "name": "Kalabagh",
                "article": "https://en.wikipedia.org/wiki/Kalabagh"
            }
        },
        {
            "type": "Feature",
            "geometry": {
                "type": "Point",
                "coordinates": [
                    71.55697,
                    32.965
                ]
            },
            "properties": {
                "name": "Kalabagh",
                "article": "https://en.wikipedia.org/wiki/Kalabagh"
            }
        },
        {
            "type": "Feature",
            "geometry": {
                "type": "Point",
                "coordinates": [
                    76.18333333,
                    35.76666667
                ]
            },
            "properties": {
                "name": "Great Trango Tower",
                "article": null
            }
        },
        {
            "type": "Feature",
            "geometry": {
                "type": "Point",
                "coordinates": [
                    74.681666666,
                    36.44
                ]
            },
            "properties": {
                "name": "Shispare",
                "article": "https://en.wikipedia.org/wiki/Shispare"
            }
        },
        {
            "type": "Feature",
            "geometry": {
                "type": "Point",
                "coordinates": [
                    75.418333333,
                    36.205
                ]
            },
            "properties": {
                "name": "Kanjut Sar",
                "article": "https://en.wikipedia.org/wiki/Kanjut_Sar"
            }
        },
        {
            "type": "Feature",
            "geometry": {
                "type": "Point",
                "coordinates": [
                    75.375,
                    36.25
                ]
            },
            "properties": {
                "name": "Yukshin Gardan Sar",
                "article": "https://en.wikipedia.org/wiki/Yukshin_Gardan_Sar"
            }
        },
        {
            "type": "Feature",
            "geometry": {
                "type": "Point",
                "coordinates": [
                    63.41666667,
                    25.3
                ]
            },
            "properties": {
                "name": "Sokhta Koh",
                "article": "https://en.wikipedia.org/wiki/Sokhta_Koh"
            }
        },
        {
            "type": "Feature",
            "geometry": {
                "type": "Point",
                "coordinates": [
                    71.057222222,
                    33.528055555
                ]
            },
            "properties": {
                "name": "Hangu",
                "article": "https://en.wikipedia.org/wiki/Hangu,_Pakistan"
            }
        },
        {
            "type": "Feature",
            "geometry": {
                "type": "Point",
                "coordinates": [
                    76.55166667,
                    35.41833333
                ]
            },
            "properties": {
                "name": "K6",
                "article": "https://en.wikipedia.org/wiki/K6_(mountain)"
            }
        },
        {
            "type": "Feature",
            "geometry": {
                "type": "Point",
                "coordinates": [
                    75.023055555,
                    36.348055555
                ]
            },
            "properties": {
                "name": "Lupghar Sar",
                "article": "https://en.wikipedia.org/wiki/Lupghar_Sar"
            }
        },
        {
            "type": "Feature",
            "geometry": {
                "type": "Point",
                "coordinates": [
                    74.65,
                    36.37
                ]
            },
            "properties": {
                "name": "Hunza Peak",
                "article": "https://en.wikipedia.org/wiki/Hunza_Peak"
            }
        },
        {
            "type": "Feature",
            "geometry": {
                "type": "Point",
                "coordinates": [
                    68.368333333,
                    25.379166666
                ]
            },
            "properties": {
                "name": "Hyderabad",
                "article": "https://en.wikipedia.org/wiki/Hyderabad,_Sindh"
            }
        },
        {
            "type": "Feature",
            "geometry": {
                "type": "Point",
                "coordinates": [
                    71.730833333,
                    34.145277777
                ]
            },
            "properties": {
                "name": "Charsadda",
                "article": "https://en.wikipedia.org/wiki/Charsadda"
            }
        },
        {
            "type": "Feature",
            "geometry": {
                "type": "Point",
                "coordinates": [
                    76.116666666,
                    35.733333333
                ]
            },
            "properties": {
                "name": "Uli Biaho",
                "article": "https://en.wikipedia.org/wiki/Uli_Biaho"
            }
        },
        {
            "type": "Feature",
            "geometry": {
                "type": "Point",
                "coordinates": [
                    74.628888888,
                    35.686944444
                ]
            },
            "properties": {
                "name": "Juglot",
                "article": "https://en.wikipedia.org/wiki/Juglot"
            }
        },
        {
            "type": "Feature",
            "geometry": {
                "type": "Point",
                "coordinates": [
                    76.57611111,
                    35.46472222
                ]
            },
            "properties": {
                "name": "Q1718347",
                "article": null
            }
        },
        {
            "type": "Feature",
            "geometry": {
                "type": "Point",
                "coordinates": [
                    75.440213,
                    36.140046
                ]
            },
            "properties": {
                "name": "Kanjut Sar II",
                "article": null
            }
        },
        {
            "type": "Feature",
            "geometry": {
                "type": "Point",
                "coordinates": [
                    75.44003,
                    36.14037
                ]
            },
            "properties": {
                "name": "Kanjut Sar II",
                "article": null
            }
        },
        {
            "type": "Feature",
            "geometry": {
                "type": "Point",
                "coordinates": [
                    76.344722222,
                    35.163611111
                ]
            },
            "properties": {
                "name": "Khaplu",
                "article": "https://en.wikipedia.org/wiki/Khaplu"
            }
        },
        {
            "type": "Feature",
            "geometry": {
                "type": "Point",
                "coordinates": [
                    71.516666666,
                    34.733333333
                ]
            },
            "properties": {
                "name": "Khaar",
                "article": "https://en.wikipedia.org/wiki/Khar,_Bajaur"
            }
        },
        {
            "type": "Feature",
            "geometry": {
                "type": "Point",
                "coordinates": [
                    65.416666666,
                    28.583333333
                ]
            },
            "properties": {
                "name": "Kharan",
                "article": "https://en.wikipedia.org/wiki/Kharan,_Pakistan"
            }
        },
        {
            "type": "Feature",
            "geometry": {
                "type": "Point",
                "coordinates": [
                    71.9989,
                    34.0049
                ]
            },
            "properties": {
                "name": "Risalpur",
                "article": "https://en.wikipedia.org/wiki/Risalpur"
            }
        },
        {
            "type": "Feature",
            "geometry": {
                "type": "Point",
                "coordinates": [
                    75.823333333,
                    35.928611111
                ]
            },
            "properties": {
                "name": "Latok",
                "article": "https://en.wikipedia.org/wiki/Latok_group"
            }
        },
        {
            "type": "Feature",
            "geometry": {
                "type": "Point",
                "coordinates": [
                    71.145555555,
                    34.101111111
                ]
            },
            "properties": {
                "name": "Landi Kotal",
                "article": "https://en.wikipedia.org/wiki/Landi_Kotal"
            }
        },
        {
            "type": "Feature",
            "geometry": {
                "type": "Point",
                "coordinates": [
                    74.900833333,
                    36.038888888
                ]
            },
            "properties": {
                "name": "Malubiting",
                "article": "https://en.wikipedia.org/wiki/Malubiting"
            }
        },
        {
            "type": "Feature",
            "geometry": {
                "type": "Point",
                "coordinates": [
                    75.82333333,
                    35.92861111
                ]
            },
            "properties": {
                "name": "Latok I",
                "article": null
            }
        },
        {
            "type": "Feature",
            "geometry": {
                "type": "Point",
                "coordinates": [
                    75.86917877,
                    35.89461277
                ]
            },
            "properties": {
                "name": "Q1807001",
                "article": null
            }
        },
        {
            "type": "Feature",
            "geometry": {
                "type": "Point",
                "coordinates": [
                    75.252777777,
                    36.211111111
                ]
            },
            "properties": {
                "name": "Pumari Chhish",
                "article": "https://en.wikipedia.org/wiki/Pumari_Chhish"
            }
        },
        {
            "type": "Feature",
            "geometry": {
                "type": "Point",
                "coordinates": [
                    75.58611111,
                    36.0
                ]
            },
            "properties": {
                "name": "Q1877106",
                "article": null
            }
        },
        {
            "type": "Feature",
            "geometry": {
                "type": "Point",
                "coordinates": [
                    75.753611111,
                    35.947777777
                ]
            },
            "properties": {
                "name": "Baintha Brakk",
                "article": "https://en.wikipedia.org/wiki/Baintha_Brakk"
            }
        },
        {
            "type": "Feature",
            "geometry": {
                "type": "Point",
                "coordinates": [
                    72.19222222,
                    32.29222222
                ]
            },
            "properties": {
                "name": "Hadali",
                "article": "https://en.wikipedia.org/wiki/Hadali"
            }
        },
        {
            "type": "Feature",
            "geometry": {
                "type": "Point",
                "coordinates": [
                    67.725833333,
                    30.381388888
                ]
            },
            "properties": {
                "name": "Ziarat",
                "article": "https://en.wikipedia.org/wiki/Ziarat"
            }
        },
        {
            "type": "Feature",
            "geometry": {
                "type": "Point",
                "coordinates": [
                    72.366666666,
                    33.766666666
                ]
            },
            "properties": {
                "name": "Attock",
                "article": "https://en.wikipedia.org/wiki/Attock"
            }
        },
        {
            "type": "Feature",
            "geometry": {
                "type": "Point",
                "coordinates": [
                    71.974722222,
                    34.015277777
                ]
            },
            "properties": {
                "name": "Nowshera",
                "article": "https://en.wikipedia.org/wiki/Nowshera,_Khyber_Pakhtunkhwa"
            }
        },
        {
            "type": "Feature",
            "geometry": {
                "type": "Point",
                "coordinates": [
                    76.42,
                    35.850277777
                ]
            },
            "properties": {
                "name": "Skil Brum",
                "article": "https://en.wikipedia.org/wiki/Skil_Brum"
            }
        },
        {
            "type": "Feature",
            "geometry": {
                "type": "Point",
                "coordinates": [
                    67.588,
                    29.365
                ]
            },
            "properties": {
                "name": "Nausharo",
                "article": "https://en.wikipedia.org/wiki/Nausharo"
            }
        },
        {
            "type": "Feature",
            "geometry": {
                "type": "Point",
                "coordinates": [
                    67.93222222,
                    25.88305556
                ]
            },
            "properties": {
                "name": "Ranikot Fort",
                "article": "https://en.wikipedia.org/wiki/Ranikot_Fort"
            }
        },
        {
            "type": "Feature",
            "geometry": {
                "type": "Point",
                "coordinates": [
                    74.88251,
                    36.174491
                ]
            },
            "properties": {
                "name": "Rush Lake",
                "article": "https://en.wikipedia.org/wiki/Rush_Lake_(Pakistan)"
            }
        },
        {
            "type": "Feature",
            "geometry": {
                "type": "Point",
                "coordinates": [
                    74.560555555,
                    36.425277777
                ]
            },
            "properties": {
                "name": "Sangemarmar Sar",
                "article": "https://en.wikipedia.org/wiki/Sangemarmar_Sar"
            }
        },
        {
            "type": "Feature",
            "geometry": {
                "type": "Point",
                "coordinates": [
                    76.18333333,
                    35.76666667
                ]
            },
            "properties": {
                "name": "Q2448735",
                "article": null
            }
        },
        {
            "type": "Feature",
            "geometry": {
                "type": "Point",
                "coordinates": [
                    67.0,
                    30.583333333
                ]
            },
            "properties": {
                "name": "Pishin",
                "article": "https://en.wikipedia.org/wiki/Pishin,_Pakistan"
            }
        },
        {
            "type": "Feature",
            "geometry": {
                "type": "Point",
                "coordinates": [
                    72.116666666,
                    36.5475
                ]
            },
            "properties": {
                "name": "Saraghrar",
                "article": "https://en.wikipedia.org/wiki/Saraghrar"
            }
        },
        {
            "type": "Feature",
            "geometry": {
                "type": "Point",
                "coordinates": [
                    72.145,
                    33.9925
                ]
            },
            "properties": {
                "name": "Akora Khattak",
                "article": "https://en.wikipedia.org/wiki/Akora_Khattak"
            }
        },
        {
            "type": "Feature",
            "geometry": {
                "type": "Point",
                "coordinates": [
                    69.592777777,
                    32.306111111
                ]
            },
            "properties": {
                "name": "Battle of Wana",
                "article": "https://en.wikipedia.org/wiki/Battle_of_Wanna"
            }
        },
        {
            "type": "Feature",
            "geometry": {
                "type": "Point",
                "coordinates": [
                    75.455,
                    35.426666666
                ]
            },
            "properties": {
                "name": "Lower Kachura Lake",
                "article": "https://en.wikipedia.org/wiki/Lower_Kachura_Lake"
            }
        },
        {
            "type": "Feature",
            "geometry": {
                "type": "Point",
                "coordinates": [
                    76.74666667,
                    35.68666667
                ]
            },
            "properties": {
                "name": "Urdok II",
                "article": null
            }
        },
        {
            "type": "Feature",
            "geometry": {
                "type": "Point",
                "coordinates": [
                    76.757312,
                    35.681004
                ]
            },
            "properties": {
                "name": "Urdok III",
                "article": null
            }
        },
        {
            "type": "Feature",
            "geometry": {
                "type": "Point",
                "coordinates": [
                    76.71694444,
                    35.70472222
                ]
            },
            "properties": {
                "name": "Urdok Kangri",
                "article": "https://en.wikipedia.org/wiki/Urdok_Ridge"
            }
        },
        {
            "type": "Feature",
            "geometry": {
                "type": "Point",
                "coordinates": [
                    75.69116944,
                    35.94134444
                ]
            },
            "properties": {
                "name": "Q2505024",
                "article": null
            }
        },
        {
            "type": "Feature",
            "geometry": {
                "type": "Point",
                "coordinates": [
                    72.644722222,
                    30.725833333
                ]
            },
            "properties": {
                "name": "Kamalia",
                "article": "https://en.wikipedia.org/wiki/Kamalia"
            }
        },
        {
            "type": "Feature",
            "geometry": {
                "type": "Point",
                "coordinates": [
                    73.748548,
                    33.149015
                ]
            },
            "properties": {
                "name": "Mirpur",
                "article": "https://en.wikipedia.org/wiki/Mirpur,_Azad_Kashmir"
            }
        },
        {
            "type": "Feature",
            "geometry": {
                "type": "Point",
                "coordinates": [
                    71.083333333,
                    33.116666666
                ]
            },
            "properties": {
                "name": "Karak",
                "article": "https://en.wikipedia.org/wiki/Karak,_Pakistan"
            }
        },
        {
            "type": "Feature",
            "geometry": {
                "type": "Point",
                "coordinates": [
                    66.881944444,
                    25.028888888
                ]
            },
            "properties": {
                "name": "Hub",
                "article": "https://en.wikipedia.org/wiki/Hub,_Balochistan"
            }
        },
        {
            "type": "Feature",
            "geometry": {
                "type": "Point",
                "coordinates": [
                    68.166666666,
                    28.416666666
                ]
            },
            "properties": {
                "name": "Dera Allah Yar",
                "article": "https://en.wikipedia.org/wiki/Dera_Allah_Yar"
            }
        },
        {
            "type": "Feature",
            "geometry": {
                "type": "Point",
                "coordinates": [
                    68.043888888,
                    28.172222222
                ]
            },
            "properties": {
                "name": "Usta Mohammad",
                "article": "https://en.wikipedia.org/wiki/Usta_Muhammad"
            }
        },
        {
            "type": "Feature",
            "geometry": {
                "type": "Point",
                "coordinates": [
                    71.519687,
                    33.683543
                ]
            },
            "properties": {
                "name": "Darra Adam Khel",
                "article": "https://en.wikipedia.org/wiki/Darra_Adam_Khel"
            }
        },
        {
            "type": "Feature",
            "geometry": {
                "type": "Point",
                "coordinates": [
                    66.622777777,
                    25.807222222
                ]
            },
            "properties": {
                "name": "Uthal",
                "article": "https://en.wikipedia.org/wiki/Uthal"
            }
        },
        {
            "type": "Feature",
            "geometry": {
                "type": "Point",
                "coordinates": [
                    66.589952777,
                    29.025836111
                ]
            },
            "properties": {
                "name": "Kalat",
                "article": "https://en.wikipedia.org/wiki/Kalat,_Balochistan"
            }
        },
        {
            "type": "Feature",
            "geometry": {
                "type": "Point",
                "coordinates": [
                    71.840833333,
                    34.828055555
                ]
            },
            "properties": {
                "name": "Timergara",
                "article": "https://en.wikipedia.org/wiki/Timergara"
            }
        },
        {
            "type": "Feature",
            "geometry": {
                "type": "Point",
                "coordinates": [
                    73.901944444,
                    33.515555555
                ]
            },
            "properties": {
                "name": "Kotli",
                "article": "https://en.wikipedia.org/wiki/Kotli"
            }
        },
        {
            "type": "Feature",
            "geometry": {
                "type": "Point",
                "coordinates": [
                    69.315,
                    28.006388888
                ]
            },
            "properties": {
                "name": "Ghotki",
                "article": "https://en.wikipedia.org/wiki/Ghotki"
            }
        },
        {
            "type": "Feature",
            "geometry": {
                "type": "Point",
                "coordinates": [
                    73.852777777,
                    31.021388888
                ]
            },
            "properties": {
                "name": "Pattoki",
                "article": "https://en.wikipedia.org/wiki/Pattoki"
            }
        },
        {
            "type": "Feature",
            "geometry": {
                "type": "Point",
                "coordinates": [
                    75.36724,
                    36.22645
                ]
            },
            "properties": {
                "name": "Yutmaru Sar",
                "article": "https://en.wikipedia.org/wiki/Yutmaru_Sar"
            }
        },
        {
            "type": "Feature",
            "geometry": {
                "type": "Point",
                "coordinates": [
                    75.3667,
                    36.2333
                ]
            },
            "properties": {
                "name": "Yutmaru Sar",
                "article": "https://en.wikipedia.org/wiki/Yutmaru_Sar"
            }
        },
        {
            "type": "Feature",
            "geometry": {
                "type": "Point",
                "coordinates": [
                    72.554166666,
                    29.696666666
                ]
            },
            "properties": {
                "name": "Hasilpur",
                "article": "https://en.wikipedia.org/wiki/Hasilpur"
            }
        },
        {
            "type": "Feature",
            "geometry": {
                "type": "Point",
                "coordinates": [
                    70.383333333,
                    32.216666666
                ]
            },
            "properties": {
                "name": "Tank",
                "article": "https://en.wikipedia.org/wiki/Tank_(city)"
            }
        },
        {
            "type": "Feature",
            "geometry": {
                "type": "Point",
                "coordinates": [
                    68.838333333,
                    24.655833333
                ]
            },
            "properties": {
                "name": "Badin",
                "article": "https://en.wikipedia.org/wiki/Badin"
            }
        },
        {
            "type": "Feature",
            "geometry": {
                "type": "Point",
                "coordinates": [
                    69.736111111,
                    25.361388888
                ]
            },
            "properties": {
                "name": "Umerkot",
                "article": "https://en.wikipedia.org/wiki/Umerkot"
            }
        },
        {
            "type": "Feature",
            "geometry": {
                "type": "Point",
                "coordinates": [
                    69.583333333,
                    28.433333333
                ]
            },
            "properties": {
                "name": "Kashmore",
                "article": "https://en.wikipedia.org/wiki/Kashmore"
            }
        },
        {
            "type": "Feature",
            "geometry": {
                "type": "Point",
                "coordinates": [
                    72.395,
                    33.856944444
                ]
            },
            "properties": {
                "name": "Kamra",
                "article": "https://en.wikipedia.org/wiki/Kamra,_Pakistan"
            }
        },
        {
            "type": "Feature",
            "geometry": {
                "type": "Point",
                "coordinates": [
                    68.31216,
                    25.366
                ]
            },
            "properties": {
                "name": "Kotri",
                "article": "https://en.wikipedia.org/wiki/Kotri"
            }
        },
        {
            "type": "Feature",
            "geometry": {
                "type": "Point",
                "coordinates": [
                    72.483333333,
                    30.966666666
                ]
            },
            "properties": {
                "name": "Toba Tek Singh",
                "article": "https://en.wikipedia.org/wiki/Toba_Tek_Singh"
            }
        },
        {
            "type": "Feature",
            "geometry": {
                "type": "Point",
                "coordinates": [
                    73.2,
                    34.333333333
                ]
            },
            "properties": {
                "name": "Mansehra",
                "article": "https://en.wikipedia.org/wiki/Mansehra"
            }
        },
        {
            "type": "Feature",
            "geometry": {
                "type": "Point",
                "coordinates": [
                    69.448611111,
                    31.341666666
                ]
            },
            "properties": {
                "name": "Zhob",
                "article": "https://en.wikipedia.org/wiki/Zhob"
            }
        },
        {
            "type": "Feature",
            "geometry": {
                "type": "Point",
                "coordinates": [
                    72.466666666,
                    34.116666666
                ]
            },
            "properties": {
                "name": "Swabi",
                "article": "https://en.wikipedia.org/wiki/Swabi"
            }
        },
        {
            "type": "Feature",
            "geometry": {
                "type": "Point",
                "coordinates": [
                    69.483333333,
                    28.133333333
                ]
            },
            "properties": {
                "name": "Rohri",
                "article": "https://en.wikipedia.org/wiki/Rohri"
            }
        },
        {
            "type": "Feature",
            "geometry": {
                "type": "Point",
                "coordinates": [
                    76.513333333,
                    35.881111111
                ]
            },
            "properties": {
                "name": "K2",
                "article": "https://en.wikipedia.org/wiki/K2"
            }
        },
        {
            "type": "Feature",
            "geometry": {
                "type": "Point",
                "coordinates": [
                    74.65,
                    36.37
                ]
            },
            "properties": {
                "name": "Ladyfinger Peak",
                "article": "https://en.wikipedia.org/wiki/Ladyfinger_Peak"
            }
        },
        {
            "type": "Feature",
            "geometry": {
                "type": "Point",
                "coordinates": [
                    73.977777777,
                    33.813888888
                ]
            },
            "properties": {
                "name": "Abbaspur",
                "article": "https://en.wikipedia.org/wiki/Abbaspur_Tehsil"
            }
        },
        {
            "type": "Feature",
            "geometry": {
                "type": "Point",
                "coordinates": [
                    73.014166666,
                    34.498333333
                ]
            },
            "properties": {
                "name": "Oghi",
                "article": "https://en.wikipedia.org/wiki/Oghi,_Pakistan"
            }
        },
        {
            "type": "Feature",
            "geometry": {
                "type": "Point",
                "coordinates": [
                    68.122777777,
                    26.842222222
                ]
            },
            "properties": {
                "name": "Naushahro Feroze",
                "article": "https://en.wikipedia.org/wiki/Naushahro_Feroze"
            }
        },
        {
            "type": "Feature",
            "geometry": {
                "type": "Point",
                "coordinates": [
                    72.902777777,
                    32.265277777
                ]
            },
            "properties": {
                "name": "Bhalwal",
                "article": "https://en.wikipedia.org/wiki/Bhalwal"
            }
        },
        {
            "type": "Feature",
            "geometry": {
                "type": "Point",
                "coordinates": [
                    76.457,
                    35.349
                ]
            },
            "properties": {
                "name": "Q2843352",
                "article": null
            }
        },
        {
            "type": "Feature",
            "geometry": {
                "type": "Point",
                "coordinates": [
                    67.0089,
                    24.8503
                ]
            },
            "properties": {
                "name": "MCB Tower",
                "article": "https://en.wikipedia.org/wiki/MCB_Tower"
            }
        },
        {
            "type": "Feature",
            "geometry": {
                "type": "Point",
                "coordinates": [
                    67.68,
                    26.41
                ]
            },
            "properties": {
                "name": "Manchar Lake",
                "article": "https://en.wikipedia.org/wiki/Lake_Manchar"
            }
        },
        {
            "type": "Feature",
            "geometry": {
                "type": "Point",
                "coordinates": [
                    63.054444444,
                    26.003055555
                ]
            },
            "properties": {
                "name": "Turbat",
                "article": "https://en.wikipedia.org/wiki/Turbat"
            }
        },
        {
            "type": "Feature",
            "geometry": {
                "type": "Point",
                "coordinates": [
                    66.02148,
                    29.55423
                ]
            },
            "properties": {
                "name": "Nushki",
                "article": "https://en.wikipedia.org/wiki/Nushki"
            }
        },
        {
            "type": "Feature",
            "geometry": {
                "type": "Point",
                "coordinates": [
                    66.016666666,
                    29.933333333
                ]
            },
            "properties": {
                "name": "Nushki",
                "article": "https://en.wikipedia.org/wiki/Nushki"
            }
        },
        {
            "type": "Feature",
            "geometry": {
                "type": "Point",
                "coordinates": [
                    74.255,
                    31.802
                ]
            },
            "properties": {
                "name": "Muridke",
                "article": "https://en.wikipedia.org/wiki/Muridke"
            }
        },
        {
            "type": "Feature",
            "geometry": {
                "type": "Point",
                "coordinates": [
                    73.066666666,
                    30.291666666
                ]
            },
            "properties": {
                "name": "Arif Wala",
                "article": "https://en.wikipedia.org/wiki/Arif_Wala"
            }
        },
        {
            "type": "Feature",
            "geometry": {
                "type": "Point",
                "coordinates": [
                    73.653333333,
                    30.670833333
                ]
            },
            "properties": {
                "name": "Dipalpur",
                "article": "https://en.wikipedia.org/wiki/Dipalpur"
            }
        },
        {
            "type": "Feature",
            "geometry": {
                "type": "Point",
                "coordinates": [
                    67.937222222,
                    30.100277777
                ]
            },
            "properties": {
                "name": "Harnai",
                "article": "https://en.wikipedia.org/wiki/Harnai"
            }
        },
        {
            "type": "Feature",
            "geometry": {
                "type": "Point",
                "coordinates": [
                    64.090277777,
                    26.964444444
                ]
            },
            "properties": {
                "name": "Panjgur",
                "article": "https://en.wikipedia.org/wiki/Panjgur"
            }
        },
        {
            "type": "Feature",
            "geometry": {
                "type": "Point",
                "coordinates": [
                    71.7975,
                    34.01
                ]
            },
            "properties": {
                "name": "Pabbi",
                "article": "https://en.wikipedia.org/wiki/Pabbi"
            }
        },
        {
            "type": "Feature",
            "geometry": {
                "type": "Point",
                "coordinates": [
                    73.296580555,
                    33.250847222
                ]
            },
            "properties": {
                "name": "Gujar Khan",
                "article": "https://en.wikipedia.org/wiki/Gujar_Khan"
            }
        },
        {
            "type": "Feature",
            "geometry": {
                "type": "Point",
                "coordinates": [
                    73.223333333,
                    35.271111111
                ]
            },
            "properties": {
                "name": "Dasu",
                "article": "https://en.wikipedia.org/wiki/Dasu"
            }
        },
        {
            "type": "Feature",
            "geometry": {
                "type": "Point",
                "coordinates": [
                    71.066666666,
                    28.5
                ]
            },
            "properties": {
                "name": "Ganeriwala",
                "article": "https://en.wikipedia.org/wiki/Ganweriwal"
            }
        },