{
    "type": "FeatureCollection",
    "features": [
        {
            "type": "Feature",
            "geometry": {
                "type": "Point",
                "coordinates": [
                    -79.89188,
                    9.34075
                ]
            },
            "properties": {
                "name": "Cristóbal",
                "article": "https://en.wikipedia.org/wiki/Crist%C3%B3bal,_Col%C3%B3n"
            }
        },
        {
            "type": "Feature",
            "geometry": {
                "type": "Point",
                "coordinates": [
                    -82.424263888,
                    8.438180555
                ]
            },
            "properties": {
                "name": "David",
                "article": "https://en.wikipedia.org/wiki/David,_Chiriqu%C3%AD"
            }
        },
        {
            "type": "Feature",
            "geometry": {
                "type": "Point",
                "coordinates": [
                    -79.87216667,
                    9.40233333
                ]
            },
            "properties": {
                "name": "Galeta Island",
                "article": "https://en.wikipedia.org/wiki/Galeta_Island_(Panama)"
            }
        },
        {
            "type": "Feature",
            "geometry": {
                "type": "Point",
                "coordinates": [
                    -82.18333333,
                    9.3
                ]
            },
            "properties": {
                "name": "Solarte Island",
                "article": "https://en.wikipedia.org/wiki/Solarte_Island"
            }
        },
        {
            "type": "Feature",
            "geometry": {
                "type": "Point",
                "coordinates": [
                    -82.543,
                    8.808
                ]
            },
            "properties": {
                "name": "Volcán Barú",
                "article": "https://en.wikipedia.org/wiki/Volc%C3%A1n_Bar%C3%BA"
            }
        },
        {
            "type": "Feature",
            "geometry": {
                "type": "Point",
                "coordinates": [
                    -80.355291666,
                    8.518722222
                ]
            },
            "properties": {
                "name": "Penonomé",
                "article": "https://en.wikipedia.org/wiki/Penonom%C3%A9,_Cocl%C3%A9"
            }
        },
        {
            "type": "Feature",
            "geometry": {
                "type": "Point",
                "coordinates": [
                    -80.43333333,
                    7.96666667
                ]
            },
            "properties": {
                "name": "Chitré",
                "article": "https://en.wikipedia.org/wiki/Chitr%C3%A9"
            }
        },
        {
            "type": "Feature",
            "geometry": {
                "type": "Point",
                "coordinates": [
                    -80.971128,
                    8.105714
                ]
            },
            "properties": {
                "name": "Santiago de Veraguas",
                "article": "https://en.wikipedia.org/wiki/Santiago_de_Veraguas"
            }
        },
        {
            "type": "Feature",
            "geometry": {
                "type": "Point",
                "coordinates": [
                    -79.485149,
                    9.0068286
                ]
            },
            "properties": {
                "name": "Panamá Viejo",
                "article": "https://en.wikipedia.org/wiki/Panam%C3%A1_Viejo"
            }
        },
        {
            "type": "Feature",
            "geometry": {
                "type": "Point",
                "coordinates": [
                    -79.554802,
                    8.793474
                ]
            },
            "properties": {
                "name": "Taboga Island",
                "article": "https://en.wikipedia.org/wiki/Taboga_Island"
            }
        },
        {
            "type": "Feature",
            "geometry": {
                "type": "Point",
                "coordinates": [
                    -81.79,
                    7.48
                ]
            },
            "properties": {
                "name": "Coiba",
                "article": "https://en.wikipedia.org/wiki/Coiba"
            }
        },
        {
            "type": "Feature",
            "geometry": {
                "type": "Point",
                "coordinates": [
                    -79.7822,
                    8.8792
                ]
            },
            "properties": {
                "name": "La Chorrera",
                "article": "https://en.wikipedia.org/wiki/La_Chorrera,_Panama"
            }
        },
        {
            "type": "Feature",
            "geometry": {
                "type": "Point",
                "coordinates": [
                    -82.432777777,
                    8.78
                ]
            },
            "properties": {
                "name": "Boquete",
                "article": "https://en.wikipedia.org/wiki/Boquete,_Chiriqu%C3%AD"
            }
        },
        {
            "type": "Feature",
            "geometry": {
                "type": "Point",
                "coordinates": [
                    -79.85,
                    9.15
                ]
            },
            "properties": {
                "name": "Barro Colorado Island",
                "article": "https://en.wikipedia.org/wiki/Barro_Colorado_Island"
            }
        },
        {
            "type": "Feature",
            "geometry": {
                "type": "Point",
                "coordinates": [
                    -82.25,
                    9.333333333
                ]
            },
            "properties": {
                "name": "Bocas del Toro",
                "article": "https://en.wikipedia.org/wiki/Bocas_Town,_Bocas_del_Toro"
            }
        },
        {
            "type": "Feature",
            "geometry": {
                "type": "Point",
                "coordinates": [
                    -79.5,
                    9.033
                ]
            },
            "properties": {
                "name": "San Miguelito District",
                "article": "https://en.wikipedia.org/wiki/San_Miguelito_District"
            }
        },
        {
            "type": "Feature",
            "geometry": {
                "type": "Point",
                "coordinates": [
                    -79.5,
                    9.05
                ]
            },
            "properties": {
                "name": "San Miguelito District",
                "article": "https://en.wikipedia.org/wiki/San_Miguelito_District"
            }
        },
        {
            "type": "Feature",
            "geometry": {
                "type": "Point",
                "coordinates": [
                    -82.03333333,
                    9.13333333
                ]
            },
            "properties": {
                "name": "Cayo Agua Island",
                "article": "https://en.wikipedia.org/wiki/Cayo_Agua_Island"
            }
        },
        {
            "type": "Feature",
            "geometry": {
                "type": "Point",
                "coordinates": [
                    -82.2715,
                    9.3898
                ]
            },
            "properties": {
                "name": "Colón Island",
                "article": "https://en.wikipedia.org/wiki/Col%C3%B3n_Island"
            }
        },
        {
            "type": "Feature",
            "geometry": {
                "type": "Point",
                "coordinates": [
                    -80.17,
                    8.58
                ]
            },
            "properties": {
                "name": "El Valle",
                "article": "https://en.wikipedia.org/wiki/El_Valle_(volcano)"
            }
        },
        {
            "type": "Feature",
            "geometry": {
                "type": "Point",
                "coordinates": [
                    -81.55,
                    9.1
                ]
            },
            "properties": {
                "name": "Escudo de Veraguas",
                "article": "https://en.wikipedia.org/wiki/Isla_Escudo_de_Veraguas"
            }
        },
        {
            "type": "Feature",
            "geometry": {
                "type": "Point",
                "coordinates": [
                    -78.648888888,
                    9.495833333
                ]
            },
            "properties": {
                "name": "San Blas Islands",
                "article": "https://en.wikipedia.org/wiki/San_Blas_Islands"
            }
        },
        {
            "type": "Feature",
            "geometry": {
                "type": "Point",
                "coordinates": [
                    -80.82,
                    8.47
                ]
            },
            "properties": {
                "name": "La Yeguada",
                "article": "https://en.wikipedia.org/wiki/La_Yeguada"
            }
        },
        {
            "type": "Feature",
            "geometry": {
                "type": "Point",
                "coordinates": [
                    -77.7275,
                    7.701666666
                ]
            },
            "properties": {
                "name": "Alturas de Nique",
                "article": "https://en.wikipedia.org/wiki/Alto_de_Nique"
            }
        },
        {
            "type": "Feature",
            "geometry": {
                "type": "Point",
                "coordinates": [
                    -79.28,
                    9.08
                ]
            },
            "properties": {
                "name": "Pacora",
                "article": "https://en.wikipedia.org/wiki/Pacora"
            }
        },
        {
            "type": "Feature",
            "geometry": {
                "type": "Point",
                "coordinates": [
                    -82.2,
                    9.35
                ]
            },
            "properties": {
                "name": "Bastimentos Island",
                "article": "https://en.wikipedia.org/wiki/Bastimentos_Island"
            }
        },
        {
            "type": "Feature",
            "geometry": {
                "type": "Point",
                "coordinates": [
                    -79.5593405,
                    8.9571238
                ]
            },
            "properties": {
                "name": "Balboa",
                "article": "https://en.wikipedia.org/wiki/Balboa,_Panama"
            }
        },
        {
            "type": "Feature",
            "geometry": {
                "type": "Point",
                "coordinates": [
                    -79.463661,
                    9.010476
                ]
            },
            "properties": {
                "name": "Vitri Tower",
                "article": "https://en.wikipedia.org/wiki/Vitri_Tower"
            }
        },
        {
            "type": "Feature",
            "geometry": {
                "type": "Point",
                "coordinates": [
                    -82.26666667,
                    8.21666667
                ]
            },
            "properties": {
                "name": "Boca Brava",
                "article": "https://en.wikipedia.org/wiki/Boca_Brava"
            }
        },
        {
            "type": "Feature",
            "geometry": {
                "type": "Point",
                "coordinates": [
                    -79.033333333,
                    8.633333333
                ]
            },
            "properties": {
                "name": "Contadora Island",
                "article": "https://en.wikipedia.org/wiki/Contadora_Island"
            }
        },
        {
            "type": "Feature",
            "geometry": {
                "type": "Point",
                "coordinates": [
                    -78.90844,
                    8.39145
                ]
            },
            "properties": {
                "name": "Isla del Rey",
                "article": "https://en.wikipedia.org/wiki/Isla_del_Rey,_Panama"
            }
        },
        {
            "type": "Feature",
            "geometry": {
                "type": "Point",
                "coordinates": [
                    -79.744166666,
                    8.672222222
                ]
            },
            "properties": {
                "name": "Taborcillo",
                "article": "https://en.wikipedia.org/wiki/Taborcillo"
            }
        },
        {
            "type": "Feature",
            "geometry": {
                "type": "Point",
                "coordinates": [
                    -82.25,
                    9.333333333
                ]
            },
            "properties": {
                "name": "Bocas del Toro Archipelago",
                "article": "https://en.wikipedia.org/wiki/Bocas_del_Toro_Archipelago"
            }
        },
        {
            "type": "Feature",
            "geometry": {
                "type": "Point",
                "coordinates": [
                    -80.283333333,
                    7.766666666
                ]
            },
            "properties": {
                "name": "Las Tablas",
                "article": "https://en.wikipedia.org/wiki/Las_Tablas,_Los_Santos"
            }
        },
        {
            "type": "Feature",
            "geometry": {
                "type": "Point",
                "coordinates": [
                    -82.8921194,
                    9.1236551
                ]
            },
            "properties": {
                "name": "Cerro Fábrega",
                "article": "https://en.wikipedia.org/wiki/Cerro_F%C3%A1brega"
            }
        },
        {
            "type": "Feature",
            "geometry": {
                "type": "Point",
                "coordinates": [
                    -79.86,
                    9.19916667
                ]
            },
            "properties": {
                "name": "Q2881883",
                "article": null
            }
        },
        {
            "type": "Feature",
            "geometry": {
                "type": "Point",
                "coordinates": [
                    -79.507695,
                    8.974702
                ]
            },
            "properties": {
                "name": "Q2919738",
                "article": null
            }
        },
        {
            "type": "Feature",
            "geometry": {
                "type": "Point",
                "coordinates": [
                    -82.016667,
                    9.033333
                ]
            },
            "properties": {
                "name": "Chiriquí Lagoon",
                "article": "https://en.wikipedia.org/wiki/Chiriqu%C3%AD_Lagoon"
            }
        },
        {
            "type": "Feature",
            "geometry": {
                "type": "Point",
                "coordinates": [
                    -82.86206,
                    8.27775
                ]
            },
            "properties": {
                "name": "Puerto Armuelles",
                "article": "https://en.wikipedia.org/wiki/Puerto_Armuelles"
            }
        },
        {
            "type": "Feature",
            "geometry": {
                "type": "Point",
                "coordinates": [
                    -79.566666666,
                    9.633333333
                ]
            },
            "properties": {
                "name": "Isla Grande",
                "article": "https://en.wikipedia.org/wiki/Isla_Grande"
            }
        },
        {
            "type": "Feature",
            "geometry": {
                "type": "Point",
                "coordinates": [
                    -79.549444444,
                    8.957277777
                ]
            },
            "properties": {
                "name": "Ancon Hill",
                "article": "https://en.wikipedia.org/wiki/Ancon_Hill"
            }
        },
        {
            "type": "Feature",
            "geometry": {
                "type": "Point",
                "coordinates": [
                    -80.52,
                    8.33
                ]
            },
            "properties": {
                "name": "Natá de los Caballeros",
                "article": "https://en.wikipedia.org/wiki/Nat%C3%A1,_Cocl%C3%A9"
            }
        },
        {
            "type": "Feature",
            "geometry": {
                "type": "Point",
                "coordinates": [
                    -79.570555555,
                    8.991388888
                ]
            },
            "properties": {
                "name": "Panamá City Panamá Temple",
                "article": "https://en.wikipedia.org/wiki/Panama_City_Panama_Temple"
            }
        },
        {
            "type": "Feature",
            "geometry": {
                "type": "Point",
                "coordinates": [
                    -79.53,
                    9.08
                ]
            },
            "properties": {
                "name": "Las Cumbres",
                "article": "https://en.wikipedia.org/wiki/Las_Cumbres"
            }
        },
        {
            "type": "Feature",
            "geometry": {
                "type": "Point",
                "coordinates": [
                    -82.037308,
                    9.254516
                ]
            },
            "properties": {
                "name": "Cayos Zapatilla",
                "article": "https://en.wikipedia.org/wiki/Cayos_Zapatilla"
            }
        },
        {
            "type": "Feature",
            "geometry": {
                "type": "Point",
                "coordinates": [
                    -78.899897222,
                    9.445
                ]
            },
            "properties": {
                "name": "Soledad Miria",
                "article": "https://en.wikipedia.org/wiki/Soledad_Miria_Island"
            }
        },
        {
            "type": "Feature",
            "geometry": {
                "type": "Point",
                "coordinates": [
                    -82.7,
                    8.8
                ]
            },
            "properties": {
                "name": "Barriles",
                "article": "https://en.wikipedia.org/wiki/Barriles"
            }
        },
        {
            "type": "Feature",
            "geometry": {
                "type": "Point",
                "coordinates": [
                    -82.338888888,
                    9.231666666
                ]
            },
            "properties": {
                "name": "Q5488689",
                "article": null
            }
        },
        {
            "type": "Feature",
            "geometry": {
                "type": "Point",
                "coordinates": [
                    -82.33333333,
                    9.23333333
                ]
            },
            "properties": {
                "name": "Q5488689",
                "article": null
            }
        },
        {
            "type": "Feature",
            "geometry": {
                "type": "Point",
                "coordinates": [
                    -79.6,
                    8.6
                ]
            },
            "properties": {
                "name": "Otoque Island",
                "article": "https://en.wikipedia.org/wiki/Otoque_Island"
            }
        },
        {
            "type": "Feature",
            "geometry": {
                "type": "Point",
                "coordinates": [
                    -79.5086923,
                    8.9762555
                ]
            },
            "properties": {
                "name": "Aqualina Tower",
                "article": "https://en.wikipedia.org/wiki/Aqualina_Tower"
            }
        },
        {
            "type": "Feature",
            "geometry": {
                "type": "Point",
                "coordinates": [
                    -79.515943,
                    8.972753
                ]
            },
            "properties": {
                "name": "Q5701897",
                "article": null
            }
        },
        {
            "type": "Feature",
            "geometry": {
                "type": "Point",
                "coordinates": [
                    -80.1168,
                    8.62549
                ]
            },
            "properties": {
                "name": "Q5762999",
                "article": null
            }
        },
        {
            "type": "Feature",
            "geometry": {
                "type": "Point",
                "coordinates": [
                    -80.6901679,
                    7.3180276
                ]
            },
            "properties": {
                "name": "Q5763043",
                "article": null
            }
        },
        {
            "type": "Feature",
            "geometry": {
                "type": "Point",
                "coordinates": [
                    -77.29196,
                    8.15061
                ]
            },
            "properties": {
                "name": "Cerro Tacarcuna",
                "article": "https://en.wikipedia.org/wiki/Cerro_Tacarcuna"
            }
        },
        {
            "type": "Feature",
            "geometry": {
                "type": "Point",
                "coordinates": [
                    -77.295833333,
                    8.165833333
                ]
            },
            "properties": {
                "name": "Cerro Tacarcuna",
                "article": "https://en.wikipedia.org/wiki/Cerro_Tacarcuna"
            }
        },
        {
            "type": "Feature",
            "geometry": {
                "type": "Point",
                "coordinates": [
                    -79.5095,
                    8.97774
                ]
            },
            "properties": {
                "name": "Bahia Pacifica",
                "article": null
            }
        },
        {
            "type": "Feature",
            "geometry": {
                "type": "Point",
                "coordinates": [
                    -79.5333,
                    8.96781
                ]
            },
            "properties": {
                "name": "Destiny Panama Bay",
                "article": null
            }
        },
        {
            "type": "Feature",
            "geometry": {
                "type": "Point",
                "coordinates": [
                    -79.5,
                    9.0
                ]
            },
            "properties": {
                "name": "Panama City",
                "article": "https://en.wikipedia.org/wiki/Panama_City"
            }
        },
        {
            "type": "Feature",
            "geometry": {
                "type": "Point",
                "coordinates": [
                    -82.23155,
                    9.34687
                ]
            },
            "properties": {
                "name": "Carenero Island",
                "article": "https://en.wikipedia.org/wiki/Carenero_Island"
            }
        },
        {
            "type": "Feature",
            "geometry": {
                "type": "Point",
                "coordinates": [
                    -82.819741666,
                    9.030805555
                ]
            },
            "properties": {
                "name": "Cerro Echandi",
                "article": "https://en.wikipedia.org/wiki/Cerro_Echandi"
            }
        },
        {
            "type": "Feature",
            "geometry": {
                "type": "Point",
                "coordinates": [
                    -82.23333333,
                    9.35
                ]
            },
            "properties": {
                "name": "Cristóbal Island",
                "article": "https://en.wikipedia.org/wiki/Crist%C3%B3bal_Island"
            }
        },
        {
            "type": "Feature",
            "geometry": {
                "type": "Point",
                "coordinates": [
                    -81.15556,
                    7.54028
                ]
            },
            "properties": {
                "name": "Cébaco",
                "article": "https://en.wikipedia.org/wiki/C%C3%A9baco"
            }
        },
        {
            "type": "Feature",
            "geometry": {
                "type": "Point",
                "coordinates": [
                    -79.52,
                    8.90875
                ]
            },
            "properties": {
                "name": "Flamenco Island",
                "article": null
            }
        },
        {
            "type": "Feature",
            "geometry": {
                "type": "Point",
                "coordinates": [
                    -82.4,
                    8.23333333
                ]
            },
            "properties": {
                "name": "Q5921957",
                "article": null
            }
        },
        {
            "type": "Feature",
            "geometry": {
                "type": "Point",
                "coordinates": [
                    -80.3208,
                    7.407688888
                ]
            },
            "properties": {
                "name": "Isla de Cañas",
                "article": "https://en.wikipedia.org/wiki/Isla_de_Ca%C3%B1as,_Los_Santos"
            }
        },
        {
            "type": "Feature",
            "geometry": {
                "type": "Point",
                "coordinates": [
                    -79.4753,
                    9.00858
                ]
            },
            "properties": {
                "name": "Ocean One",
                "article": "https://en.wikipedia.org/wiki/Ocean_One_(Panama_City)"
            }
        },
        {
            "type": "Feature",
            "geometry": {
                "type": "Point",
                "coordinates": [
                    -80.7401211,
                    8.9158361
                ]
            },
            "properties": {
                "name": "Petaquilla",
                "article": "https://en.wikipedia.org/wiki/Petaquilla"
            }
        },
        {
            "type": "Feature",
            "geometry": {
                "type": "Point",
                "coordinates": [
                    -79.998,
                    7.629
                ]
            },
            "properties": {
                "name": "Isla Iguana",
                "article": "https://en.wikipedia.org/wiki/Isla_Iguana_Wildlife_Refuge"
            }
        },
        {
            "type": "Feature",
            "geometry": {
                "type": "Point",
                "coordinates": [
                    -82.252777777,
                    8.180555555
                ]
            },
            "properties": {
                "name": "Isla Palenque",
                "article": "https://en.wikipedia.org/wiki/Isla_Palenque"
            }
        },
        {
            "type": "Feature",
            "geometry": {
                "type": "Point",
                "coordinates": [
                    -79.10963,
                    8.27486
                ]
            },
            "properties": {
                "name": "San José Island",
                "article": "https://en.wikipedia.org/wiki/Isla_San_Jos%C3%A9_(Panama)"
            }
        },
        {
            "type": "Feature",
            "geometry": {
                "type": "Point",
                "coordinates": [
                    -79.956,
                    9.03655
                ]
            },
            "properties": {
                "name": "Isla Tres Perros",
                "article": "https://en.wikipedia.org/wiki/Isla_Tres_Perros"
            }
        },
        {
            "type": "Feature",
            "geometry": {
                "type": "Point",
                "coordinates": [
                    -79.5179,
                    8.971012
                ]
            },
            "properties": {
                "name": "The Point, Panama City",
                "article": "https://en.wikipedia.org/wiki/The_Point,_Panama_City"
            }
        },
        {
            "type": "Feature",
            "geometry": {
                "type": "Point",
                "coordinates": [
                    -79.5225,
                    8.97623
                ]
            },
            "properties": {
                "name": "Torre Waters",
                "article": "https://en.wikipedia.org/wiki/Torre_Waters"
            }
        },
        {
            "type": "Feature",
            "geometry": {
                "type": "Point",
                "coordinates": [
                    -82.877480555,
                    9.0963667
                ]
            },
            "properties": {
                "name": "Cerro Itamut",
                "article": null
            }
        },
        {
            "type": "Feature",
            "geometry": {
                "type": "Point",
                "coordinates": [
                    -82.8649,
                    9.09941
                ]
            },
            "properties": {
                "name": "Cerro Itamut",
                "article": null
            }
        },
        {
            "type": "Feature",
            "geometry": {
                "type": "Point",
                "coordinates": [
                    -79.2457927,
                    9.1467607
                ]
            },
            "properties": {
                "name": "La Joya Prison",
                "article": "https://en.wikipedia.org/wiki/La_Joyita_Prison"
            }
        },
        {
            "type": "Feature",
            "geometry": {
                "type": "Point",
                "coordinates": [
                    -80.0483,
                    8.6275
                ]
            },
            "properties": {
                "name": "Picacho Mountain",
                "article": "https://en.wikipedia.org/wiki/Picacho_Mountain"
            }
        },
        {
            "type": "Feature",
            "geometry": {
                "type": "Point",
                "coordinates": [
                    -80.047316666,
                    8.627466666
                ]
            },
            "properties": {
                "name": "Picacho Mountain",
                "article": "https://en.wikipedia.org/wiki/Picacho_Mountain"
            }
        },
        {
            "type": "Feature",
            "geometry": {
                "type": "Point",
                "coordinates": [
                    -82.11666667,
                    9.15
                ]
            },
            "properties": {
                "name": "Popa Island",
                "article": "https://en.wikipedia.org/wiki/Popa_Island"
            }
        },
        {
            "type": "Feature",
            "geometry": {
                "type": "Point",
                "coordinates": [
                    -80.4818,
                    8.3724
                ]
            },
            "properties": {
                "name": "Sitio Conte",
                "article": "https://en.wikipedia.org/wiki/Sitio_Conte"
            }
        },
        {
            "type": "Feature",
            "geometry": {
                "type": "Point",
                "coordinates": [
                    -78.232777777,
                    9.311388888
                ]
            },
            "properties": {
                "name": "Ukupseni",
                "article": "https://en.wikipedia.org/wiki/Ukupseni"
            }
        },
        {
            "type": "Feature",
            "geometry": {
                "type": "Point",
                "coordinates": [
                    -82.23944444,
                    7.46944444
                ]
            },
            "properties": {
                "name": "Montuosa",
                "article": null
            }
        },
        {
            "type": "Feature",
            "geometry": {
                "type": "Point",
                "coordinates": [
                    -79.900419444,
                    9.359752777
                ]
            },
            "properties": {
                "name": "Colón City",
                "article": "https://en.wikipedia.org/wiki/Col%C3%B3n,_Panama"
            }
        },
        {
            "type": "Feature",
            "geometry": {
                "type": "Point",
                "coordinates": [
                    -79.957,
                    9.038
                ]
            },
            "properties": {
                "name": "Isla Falta Calzado",
                "article": null
            }
        },
        {
            "type": "Feature",
            "geometry": {
                "type": "Point",
                "coordinates": [
                    -82.2916,
                    8.26605
                ]
            },
            "properties": {
                "name": "Boca Chica Island",
                "article": "https://en.wikipedia.org/wiki/Boca_Chica_Island"
            }
        },
        {
            "type": "Feature",
            "geometry": {
                "type": "Point",
                "coordinates": [
                    -79.28645,
                    9.25501
                ]
            },
            "properties": {
                "name": "Kalu Yala",
                "article": "https://en.wikipedia.org/wiki/Kalu_Yala"
            }
        },
        {
            "type": "Feature",
            "geometry": {
                "type": "Point",
                "coordinates": [
                    -79.5255,
                    8.97595
                ]
            },
            "properties": {
                "name": "Q17640064",
                "article": null
            }
        },
        {
            "type": "Feature",
            "geometry": {
                "type": "Point",
                "coordinates": [
                    -79.05,
                    8.516666666
                ]
            },
            "properties": {
                "name": "Isla Gibraleón",
                "article": "https://en.wikipedia.org/wiki/Isla_Gibrale%C3%B3n"
            }
        },
        {
            "type": "Feature",
            "geometry": {
                "type": "Point",
                "coordinates": [
                    -81.8,
                    7.27056
                ]
            },
            "properties": {
                "name": "Q19950123",
                "article": null
            }
        },
        {
            "type": "Feature",
            "geometry": {
                "type": "Point",
                "coordinates": [
                    -78.847777777,
                    8.274444444
                ]
            },
            "properties": {
                "name": "Isla San Telmo",
                "article": "https://en.wikipedia.org/wiki/Isla_San_Telmo"
            }
        },
        {
            "type": "Feature",
            "geometry": {
                "type": "Point",
                "coordinates": [
                    -82.711861111,
                    8.922611111
                ]
            },
            "properties": {
                "name": "Cerro Pando",
                "article": null
            }
        },
        {
            "type": "Feature",
            "geometry": {
                "type": "Point",
                "coordinates": [
                    -81.483333333,
                    8.2
                ]
            },
            "properties": {
                "name": "Alto de Culantro",
                "article": null
            }
        },
        {
            "type": "Feature",
            "geometry": {
                "type": "Point",
                "coordinates": [
                    -81.483333333,
                    8.183333333
                ]
            },
            "properties": {
                "name": "Cerro Ensillada",
                "article": null
            }
        },
        {
            "type": "Feature",
            "geometry": {
                "type": "Point",
                "coordinates": [
                    -81.7058,
                    8.2033
                ]
            },
            "properties": {
                "name": "Cerro Yuca",
                "article": null
            }
        },
        {
            "type": "Feature",
            "geometry": {
                "type": "Point",
                "coordinates": [
                    -80.166666666,
                    8.633333333
                ]
            },
            "properties": {
                "name": "Cerro de Yegua Buena",
                "article": null
            }
        },
        {
            "type": "Feature",
            "geometry": {
                "type": "Point",
                "coordinates": [
                    -81.2575,
                    8.425
                ]
            },
            "properties": {
                "name": "Cerro Virotito",
                "article": null
            }
        },
        {
            "type": "Feature",
            "geometry": {
                "type": "Point",
                "coordinates": [
                    -81.35,
                    8.316666666
                ]
            },
            "properties": {
                "name": "Cerro Virote",
                "article": null
            }
        },
        {
            "type": "Feature",
            "geometry": {
                "type": "Point",
                "coordinates": [
                    -81.3717,
                    8.4133
                ]
            },
            "properties": {
                "name": "Cerro Virigua",
                "article": null
            }
        },
        {
            "type": "Feature",
            "geometry": {
                "type": "Point",
                "coordinates": [
                    -81.216666666,
                    8.2
                ]
            },
            "properties": {
                "name": "Cerro Viejo",
                "article": null
            }
        },
        {
            "type": "Feature",
            "geometry": {
                "type": "Point",
                "coordinates": [
                    -81.35,
                    8.316666666
                ]
            },
            "properties": {
                "name": "Cerro Virote",
                "article": null
            }
        },
        {
            "type": "Feature",
            "geometry": {
                "type": "Point",
                "coordinates": [
                    -81.3717,
                    8.4133
                ]
            },
            "properties": {
                "name": "Cerro Virigua",
                "article": null
            }
        },
        {
            "type": "Feature",
            "geometry": {
                "type": "Point",
                "coordinates": [
                    -81.216666666,
                    8.2
                ]
            },
            "properties": {
                "name": "Cerro Viejo",
                "article": null
            }
        },
        {
            "type": "Feature",
            "geometry": {
                "type": "Point",
                "coordinates": [
                    -80.8617,
                    7.6517
                ]
            },
            "properties": {
                "name": "Cerro Viejo",
                "article": null
            }
        },
        {
            "type": "Feature",
            "geometry": {
                "type": "Point",
                "coordinates": [
                    -80.3642,
                    7.6517
                ]
            },
            "properties": {
                "name": "Cerro la Venta",
                "article": null
            }
        },
        {
            "type": "Feature",
            "geometry": {
                "type": "Point",
                "coordinates": [
                    -79.95,
                    8.733333333
                ]
            },
            "properties": {
                "name": "Cerro Valloli",
                "article": null
            }
        },
        {
            "type": "Feature",
            "geometry": {
                "type": "Point",
                "coordinates": [
                    -80.0742,
                    8.6167
                ]
            },
            "properties": {
                "name": "Cerro Valle Chiquito",
                "article": null
            }
        },
        {
            "type": "Feature",
            "geometry": {
                "type": "Point",
                "coordinates": [
                    -80.2,
                    7.566666666
                ]
            },
            "properties": {
                "name": "Cerro Urio",
                "article": null
            }
        },
        {
            "type": "Feature",
            "geometry": {
                "type": "Point",
                "coordinates": [
                    -79.933333333,
                    8.716666666
                ]
            },
            "properties": {
                "name": "Cerro Tuza",
                "article": null
            }
        },
        {
            "type": "Feature",
            "geometry": {
                "type": "Point",
                "coordinates": [
                    -80.1808,
                    8.6167
                ]
            },
            "properties": {
                "name": "Cerro Turega",
                "article": null
            }
        },
        {
            "type": "Feature",
            "geometry": {
                "type": "Point",
                "coordinates": [
                    -81.783333333,
                    8.4
                ]
            },
            "properties": {
                "name": "Cerro Tula",
                "article": null
            }
        },
        {
            "type": "Feature",
            "geometry": {
                "type": "Point",
                "coordinates": [
                    -81.7233,
                    8.5
                ]
            },
            "properties": {
                "name": "Cerro Tugri",
                "article": null
            }
        },
        {
            "type": "Feature",
            "geometry": {
                "type": "Point",
                "coordinates": [
                    -80.25,
                    8.65
                ]
            },
            "properties": {
                "name": "Cerro Tuagua",
                "article": null
            }
        },
        {
            "type": "Feature",
            "geometry": {
                "type": "Point",
                "coordinates": [
                    -81.4158,
                    8.345
                ]
            },
            "properties": {
                "name": "Cerro Trema",
                "article": null
            }
        },
        {
            "type": "Feature",
            "geometry": {
                "type": "Point",
                "coordinates": [
                    -81.5008,
                    8.0975
                ]
            },
            "properties": {
                "name": "Cerro las Trancas",
                "article": null
            }
        },
        {
            "type": "Feature",
            "geometry": {
                "type": "Point",
                "coordinates": [
                    -80.45,
                    7.55
                ]
            },
            "properties": {
                "name": "Cerro Totumita",
                "article": null
            }
        },
        {
            "type": "Feature",
            "geometry": {
                "type": "Point",
                "coordinates": [
                    -82.6833,
                    8.9017
                ]
            },
            "properties": {
                "name": "Cerro Totuma",
                "article": null
            }
        },
        {
            "type": "Feature",
            "geometry": {
                "type": "Point",
                "coordinates": [
                    -81.0,
                    7.516666666
                ]
            },
            "properties": {
                "name": "Cerro la Torre",
                "article": null
            }
        },
        {
            "type": "Feature",
            "geometry": {
                "type": "Point",
                "coordinates": [
                    -80.483333333,
                    8.6
                ]
            },
            "properties": {
                "name": "Cerro Torno",
                "article": null
            }
        },
        {
            "type": "Feature",
            "geometry": {
                "type": "Point",
                "coordinates": [
                    -81.4983,
                    8.4867
                ]
            },
            "properties": {
                "name": "Cerro Tolica",
                "article": null
            }
        },
        {
            "type": "Feature",
            "geometry": {
                "type": "Point",
                "coordinates": [
                    -81.65,
                    8.116666666
                ]
            },
            "properties": {
                "name": "Cerro de Tinta",
                "article": null
            }
        },
        {
            "type": "Feature",
            "geometry": {
                "type": "Point",
                "coordinates": [
                    -80.9044,
                    7.8456
                ]
            },
            "properties": {
                "name": "Cerro Tijera",
                "article": null
            }
        },
        {
            "type": "Feature",
            "geometry": {
                "type": "Point",
                "coordinates": [
                    -80.5,
                    7.65
                ]
            },
            "properties": {
                "name": "Cerro el Tigre",
                "article": null
            }
        },
        {
            "type": "Feature",
            "geometry": {
                "type": "Point",
                "coordinates": [
                    -81.2792,
                    8.3708
                ]
            },
            "properties": {
                "name": "Cerro Tierra Cortada",
                "article": null
            }
        },
        {
            "type": "Feature",
            "geometry": {
                "type": "Point",
                "coordinates": [
                    -77.9817,
                    9.0483
                ]
            },
            "properties": {
                "name": "Temartaket Yala",
                "article": null
            }
        },
        {
            "type": "Feature",
            "geometry": {
                "type": "Point",
                "coordinates": [
                    -80.266666666,
                    7.616666666
                ]
            },
            "properties": {
                "name": "Cerro del Tebujo",
                "article": null
            }
        },
        {
            "type": "Feature",
            "geometry": {
                "type": "Point",
                "coordinates": [
                    -81.5792,
                    7.8867
                ]
            },
            "properties": {
                "name": "Cerro Tambor",
                "article": null
            }
        },
        {
            "type": "Feature",
            "geometry": {
                "type": "Point",
                "coordinates": [
                    -80.1,
                    8.616666666
                ]
            },
            "properties": {
                "name": "Cerro Tagua",
                "article": null
            }
        },
        {
            "type": "Feature",
            "geometry": {
                "type": "Point",
                "coordinates": [
                    -81.04,
                    8.3275
                ]
            },
            "properties": {
                "name": "Cerro las Tablas",
                "article": null
            }
        },
        {
            "type": "Feature",
            "geometry": {
                "type": "Point",
                "coordinates": [
                    -81.095,
                    8.6042
                ]
            },
            "properties": {
                "name": "Cerro Negro",
                "article": null
            }
        },
        {
            "type": "Feature",
            "geometry": {
                "type": "Point",
                "coordinates": [
                    -80.383333333,
                    7.616666666
                ]
            },
            "properties": {
                "name": "Cerro Negro",
                "article": null
            }
        },
        {
            "type": "Feature",
            "geometry": {
                "type": "Point",
                "coordinates": [
                    -80.716666666,
                    7.7
                ]
            },
            "properties": {
                "name": "Loma del Naranjo",
                "article": null
            }
        },
        {
            "type": "Feature",
            "geometry": {
                "type": "Point",
                "coordinates": [
                    -81.583333333,
                    8.4
                ]
            },
            "properties": {
                "name": "Cerro Nance",
                "article": null
            }
        },
        {
            "type": "Feature",
            "geometry": {
                "type": "Point",
                "coordinates": [
                    -80.5783,
                    8.48
                ]
            },
            "properties": {
                "name": "Cerro Muela",
                "article": null
            }
        },
        {
            "type": "Feature",
            "geometry": {
                "type": "Point",
                "coordinates": [
                    -80.905,
                    7.4708
                ]
            },
            "properties": {
                "name": "Loma de Morrillo",
                "article": null
            }
        },
        {
            "type": "Feature",
            "geometry": {
                "type": "Point",
                "coordinates": [
                    -80.35,
                    7.566666666
                ]
            },
            "properties": {
                "name": "Cerro el Montoso",
                "article": null
            }
        },
        {
            "type": "Feature",
            "geometry": {
                "type": "Point",
                "coordinates": [
                    -81.4358,
                    8.3167
                ]
            },
            "properties": {
                "name": "El Filo de Monte Grande",
                "article": null
            }
        },
        {
            "type": "Feature",
            "geometry": {
                "type": "Point",
                "coordinates": [
                    -80.5,
                    7.55
                ]
            },
            "properties": {
                "name": "Loma Monte Bonito",
                "article": null
            }
        },
        {
            "type": "Feature",
            "geometry": {
                "type": "Point",
                "coordinates": [
                    -81.483333333,
                    8.05
                ]
            },
            "properties": {
                "name": "Cerro Mono Zoco",
                "article": null
            }
        },
        {
            "type": "Feature",
            "geometry": {
                "type": "Point",
                "coordinates": [
                    -80.5025,
                    8.67
                ]
            },
            "properties": {
                "name": "Cerro Mohino",
                "article": null
            }
        },
        {
            "type": "Feature",
            "geometry": {
                "type": "Point",
                "coordinates": [
                    -82.2533,
                    8.9783
                ]
            },
            "properties": {
                "name": "Cerro Miramar",
                "article": null
            }
        },
        {
            "type": "Feature",
            "geometry": {
                "type": "Point",
                "coordinates": [
                    -80.265,
                    8.6383
                ]
            },
            "properties": {
                "name": "Cerro Miraflores",
                "article": null
            }
        },
        {
            "type": "Feature",
            "geometry": {
                "type": "Point",
                "coordinates": [
                    -81.6658,
                    8.4358
                ]
            },
            "properties": {
                "name": "Cerro Miel",
                "article": null
            }
        },
        {
            "type": "Feature",
            "geometry": {
                "type": "Point",
                "coordinates": [
                    -81.333333333,
                    8.2
                ]
            },
            "properties": {
                "name": "Cerro el Micho",
                "article": null
            }
        },
        {
            "type": "Feature",
            "geometry": {
                "type": "Point",
                "coordinates": [
                    -81.2333,
                    8.1367
                ]
            },
            "properties": {
                "name": "Cerro La Mesita",
                "article": null
            }
        },
        {
            "type": "Feature",
            "geometry": {
                "type": "Point",
                "coordinates": [
                    -81.86667,
                    8.38333
                ]
            },
            "properties": {
                "name": "Cerro Mesa",
                "article": null
            }
        },
        {
            "type": "Feature",
            "geometry": {
                "type": "Point",
                "coordinates": [
                    -81.633333333,
                    8.3
                ]
            },
            "properties": {
                "name": "Cerro Meregilda",
                "article": null
            }
        },
        {
            "type": "Feature",
            "geometry": {
                "type": "Point",
                "coordinates": [
                    -79.933333333,
                    8.65
                ]
            },
            "properties": {
                "name": "Cerro Mena",
                "article": null
            }
        },
        {
            "type": "Feature",
            "geometry": {
                "type": "Point",
                "coordinates": [
                    -81.8,
                    8.383333333
                ]
            },
            "properties": {
                "name": "Cerro Membrillo",
                "article": null
            }
        },
        {
            "type": "Feature",
            "geometry": {
                "type": "Point",
                "coordinates": [
                    -80.4033,
                    8.5725
                ]
            },
            "properties": {
                "name": "Cerro Membrillar",
                "article": null
            }
        },
        {
            "type": "Feature",
            "geometry": {
                "type": "Point",
                "coordinates": [
                    -82.316666666,
                    8.633333333
                ]
            },
            "properties": {
                "name": "Cerro Meca Alto",
                "article": null
            }
        },
        {
            "type": "Feature",
            "geometry": {
                "type": "Point",
                "coordinates": [
                    -80.366666666,
                    7.516666666
                ]
            },
            "properties": {
                "name": "Loma Mateo",
                "article": null
            }
        },
        {
            "type": "Feature",
            "geometry": {
                "type": "Point",
                "coordinates": [
                    -80.3008,
                    7.6033
                ]
            },
            "properties": {
                "name": "Loma la Mano",
                "article": null
            }
        },
        {
            "type": "Feature",
            "geometry": {
                "type": "Point",
                "coordinates": [
                    -81.9,
                    8.483333333
                ]
            },
            "properties": {
                "name": "Cerro Manita",
                "article": null
            }
        },
        {
            "type": "Feature",
            "geometry": {
                "type": "Point",
                "coordinates": [
                    -81.5267,
                    8.0483
                ]
            },
            "properties": {
                "name": "Cerro Manicuda",
                "article": null
            }
        },
        {
            "type": "Feature",
            "geometry": {
                "type": "Point",
                "coordinates": [
                    -80.7908,
                    7.5642
                ]
            },
            "properties": {
                "name": "Alto del Manglillo",
                "article": null
            }
        },
        {
            "type": "Feature",
            "geometry": {
                "type": "Point",
                "coordinates": [
                    -81.583333333,
                    8.3
                ]
            },
            "properties": {
                "name": "Cerro Mangle",
                "article": null
            }
        },
        {
            "type": "Feature",
            "geometry": {
                "type": "Point",
                "coordinates": [
                    -80.5475,
                    7.6133
                ]
            },
            "properties": {
                "name": "Cerro Mandinga",
                "article": null
            }
        },
        {
            "type": "Feature",
            "geometry": {
                "type": "Point",
                "coordinates": [
                    -81.933333333,
                    8.433333333
                ]
            },
            "properties": {
                "name": "Cerro Madera",
                "article": null
            }
        },
        {
            "type": "Feature",
            "geometry": {
                "type": "Point",
                "coordinates": [
                    -82.6308,
                    8.7467
                ]
            },
            "properties": {
                "name": "Cerro Machomonte",
                "article": null
            }
        },
        {
            "type": "Feature",
            "geometry": {
                "type": "Point",
                "coordinates": [
                    -80.8,
                    7.466666666
                ]
            },
            "properties": {
                "name": "Loma el Macho",
                "article": null
            }
        },
        {
            "type": "Feature",
            "geometry": {
                "type": "Point",
                "coordinates": [
                    -80.7017,
                    7.43
                ]
            },
            "properties": {
                "name": "Loma el Macho",
                "article": null
            }
        },
        {
            "type": "Feature",
            "geometry": {
                "type": "Point",
                "coordinates": [
                    -80.4676,
                    7.3632
                ]
            },
            "properties": {
                "name": "Loma del Macho",
                "article": null
            }
        },
        {
            "type": "Feature",
            "geometry": {
                "type": "Point",
                "coordinates": [
                    -80.716666666,
                    8.483333333
                ]
            },
            "properties": {
                "name": "Cerro Luisa",
                "article": null
            }
        },
        {
            "type": "Feature",
            "geometry": {
                "type": "Point",
                "coordinates": [
                    -81.466666666,
                    8.05
                ]
            },
            "properties": {
                "name": "Cerro Lucira",
                "article": null
            }
        },
        {
            "type": "Feature",
            "geometry": {
                "type": "Point",
                "coordinates": [
                    -80.466666666,
                    7.666666666
                ]
            },
            "properties": {
                "name": "Loma Los Negros",
                "article": null
            }
        },
        {
            "type": "Feature",
            "geometry": {
                "type": "Point",
                "coordinates": [
                    -81.483333333,
                    8.2
                ]
            },
            "properties": {
                "name": "Alto de Los Michos",
                "article": null
            }
        },
        {
            "type": "Feature",
            "geometry": {
                "type": "Point",
                "coordinates": [
                    -81.3417,
                    7.8342
                ]
            },
            "properties": {
                "name": "Filo de Los Machitos",
                "article": null
            }
        },
        {
            "type": "Feature",
            "geometry": {
                "type": "Point",
                "coordinates": [
                    -80.366666666,
                    7.566666666
                ]
            },
            "properties": {
                "name": "Loma del Loro",
                "article": null
            }
        },
        {
            "type": "Feature",
            "geometry": {
                "type": "Point",
                "coordinates": [
                    -80.366666666,
                    7.5
                ]
            },
            "properties": {
                "name": "Loma Grande",
                "article": null
            }
        },
        {
            "type": "Feature",
            "geometry": {
                "type": "Point",
                "coordinates": [
                    -80.35,
                    7.65
                ]
            },
            "properties": {
                "name": "Cerro la Loma",
                "article": null
            }
        },
        {
            "type": "Feature",
            "geometry": {
                "type": "Point",
                "coordinates": [
                    -80.466666666,
                    8.583333333
                ]
            },
            "properties": {
                "name": "Cerro Liso",
                "article": null
            }
        },
        {
            "type": "Feature",
            "geometry": {
                "type": "Point",
                "coordinates": [
                    -81.3142,
                    8.5008
                ]
            },
            "properties": {
                "name": "Cerro la Lima",
                "article": null
            }
        },
        {
            "type": "Feature",
            "geometry": {
                "type": "Point",
                "coordinates": [
                    -81.216666666,
                    8.266666666
                ]
            },
            "properties": {
                "name": "Cerro Libertad",
                "article": null
            }
        },
        {
            "type": "Feature",
            "geometry": {
                "type": "Point",
                "coordinates": [
                    -80.455,
                    7.6058
                ]
            },
            "properties": {
                "name": "Cerro La Virgen",
                "article": null
            }
        },
        {
            "type": "Feature",
            "geometry": {
                "type": "Point",
                "coordinates": [
                    -80.585833333,
                    7.413333333
                ]
            },
            "properties": {
                "name": "Cerro La Tronosa",
                "article": null
            }
        },
        {
            "type": "Feature",
            "geometry": {
                "type": "Point",
                "coordinates": [
                    -80.0625,
                    8.895833333
                ]
            },
            "properties": {
                "name": "Cerro Las Petras",
                "article": null
            }
        },
        {
            "type": "Feature",
            "geometry": {
                "type": "Point",
                "coordinates": [
                    -80.0825,
                    8.887777777
                ]
            },
            "properties": {
                "name": "Alto de Las Petras",
                "article": null
            }
        },
        {
            "type": "Feature",
            "geometry": {
                "type": "Point",
                "coordinates": [
                    -81.45,
                    7.866666666
                ]
            },
            "properties": {
                "name": "Loma Las Minas",
                "article": null
            }
        },
        {
            "type": "Feature",
            "geometry": {
                "type": "Point",
                "coordinates": [
                    -81.4,
                    8.333333333
                ]
            },
            "properties": {
                "name": "Cerro Las Mesitas",
                "article": null
            }
        },
        {
            "type": "Feature",
            "geometry": {
                "type": "Point",
                "coordinates": [
                    -81.266666666,
                    8.45
                ]
            },
            "properties": {
                "name": "Cerro Las Mesillas",
                "article": null
            }
        },
        {
            "type": "Feature",
            "geometry": {
                "type": "Point",
                "coordinates": [
                    -80.783333333,
                    7.633333333
                ]
            },
            "properties": {
                "name": "Alto de Las Matas",
                "article": null
            }
        },
        {
            "type": "Feature",
            "geometry": {
                "type": "Point",
                "coordinates": [
                    -80.1,
                    8.583333333
                ]
            },
            "properties": {
                "name": "Cerro La Silla",
                "article": null
            }
        },
        {
            "type": "Feature",
            "geometry": {
                "type": "Point",
                "coordinates": [
                    -82.416666666,
                    8.7
                ]
            },
            "properties": {
                "name": "Cerro Las Guacas",
                "article": null
            }
        },
        {
            "type": "Feature",
            "geometry": {
                "type": "Point",
                "coordinates": [
                    -81.2,
                    8.266666666
                ]
            },
            "properties": {
                "name": "Cerro Las Banderas",
                "article": null
            }
        },
        {
            "type": "Feature",
            "geometry": {
                "type": "Point",
                "coordinates": [
                    -80.85,
                    7.8225
                ]
            },
            "properties": {
                "name": "Cerro Largo",
                "article": null
            }
        },
        {
            "type": "Feature",
            "geometry": {
                "type": "Point",
                "coordinates": [
                    -80.333333333,
                    7.633333333
                ]
            },
            "properties": {
                "name": "Cerro Largo",
                "article": null
            }
        },
        {
            "type": "Feature",
            "geometry": {
                "type": "Point",
                "coordinates": [
                    -80.483333333,
                    7.6
                ]
            },
            "properties": {
                "name": "Cerro La Rana",
                "article": null
            }
        },
        {
            "type": "Feature",
            "geometry": {
                "type": "Point",
                "coordinates": [
                    -80.35,
                    7.5
                ]
            },
            "properties": {
                "name": "Loma La Pipa",
                "article": null
            }
        },
        {
            "type": "Feature",
            "geometry": {
                "type": "Point",
                "coordinates": [
                    -81.365,
                    7.7508
                ]
            },
            "properties": {
                "name": "El Alto de La Pedregosa",
                "article": null
            }
        },
        {
            "type": "Feature",
            "geometry": {
                "type": "Point",
                "coordinates": [
                    -80.675,
                    7.56
                ]
            },
            "properties": {
                "name": "Loma de La Palma",
                "article": null
            }
        },
        {
            "type": "Feature",
            "geometry": {
                "type": "Point",
                "coordinates": [
                    -81.383333333,
                    7.95
                ]
            },
            "properties": {
                "name": "Filo de La Pacora",
                "article": null
            }
        },
        {
            "type": "Feature",
            "geometry": {
                "type": "Point",
                "coordinates": [
                    -81.35,
                    8.466666666
                ]
            },
            "properties": {
                "name": "Cerro La Nuca del Toro",
                "article": null
            }
        },
        {
            "type": "Feature",
            "geometry": {
                "type": "Point",
                "coordinates": [
                    -81.555,
                    7.80278
                ]
            },
            "properties": {
                "name": "Filo de Mona",
                "article": null
            }
        },
        {
            "type": "Feature",
            "geometry": {
                "type": "Point",
                "coordinates": [
                    -80.333333333,
                    7.55
                ]
            },
            "properties": {
                "name": "Loma La Miel",
                "article": null
            }
        },
        {
            "type": "Feature",
            "geometry": {
                "type": "Point",
                "coordinates": [
                    -80.3,
                    7.6
                ]
            },
            "properties": {
                "name": "Cerro La Loma",
                "article": null
            }
        },
        {
            "type": "Feature",
            "geometry": {
                "type": "Point",
                "coordinates": [
                    -82.316666666,
                    8.766666666
                ]
            },
            "properties": {
                "name": "Cerro La Lata",
                "article": null
            }
        },
        {
            "type": "Feature",
            "geometry": {
                "type": "Point",
                "coordinates": [
                    -80.35,
                    7.6
                ]
            },
            "properties": {
                "name": "Loma La Laja",
                "article": null
            }
        },
        {
            "type": "Feature",
            "geometry": {
                "type": "Point",
                "coordinates": [
                    -81.4,
                    8.483333333
                ]
            },
            "properties": {
                "name": "Cerro La Laguna",
                "article": null
            }
        },
        {
            "type": "Feature",
            "geometry": {
                "type": "Point",
                "coordinates": [
                    -82.266666666,
                    8.616666666
                ]
            },
            "properties": {
                "name": "Cerro Lajita",
                "article": null
            }
        },
        {
            "type": "Feature",
            "geometry": {
                "type": "Point",
                "coordinates": [
                    -80.483333333,
                    8.583333333
                ]
            },
            "properties": {
                "name": "Cerro la Palma",
                "article": null
            }
        },
        {
            "type": "Feature",
            "geometry": {
                "type": "Point",
                "coordinates": [
                    -80.385,
                    7.6192
                ]
            },
            "properties": {
                "name": "Cerro Pajosa",
                "article": null
            }
        },
        {
            "type": "Feature",
            "geometry": {
                "type": "Point",
                "coordinates": [
                    -80.133333333,
                    8.616666666
                ]
            },
            "properties": {
                "name": "Cerro Pajita",
                "article": null
            }
        },
        {
            "type": "Feature",
            "geometry": {
                "type": "Point",
                "coordinates": [
                    -81.416666666,
                    8.216666666
                ]
            },
            "properties": {
                "name": "Cerro Pajal",
                "article": null
            }
        },
        {
            "type": "Feature",
            "geometry": {
                "type": "Point",
                "coordinates": [
                    -80.75,
                    7.7
                ]
            },
            "properties": {
                "name": "Cerro Paja de Nata",
                "article": null
            }
        },
        {
            "type": "Feature",
            "geometry": {
                "type": "Point",
                "coordinates": [
                    -80.466666666,
                    7.7
                ]
            },
            "properties": {
                "name": "Loma de Paja",
                "article": null
            }
        },
        {
            "type": "Feature",
            "geometry": {
                "type": "Point",
                "coordinates": [
                    -79.9,
                    8.7
                ]
            },
            "properties": {
                "name": "Loma Paja",
                "article": null
            }
        },
        {
            "type": "Feature",
            "geometry": {
                "type": "Point",
                "coordinates": [
                    -80.9717,
                    8.3158
                ]
            },
            "properties": {
                "name": "Cerro Paja",
                "article": null
            }
        },
        {
            "type": "Feature",
            "geometry": {
                "type": "Point",
                "coordinates": [
                    -81.883333333,
                    8.45
                ]
            },
            "properties": {
                "name": "Cerro Otoe",
                "article": null
            }
        },
        {
            "type": "Feature",
            "geometry": {
                "type": "Point",
                "coordinates": [
                    -77.6028,
                    8.8031
                ]
            },
            "properties": {
                "name": "Ortupu Yala",
                "article": null
            }
        },
        {
            "type": "Feature",
            "geometry": {
                "type": "Point",
                "coordinates": [
                    -81.966666666,
                    8.433333333
                ]
            },
            "properties": {
                "name": "Cerro Ollama",
                "article": null
            }
        },
        {
            "type": "Feature",
            "geometry": {
                "type": "Point",
                "coordinates": [
                    -80.7817,
                    7.3158
                ]
            },
            "properties": {
                "name": "Cerro Olla",
                "article": null
            }
        },
        {
            "type": "Feature",
            "geometry": {
                "type": "Point",
                "coordinates": [
                    -82.3208,
                    8.7783
                ]
            },
            "properties": {
                "name": "Cerro Olga",
                "article": null
            }
        },
        {
            "type": "Feature",
            "geometry": {
                "type": "Point",
                "coordinates": [
                    -79.9667,
                    8.7592
                ]
            },
            "properties": {
                "name": "Cerro Ojo de Agua",
                "article": null
            }
        },
        {
            "type": "Feature",
            "geometry": {
                "type": "Point",
                "coordinates": [
                    -80.316666666,
                    7.516666666
                ]
            },
            "properties": {
                "name": "Cerro Nuario",
                "article": null
            }
        },
        {
            "type": "Feature",
            "geometry": {
                "type": "Point",
                "coordinates": [
                    -80.816666666,
                    7.666666666
                ]
            },
            "properties": {
                "name": "Cordillera de Noneca",
                "article": null
            }
        },
        {
            "type": "Feature",
            "geometry": {
                "type": "Point",
                "coordinates": [
                    -81.216666666,
                    8.283333333
                ]
            },
            "properties": {
                "name": "Cerro la Noneca",
                "article": null
            }
        },
        {
            "type": "Feature",
            "geometry": {
                "type": "Point",
                "coordinates": [
                    -80.633333333,
                    7.6
                ]
            },
            "properties": {
                "name": "Cerro Noneca",
                "article": null
            }
        },
        {
            "type": "Feature",
            "geometry": {
                "type": "Point",
                "coordinates": [
                    -81.095,
                    8.6042
                ]
            },
            "properties": {
                "name": "Cerro Negro",
                "article": null
            }
        },
        {
            "type": "Feature",
            "geometry": {
                "type": "Point",
                "coordinates": [
                    -80.383333333,
                    7.616666666
                ]
            },
            "properties": {
                "name": "Cerro Negro",
                "article": null
            }
        },
        {
            "type": "Feature",
            "geometry": {
                "type": "Point",
                "coordinates": [
                    -80.716666666,
                    7.7
                ]
            },
            "properties": {
                "name": "Loma del Naranjo",
                "article": null
            }
        },
        {
            "type": "Feature",
            "geometry": {
                "type": "Point",
                "coordinates": [
                    -81.583333333,
                    8.4
                ]
            },
            "properties": {
                "name": "Cerro Nance",
                "article": null
            }
        },
        {
            "type": "Feature",
            "geometry": {
                "type": "Point",
                "coordinates": [
                    -80.5783,
                    8.48
                ]
            },
            "properties": {
                "name": "Cerro Muela",
                "article": null
            }
        },
        {
            "type": "Feature",
            "geometry": {
                "type": "Point",
                "coordinates": [
                    -80.905,
                    7.4708
                ]
            },
            "properties": {
                "name": "Loma de Morrillo",
                "article": null
            }
        },
        {
            "type": "Feature",
            "geometry": {
                "type": "Point",
                "coordinates": [
                    -80.35,
                    7.566666666
                ]
            },
            "properties": {
                "name": "Cerro el Montoso",
                "article": null
            }
        },
        {
            "type": "Feature",
            "geometry": {
                "type": "Point",
                "coordinates": [
                    -81.4358,
                    8.3167
                ]
            },
            "properties": {
                "name": "El Filo de Monte Grande",
                "article": null
            }
        },
        {
            "type": "Feature",
            "geometry": {
                "type": "Point",
                "coordinates": [
                    -80.716666666,
                    8.483333333
                ]
            },
            "properties": {
                "name": "Cerro Luisa",
                "article": null
            }
        },
        {
            "type": "Feature",
            "geometry": {
                "type": "Point",
                "coordinates": [
                    -81.466666666,
                    8.05
                ]
            },
            "properties": {
                "name": "Cerro Lucira",
                "article": null
            }
        },
        {
            "type": "Feature",
            "geometry": {
                "type": "Point",
                "coordinates": [
                    -80.466666666,
                    7.666666666
                ]
            },
            "properties": {
                "name": "Loma Los Negros",
                "article": null
            }
        },
        {
            "type": "Feature",
            "geometry": {
                "type": "Point",
                "coordinates": [
                    -81.483333333,
                    8.2
                ]
            },
            "properties": {
                "name": "Alto de Los Michos",
                "article": null
            }
        },
        {
            "type": "Feature",
            "geometry": {
                "type": "Point",
                "coordinates": [
                    -81.3417,
                    7.8342
                ]
            },
            "properties": {
                "name": "Filo de Los Machitos",
                "article": null
            }
        },
        {
            "type": "Feature",
            "geometry": {
                "type": "Point",
                "coordinates": [
                    -80.366666666,
                    7.566666666
                ]
            },
            "properties": {
                "name": "Loma del Loro",
                "article": null
            }
        },
        {
            "type": "Feature",
            "geometry": {
                "type": "Point",
                "coordinates": [
                    -80.366666666,
                    7.5
                ]
            },
            "properties": {
                "name": "Loma Grande",
                "article": null
            }
        },
        {
            "type": "Feature",
            "geometry": {
                "type": "Point",
                "coordinates": [
                    -80.35,
                    7.65
                ]
            },
            "properties": {
                "name": "Cerro la Loma",
                "article": null
            }
        },
        {
            "type": "Feature",
            "geometry": {
                "type": "Point",
                "coordinates": [
                    -80.466666666,
                    8.583333333
                ]
            },
            "properties": {
                "name": "Cerro Liso",
                "article": null
            }
        },
        {
            "type": "Feature",
            "geometry": {
                "type": "Point",
                "coordinates": [
                    -81.3142,
                    8.5008
                ]
            },
            "properties": {
                "name": "Cerro la Lima",
                "article": null
            }
        },
        {
            "type": "Feature",
            "geometry": {
                "type": "Point",
                "coordinates": [
                    -81.216666666,
                    8.266666666
                ]
            },
            "properties": {
                "name": "Cerro Libertad",
                "article": null
            }
        },
        {
            "type": "Feature",
            "geometry": {
                "type": "Point",
                "coordinates": [
                    -80.455,
                    7.6058
                ]
            },
            "properties": {
                "name": "Cerro La Virgen",
                "article": null
            }
        },
        {
            "type": "Feature",
            "geometry": {
                "type": "Point",
                "coordinates": [
                    -80.585833333,
                    7.413333333
                ]
            },
            "properties": {
                "name": "Cerro La Tronosa",
                "article": null
            }
        },
        {
            "type": "Feature",
            "geometry": {
                "type": "Point",
                "coordinates": [
                    -80.0625,
                    8.895833333
                ]
            },
            "properties": {
                "name": "Cerro Las Petras",
                "article": null
            }
        },
        {
            "type": "Feature",
            "geometry": {
                "type": "Point",
                "coordinates": [
                    -80.0825,
                    8.887777777
                ]
            },
            "properties": {
                "name": "Alto de Las Petras",
                "article": null
            }
        },
        {
            "type": "Feature",
            "geometry": {
                "type": "Point",
                "coordinates": [
                    -81.45,
                    7.866666666
                ]
            },
            "properties": {
                "name": "Loma Las Minas",
                "article": null
            }
        },
        {
            "type": "Feature",
            "geometry": {
                "type": "Point",
                "coordinates": [
                    -81.4,
                    8.333333333
                ]
            },
            "properties": {
                "name": "Cerro Las Mesitas",
                "article": null
            }
        },
        {
            "type": "Feature",
            "geometry": {
                "type": "Point",
                "coordinates": [
                    -81.266666666,
                    8.45
                ]
            },
            "properties": {
                "name": "Cerro Las Mesillas",
                "article": null
            }
        },
        {
            "type": "Feature",
            "geometry": {
                "type": "Point",
                "coordinates": [
                    -80.783333333,
                    7.633333333
                ]
            },
            "properties": {
                "name": "Alto de Las Matas",
                "article": null
            }
        },
        {
            "type": "Feature",
            "geometry": {
                "type": "Point",
                "coordinates": [
                    -80.1,
                    8.583333333
                ]
            },
            "properties": {
                "name": "Cerro La Silla",
                "article": null
            }
        },
        {
            "type": "Feature",
            "geometry": {
                "type": "Point",
                "coordinates": [
                    -82.416666666,
                    8.7
                ]
            },
            "properties": {
                "name": "Cerro Las Guacas",
                "article": null
            }
        },
        {
            "type": "Feature",
            "geometry": {
                "type": "Point",
                "coordinates": [
                    -81.2,
                    8.266666666
                ]
            },
            "properties": {
                "name": "Cerro Las Banderas",
                "article": null
            }
        },
        {
            "type": "Feature",
            "geometry": {
                "type": "Point",
                "coordinates": [
                    -80.85,
                    7.8225
                ]
            },
            "properties": {
                "name": "Cerro Largo",
                "article": null
            }
        },
        {
            "type": "Feature",
            "geometry": {
                "type": "Point",
                "coordinates": [
                    -80.333333333,
                    7.633333333
                ]
            },
            "properties": {
                "name": "Cerro Largo",
                "article": null
            }
        },
        {
            "type": "Feature",
            "geometry": {
                "type": "Point",
                "coordinates": [
                    -80.483333333,
                    7.6
                ]
            },
            "properties": {
                "name": "Cerro La Rana",
                "article": null
            }
        },
        {
            "type": "Feature",
            "geometry": {
                "type": "Point",
                "coordinates": [
                    -80.35,
                    7.5
                ]
            },
            "properties": {
                "name": "Loma La Pipa",
                "article": null
            }
        },
        {
            "type": "Feature",
            "geometry": {
                "type": "Point",
                "coordinates": [
                    -81.365,
                    7.7508
                ]
            },
            "properties": {
                "name": "El Alto de La Pedregosa",
                "article": null
            }
        },
        {
            "type": "Feature",
            "geometry": {
                "type": "Point",
                "coordinates": [
                    -80.675,
                    7.56
                ]
            },
            "properties": {
                "name": "Loma de La Palma",
                "article": null
            }
        },
        {
            "type": "Feature",
            "geometry": {
                "type": "Point",
                "coordinates": [
                    -81.383333333,
                    7.95
                ]
            },
            "properties": {
                "name": "Filo de La Pacora",
                "article": null
            }
        },
        {
            "type": "Feature",
            "geometry": {
                "type": "Point",
                "coordinates": [
                    -81.35,
                    8.466666666
                ]
            },
            "properties": {
                "name": "Cerro La Nuca del Toro",
                "article": null
            }
        },
        {
            "type": "Feature",
            "geometry": {
                "type": "Point",
                "coordinates": [
                    -81.555,
                    7.80278
                ]
            },
            "properties": {
                "name": "Filo de Mona",
                "article": null
            }
        },
        {
            "type": "Feature",
            "geometry": {
                "type": "Point",
                "coordinates": [
                    -80.333333333,
                    7.55
                ]
            },
            "properties": {
                "name": "Loma La Miel",
                "article": null
            }
        },
        {
            "type": "Feature",
            "geometry": {
                "type": "Point",
                "coordinates": [
                    -80.3,
                    7.6
                ]
            },
            "properties": {
                "name": "Cerro La Loma",
                "article": null
            }
        },
        {
            "type": "Feature",
            "geometry": {
                "type": "Point",
                "coordinates": [
                    -82.316666666,
                    8.766666666
                ]
            },
            "properties": {
                "name": "Cerro La Lata",
                "article": null
            }
        },
        {
            "type": "Feature",
            "geometry": {
                "type": "Point",
                "coordinates": [
                    -80.35,
                    7.6
                ]
            },
            "properties": {
                "name": "Loma La Laja",
                "article": null
            }
        },
        {
            "type": "Feature",
            "geometry": {
                "type": "Point",
                "coordinates": [
                    -81.4,
                    8.483333333
                ]
            },
            "properties": {
                "name": "Cerro La Laguna",
                "article": null
            }
        },
        {
            "type": "Feature",
            "geometry": {
                "type": "Point",
                "coordinates": [
                    -82.266666666,
                    8.616666666
                ]
            },
            "properties": {
                "name": "Cerro Lajita",
                "article": null
            }
        },
        {
            "type": "Feature",
            "geometry": {
                "type": "Point",
                "coordinates": [
                    -80.8667,
                    7.5017
                ]
            },
            "properties": {
                "name": "Loma de La Honda",
                "article": null
            }
        },
        {
            "type": "Feature",
            "geometry": {
                "type": "Point",
                "coordinates": [
                    -80.866666666,
                    7.483333333
                ]
            },
            "properties": {
                "name": "Cerro La Honda",
                "article": null
            }
        },
        {
            "type": "Feature",
            "geometry": {
                "type": "Point",
                "coordinates": [
                    -81.75,
                    8.433333333
                ]
            },
            "properties": {
                "name": "Cerro Lagunas",
                "article": null
            }
        },
        {
            "type": "Feature",
            "geometry": {
                "type": "Point",
                "coordinates": [
                    -80.7,
                    7.583333333
                ]
            },
            "properties": {
                "name": "Cerro La Guabita",
                "article": null
            }
        },
        {
            "type": "Feature",
            "geometry": {
                "type": "Point",
                "coordinates": [
                    -80.6833,
                    7.6033
                ]
            },
            "properties": {
                "name": "Cerro La Furnia",
                "article": null
            }
        },
        {
            "type": "Feature",
            "geometry": {
                "type": "Point",
                "coordinates": [
                    -82.38333,
                    8.78333
                ]
            },
            "properties": {
                "name": "Cerro La Estrella",
                "article": null
            }
        },
        {
            "type": "Feature",
            "geometry": {
                "type": "Point",
                "coordinates": [
                    -80.183333333,
                    8.583333333
                ]
            },
            "properties": {
                "name": "Alto de La Estancia",
                "article": null
            }
        },
        {
            "type": "Feature",
            "geometry": {
                "type": "Point",
                "coordinates": [
                    -80.4373,
                    7.2534
                ]
            },
            "properties": {
                "name": "Cerro de La Cuchilla",
                "article": null
            }
        },
        {
            "type": "Feature",
            "geometry": {
                "type": "Point",
                "coordinates": [
                    -80.065833333,
                    8.913333333
                ]
            },
            "properties": {
                "name": "Cerro de La Cachorra",
                "article": null
            }
        },
        {
            "type": "Feature",
            "geometry": {
                "type": "Point",
                "coordinates": [
                    -80.4819,
                    7.4571
                ]
            },
            "properties": {
                "name": "Loma La Bonita",
                "article": null
            }
        },
        {
            "type": "Feature",
            "geometry": {
                "type": "Point",
                "coordinates": [
                    -81.4983,
                    7.8983
                ]
            },
            "properties": {
                "name": "Cerro La Bonga",
                "article": null
            }
        },