{
    "type": "FeatureCollection",
    "features": [
        {
            "type": "Feature",
            "geometry": {
                "type": "Point",
                "coordinates": [
                    153.433333333,
                    -11.5
                ]
            },
            "properties": {
                "name": "Vanatinai",
                "article": "https://en.wikipedia.org/wiki/Tagula_Island"
            }
        },
        {
            "type": "Feature",
            "geometry": {
                "type": "Point",
                "coordinates": [
                    151.24222222,
                    -10.71333333
                ]
            },
            "properties": {
                "name": "Anagusa",
                "article": "https://en.wikipedia.org/wiki/Anagusa"
            }
        },
        {
            "type": "Feature",
            "geometry": {
                "type": "Point",
                "coordinates": [
                    145.383333333,
                    -6.083333333
                ]
            },
            "properties": {
                "name": "Goroka",
                "article": "https://en.wikipedia.org/wiki/Goroka"
            }
        },
        {
            "type": "Feature",
            "geometry": {
                "type": "Point",
                "coordinates": [
                    143.2,
                    -9.083333333
                ]
            },
            "properties": {
                "name": "Daru",
                "article": "https://en.wikipedia.org/wiki/Daru"
            }
        },
        {
            "type": "Feature",
            "geometry": {
                "type": "Point",
                "coordinates": [
                    150.433333333,
                    -10.316666666
                ]
            },
            "properties": {
                "name": "Alotau",
                "article": "https://en.wikipedia.org/wiki/Alotau"
            }
        },
        {
            "type": "Feature",
            "geometry": {
                "type": "Point",
                "coordinates": [
                    151.06472222,
                    -10.95944444
                ]
            },
            "properties": {
                "name": "Wari",
                "article": null
            }
        },
        {
            "type": "Feature",
            "geometry": {
                "type": "Point",
                "coordinates": [
                    146.9,
                    -2.1
                ]
            },
            "properties": {
                "name": "Manus Island",
                "article": "https://en.wikipedia.org/wiki/Manus_Island"
            }
        },
        {
            "type": "Feature",
            "geometry": {
                "type": "Point",
                "coordinates": [
                    147.000833333,
                    -6.730277777
                ]
            },
            "properties": {
                "name": "Lae",
                "article": "https://en.wikipedia.org/wiki/Lae"
            }
        },
        {
            "type": "Feature",
            "geometry": {
                "type": "Point",
                "coordinates": [
                    150.267,
                    -9.36667
                ]
            },
            "properties": {
                "name": "Goodenough Island",
                "article": "https://en.wikipedia.org/wiki/Goodenough_Island"
            }
        },
        {
            "type": "Feature",
            "geometry": {
                "type": "Point",
                "coordinates": [
                    149.483333333,
                    -4.683333333
                ]
            },
            "properties": {
                "name": "Garove",
                "article": null
            }
        },
        {
            "type": "Feature",
            "geometry": {
                "type": "Point",
                "coordinates": [
                    149.493611111,
                    -4.6675
                ]
            },
            "properties": {
                "name": "Garove",
                "article": null
            }
        },
        {
            "type": "Feature",
            "geometry": {
                "type": "Point",
                "coordinates": [
                    155.3,
                    -6.13333333
                ]
            },
            "properties": {
                "name": "Bougainville Campaign",
                "article": "https://en.wikipedia.org/wiki/Bougainville_campaign"
            }
        },
        {
            "type": "Feature",
            "geometry": {
                "type": "Point",
                "coordinates": [
                    145.966667,
                    -4.633333
                ]
            },
            "properties": {
                "name": "Karkar Island",
                "article": "https://en.wikipedia.org/wiki/Karkar_Island"
            }
        },
        {
            "type": "Feature",
            "geometry": {
                "type": "Point",
                "coordinates": [
                    145.974444444,
                    -4.634166666
                ]
            },
            "properties": {
                "name": "Karkar Island",
                "article": "https://en.wikipedia.org/wiki/Karkar_Island"
            }
        },
        {
            "type": "Feature",
            "geometry": {
                "type": "Point",
                "coordinates": [
                    146.716666666,
                    -7.338888888
                ]
            },
            "properties": {
                "name": "Battle of Wau",
                "article": "https://en.wikipedia.org/wiki/Battle_of_Wau"
            }
        },
        {
            "type": "Feature",
            "geometry": {
                "type": "Point",
                "coordinates": [
                    143.066666666,
                    -1.45
                ]
            },
            "properties": {
                "name": "Aua Island",
                "article": "https://en.wikipedia.org/wiki/Aua_Island"
            }
        },
        {
            "type": "Feature",
            "geometry": {
                "type": "Point",
                "coordinates": [
                    150.675,
                    -9.5175
                ]
            },
            "properties": {
                "name": "Fergusson Island",
                "article": "https://en.wikipedia.org/wiki/Fergusson_Island"
            }
        },
        {
            "type": "Feature",
            "geometry": {
                "type": "Point",
                "coordinates": [
                    146.233333333,
                    -4.8
                ]
            },
            "properties": {
                "name": "Bagabag",
                "article": "https://en.wikipedia.org/wiki/Bagabag_(Papua_New_Guinea)"
            }
        },
        {
            "type": "Feature",
            "geometry": {
                "type": "Point",
                "coordinates": [
                    155.195,
                    -6.14
                ]
            },
            "properties": {
                "name": "Bagana",
                "article": "https://en.wikipedia.org/wiki/Bagana"
            }
        },
        {
            "type": "Feature",
            "geometry": {
                "type": "Point",
                "coordinates": [
                    147.289166666,
                    -2.558333333
                ]
            },
            "properties": {
                "name": "Baluan",
                "article": "https://en.wikipedia.org/wiki/Baluan"
            }
        },
        {
            "type": "Feature",
            "geometry": {
                "type": "Point",
                "coordinates": [
                    147.283333333,
                    -2.55
                ]
            },
            "properties": {
                "name": "Baluan Island",
                "article": "https://en.wikipedia.org/wiki/Baluan_Island"
            }
        },
        {
            "type": "Feature",
            "geometry": {
                "type": "Point",
                "coordinates": [
                    144.816666666,
                    -3.616666666
                ]
            },
            "properties": {
                "name": "Bam",
                "article": "https://en.wikipedia.org/wiki/Bam_Island_(Papua_New_Guinea)"
            }
        },
        {
            "type": "Feature",
            "geometry": {
                "type": "Point",
                "coordinates": [
                    151.241111111,
                    -5.196111111
                ]
            },
            "properties": {
                "name": "Bamus",
                "article": "https://en.wikipedia.org/wiki/Bamus_Volcano"
            }
        },
        {
            "type": "Feature",
            "geometry": {
                "type": "Point",
                "coordinates": [
                    154.633333333,
                    -5.25
                ]
            },
            "properties": {
                "name": "Buka Island",
                "article": "https://en.wikipedia.org/wiki/Buka_Island"
            }
        },
        {
            "type": "Feature",
            "geometry": {
                "type": "Point",
                "coordinates": [
                    155.225,
                    -6.092
                ]
            },
            "properties": {
                "name": "Billy Mitchell",
                "article": "https://en.wikipedia.org/wiki/Billy_Mitchell_(volcano)"
            }
        },
        {
            "type": "Feature",
            "geometry": {
                "type": "Point",
                "coordinates": [
                    144.606388888,
                    -3.508888888
                ]
            },
            "properties": {
                "name": "Blup Blup",
                "article": "https://en.wikipedia.org/wiki/Blup_Blup"
            }
        },
        {
            "type": "Feature",
            "geometry": {
                "type": "Point",
                "coordinates": [
                    144.606388888,
                    -3.508888888
                ]
            },
            "properties": {
                "name": "Blup Blup",
                "article": "https://en.wikipedia.org/wiki/Blup_Blup"
            }
        },
        {
            "type": "Feature",
            "geometry": {
                "type": "Point",
                "coordinates": [
                    152.17,
                    -4.271
                ]
            },
            "properties": {
                "name": "Vulcan",
                "article": "https://en.wikipedia.org/wiki/Vulcan_(volcano)"
            }
        },
        {
            "type": "Feature",
            "geometry": {
                "type": "Point",
                "coordinates": [
                    143.24083333,
                    -9.12333333
                ]
            },
            "properties": {
                "name": "Bristow Island",
                "article": null
            }
        },
        {
            "type": "Feature",
            "geometry": {
                "type": "Point",
                "coordinates": [
                    143.241388888,
                    -9.121388888
                ]
            },
            "properties": {
                "name": "Bristow Island",
                "article": null
            }
        },
        {
            "type": "Feature",
            "geometry": {
                "type": "Point",
                "coordinates": [
                    147.767,
                    -2.051
                ]
            },
            "properties": {
                "name": "Tong Island, Papua New Guinea",
                "article": "https://en.wikipedia.org/wiki/Tong_Island,_Papua_New_Guinea"
            }
        },
        {
            "type": "Feature",
            "geometry": {
                "type": "Point",
                "coordinates": [
                    146.716667,
                    -7.338889
                ]
            },
            "properties": {
                "name": "Wau",
                "article": "https://en.wikipedia.org/wiki/Wau,_Papua_New_Guinea"
            }
        },
        {
            "type": "Feature",
            "geometry": {
                "type": "Point",
                "coordinates": [
                    141.3,
                    -6.116666666
                ]
            },
            "properties": {
                "name": "Kiunga",
                "article": "https://en.wikipedia.org/wiki/Kiunga,_Papua_New_Guinea"
            }
        },
        {
            "type": "Feature",
            "geometry": {
                "type": "Point",
                "coordinates": [
                    141.56666667,
                    -5.11666667
                ]
            },
            "properties": {
                "name": "Telefomin",
                "article": "https://en.wikipedia.org/wiki/Telefomin"
            }
        },
        {
            "type": "Feature",
            "geometry": {
                "type": "Point",
                "coordinates": [
                    143.657222222,
                    -6.147777777
                ]
            },
            "properties": {
                "name": "Mendi",
                "article": "https://en.wikipedia.org/wiki/Mendi"
            }
        },
        {
            "type": "Feature",
            "geometry": {
                "type": "Point",
                "coordinates": [
                    141.301388888,
                    -2.681666666
                ]
            },
            "properties": {
                "name": "Vanimo",
                "article": "https://en.wikipedia.org/wiki/Vanimo"
            }
        },
        {
            "type": "Feature",
            "geometry": {
                "type": "Point",
                "coordinates": [
                    150.8,
                    -2.566666666
                ]
            },
            "properties": {
                "name": "Kavieng",
                "article": "https://en.wikipedia.org/wiki/Kavieng"
            }
        },
        {
            "type": "Feature",
            "geometry": {
                "type": "Point",
                "coordinates": [
                    144.216666666,
                    -5.866666666
                ]
            },
            "properties": {
                "name": "Mount Hagen",
                "article": "https://en.wikipedia.org/wiki/Mount_Hagen"
            }
        },
        {
            "type": "Feature",
            "geometry": {
                "type": "Point",
                "coordinates": [
                    144.216666666,
                    -5.866666666
                ]
            },
            "properties": {
                "name": "Mount Hagen",
                "article": "https://en.wikipedia.org/wiki/Mount_Hagen"
            }
        },
        {
            "type": "Feature",
            "geometry": {
                "type": "Point",
                "coordinates": [
                    152.273611111,
                    -4.35
                ]
            },
            "properties": {
                "name": "Kokopo",
                "article": "https://en.wikipedia.org/wiki/Kokopo"
            }
        },
        {
            "type": "Feature",
            "geometry": {
                "type": "Point",
                "coordinates": [
                    148.234722222,
                    -8.765555555
                ]
            },
            "properties": {
                "name": "Popondetta",
                "article": "https://en.wikipedia.org/wiki/Popondetta"
            }
        },
        {
            "type": "Feature",
            "geometry": {
                "type": "Point",
                "coordinates": [
                    147.266666666,
                    -2.020833333
                ]
            },
            "properties": {
                "name": "Lorengau",
                "article": "https://en.wikipedia.org/wiki/Lorengau"
            }
        },
        {
            "type": "Feature",
            "geometry": {
                "type": "Point",
                "coordinates": [
                    143.633333333,
                    -3.55
                ]
            },
            "properties": {
                "name": "Wewak",
                "article": "https://en.wikipedia.org/wiki/Wewak"
            }
        },
        {
            "type": "Feature",
            "geometry": {
                "type": "Point",
                "coordinates": [
                    141.226388888,
                    -5.275
                ]
            },
            "properties": {
                "name": "Tabubil",
                "article": "https://en.wikipedia.org/wiki/Tabubil"
            }
        },
        {
            "type": "Feature",
            "geometry": {
                "type": "Point",
                "coordinates": [
                    150.5156,
                    -5.575069444
                ]
            },
            "properties": {
                "name": "Pago",
                "article": "https://en.wikipedia.org/wiki/Pago_(Papua_New_Guinea)"
            }
        },
        {
            "type": "Feature",
            "geometry": {
                "type": "Point",
                "coordinates": [
                    144.331722222,
                    -5.783711111
                ]
            },
            "properties": {
                "name": "Kuk Swamp",
                "article": "https://en.wikipedia.org/wiki/Kuk_Swamp"
            }
        },
        {
            "type": "Feature",
            "geometry": {
                "type": "Point",
                "coordinates": [
                    155.62271,
                    -6.20575
                ]
            },
            "properties": {
                "name": "Kieta",
                "article": "https://en.wikipedia.org/wiki/Kieta"
            }
        },
        {
            "type": "Feature",
            "geometry": {
                "type": "Point",
                "coordinates": [
                    143.2075,
                    -9.086111111
                ]
            },
            "properties": {
                "name": "Daru Island",
                "article": "https://en.wikipedia.org/wiki/Daru_Island"
            }
        },
        {
            "type": "Feature",
            "geometry": {
                "type": "Point",
                "coordinates": [
                    155.685,
                    -6.746
                ]
            },
            "properties": {
                "name": "Buin",
                "article": "https://en.wikipedia.org/wiki/Buin,_Papua_New_Guinea"
            }
        },
        {
            "type": "Feature",
            "geometry": {
                "type": "Point",
                "coordinates": [
                    150.883333333,
                    -9.766666666
                ]
            },
            "properties": {
                "name": "Dobu Island",
                "article": "https://en.wikipedia.org/wiki/Dobu_Island"
            }
        },
        {
            "type": "Feature",
            "geometry": {
                "type": "Point",
                "coordinates": [
                    151.25666667,
                    -11.15055556
                ]
            },
            "properties": {
                "name": "Quessant Island",
                "article": "https://en.wikipedia.org/wiki/Quessant_Island"
            }
        },
        {
            "type": "Feature",
            "geometry": {
                "type": "Point",
                "coordinates": [
                    147.81694444,
                    -2.3
                ]
            },
            "properties": {
                "name": "Rambutyo Island",
                "article": "https://en.wikipedia.org/wiki/Rambutyo_Island"
            }
        },
        {
            "type": "Feature",
            "geometry": {
                "type": "Point",
                "coordinates": [
                    150.866666666,
                    -10.583333333
                ]
            },
            "properties": {
                "name": "Sideia Island",
                "article": "https://en.wikipedia.org/wiki/Sideia_Island"
            }
        },
        {
            "type": "Feature",
            "geometry": {
                "type": "Point",
                "coordinates": [
                    154.641277777,
                    -3.602052777
                ]
            },
            "properties": {
                "name": "Sable Island (Papua New Guinea)",
                "article": null
            }
        },
        {
            "type": "Feature",
            "geometry": {
                "type": "Point",
                "coordinates": [
                    150.720428,
                    -10.561734
                ]
            },
            "properties": {
                "name": "Ito Island",
                "article": "https://en.wikipedia.org/wiki/Ito_Island"
            }
        },
        {
            "type": "Feature",
            "geometry": {
                "type": "Point",
                "coordinates": [
                    146.233333,
                    -2.833333
                ]
            },
            "properties": {
                "name": "Bat",
                "article": null
            }
        },
        {
            "type": "Feature",
            "geometry": {
                "type": "Point",
                "coordinates": [
                    144.407,
                    -3.389
                ]
            },
            "properties": {
                "name": "Vial Island",
                "article": "https://en.wikipedia.org/wiki/Vial_Island"
            }
        },
        {
            "type": "Feature",
            "geometry": {
                "type": "Point",
                "coordinates": [
                    147.156388888,
                    -7.243055555
                ]
            },
            "properties": {
                "name": "Lababia Island",
                "article": null
            }
        },
        {
            "type": "Feature",
            "geometry": {
                "type": "Point",
                "coordinates": [
                    143.56666667,
                    -3.35
                ]
            },
            "properties": {
                "name": "Kairiru",
                "article": null
            }
        },
        {
            "type": "Feature",
            "geometry": {
                "type": "Point",
                "coordinates": [
                    143.7,
                    -5.483333333
                ]
            },
            "properties": {
                "name": "Wabag",
                "article": "https://en.wikipedia.org/wiki/Wabag"
            }
        },
        {
            "type": "Feature",
            "geometry": {
                "type": "Point",
                "coordinates": [
                    154.672777777,
                    -5.421944444
                ]
            },
            "properties": {
                "name": "Buka",
                "article": "https://en.wikipedia.org/wiki/Buka,_Bougainville"
            }
        },
        {
            "type": "Feature",
            "geometry": {
                "type": "Point",
                "coordinates": [
                    149.07083333,
                    -9.20277778
                ]
            },
            "properties": {
                "name": "Q2522891",
                "article": null
            }
        },
        {
            "type": "Feature",
            "geometry": {
                "type": "Point",
                "coordinates": [
                    147.418611111,
                    -2.048611111
                ]
            },
            "properties": {
                "name": "Los Negros Island",
                "article": "https://en.wikipedia.org/wiki/Los_Negros_Island"
            }
        },
        {
            "type": "Feature",
            "geometry": {
                "type": "Point",
                "coordinates": [
                    153.45,
                    -11.333333333
                ]
            },
            "properties": {
                "name": "Yeina Island",
                "article": "https://en.wikipedia.org/wiki/Yeina_Island"
            }
        },
        {
            "type": "Feature",
            "geometry": {
                "type": "Point",
                "coordinates": [
                    145.07,
                    -1.53
                ]
            },
            "properties": {
                "name": "Luf",
                "article": null
            }
        },
        {
            "type": "Feature",
            "geometry": {
                "type": "Point",
                "coordinates": [
                    145.068888888,
                    -1.526666666
                ]
            },
            "properties": {
                "name": "Luf",
                "article": null
            }
        },
        {
            "type": "Feature",
            "geometry": {
                "type": "Point",
                "coordinates": [
                    152.44305556,
                    -9.55694444
                ]
            },
            "properties": {
                "name": "Alcester Island",
                "article": "https://en.wikipedia.org/wiki/Alcester_Island"
            }
        },
        {
            "type": "Feature",
            "geometry": {
                "type": "Point",
                "coordinates": [
                    152.36666667,
                    -10.68333333
                ]
            },
            "properties": {
                "name": "Panaeati Island",
                "article": "https://en.wikipedia.org/wiki/Panaeati_Island"
            }
        },
        {
            "type": "Feature",
            "geometry": {
                "type": "Point",
                "coordinates": [
                    140.0,
                    -5.0
                ]
            },
            "properties": {
                "name": "New Guinea",
                "article": "https://en.wikipedia.org/wiki/New_Guinea"
            }
        },
        {
            "type": "Feature",
            "geometry": {
                "type": "Point",
                "coordinates": [
                    150.5,
                    -10.366667
                ]
            },
            "properties": {
                "name": "Battle of Milne Bay",
                "article": "https://en.wikipedia.org/wiki/Battle_of_Milne_Bay"
            }
        },
        {
            "type": "Feature",
            "geometry": {
                "type": "Point",
                "coordinates": [
                    151.33444444,
                    -8.62222222
                ]
            },
            "properties": {
                "name": "Kitava",
                "article": "https://en.wikipedia.org/wiki/Kitava"
            }
        },
        {
            "type": "Feature",
            "geometry": {
                "type": "Point",
                "coordinates": [
                    155.383888888,
                    -6.244444444
                ]
            },
            "properties": {
                "name": "Bougainville Island",
                "article": "https://en.wikipedia.org/wiki/Bougainville_Island"
            }
        },
        {
            "type": "Feature",
            "geometry": {
                "type": "Point",
                "coordinates": [
                    152.0,
                    -3.33
                ]
            },
            "properties": {
                "name": "New Ireland",
                "article": "https://en.wikipedia.org/wiki/New_Ireland_(island)"
            }
        },
        {
            "type": "Feature",
            "geometry": {
                "type": "Point",
                "coordinates": [
                    152.168055555,
                    -4.198055555
                ]
            },
            "properties": {
                "name": "Rabaul",
                "article": "https://en.wikipedia.org/wiki/Rabaul"
            }
        },
        {
            "type": "Feature",
            "geometry": {
                "type": "Point",
                "coordinates": [
                    148.08140556,
                    -5.40900833
                ]
            },
            "properties": {
                "name": "Sakar Island",
                "article": "https://en.wikipedia.org/wiki/Sakar_Island"
            }
        },
        {
            "type": "Feature",
            "geometry": {
                "type": "Point",
                "coordinates": [
                    148.08140556,
                    -5.40900833
                ]
            },
            "properties": {
                "name": "Sakar Island",
                "article": "https://en.wikipedia.org/wiki/Sakar_Island"
            }
        },
        {
            "type": "Feature",
            "geometry": {
                "type": "Point",
                "coordinates": [
                    148.1,
                    -5.416666666
                ]
            },
            "properties": {
                "name": "Sakar Island",
                "article": "https://en.wikipedia.org/wiki/Sakar_Island"
            }
        },
        {
            "type": "Feature",
            "geometry": {
                "type": "Point",
                "coordinates": [
                    148.1,
                    -5.416666666
                ]
            },
            "properties": {
                "name": "Sakar Island",
                "article": "https://en.wikipedia.org/wiki/Sakar_Island"
            }
        },
        {
            "type": "Feature",
            "geometry": {
                "type": "Point",
                "coordinates": [
                    150.25,
                    -2.516666666
                ]
            },
            "properties": {
                "name": "New Hanover Island",
                "article": "https://en.wikipedia.org/wiki/New_Hanover_Island"
            }
        },
        {
            "type": "Feature",
            "geometry": {
                "type": "Point",
                "coordinates": [
                    152.21,
                    -4.239
                ]
            },
            "properties": {
                "name": "Tavurvur",
                "article": "https://en.wikipedia.org/wiki/Tavurvur"
            }
        },
        {
            "type": "Feature",
            "geometry": {
                "type": "Point",
                "coordinates": [
                    145.033333333,
                    -5.8
                ]
            },
            "properties": {
                "name": "Mount Wilhelm",
                "article": "https://en.wikipedia.org/wiki/Mount_Wilhelm"
            }
        },
        {
            "type": "Feature",
            "geometry": {
                "type": "Point",
                "coordinates": [
                    153.621388888,
                    -4.080833333
                ]
            },
            "properties": {
                "name": "Ambitle",
                "article": "https://en.wikipedia.org/wiki/Ambitle"
            }
        },
        {
            "type": "Feature",
            "geometry": {
                "type": "Point",
                "coordinates": [
                    153.621388888,
                    -4.080833333
                ]
            },
            "properties": {
                "name": "Ambitle",
                "article": "https://en.wikipedia.org/wiki/Ambitle"
            }
        },
        {
            "type": "Feature",
            "geometry": {
                "type": "Point",
                "coordinates": [
                    153.95,
                    -4.083333333
                ]
            },
            "properties": {
                "name": "Ambitle",
                "article": "https://en.wikipedia.org/wiki/Ambitle"
            }
        },
        {
            "type": "Feature",
            "geometry": {
                "type": "Point",
                "coordinates": [
                    153.95,
                    -4.083333333
                ]
            },
            "properties": {
                "name": "Ambitle",
                "article": "https://en.wikipedia.org/wiki/Ambitle"
            }
        },
        {
            "type": "Feature",
            "geometry": {
                "type": "Point",
                "coordinates": [
                    153.619444444,
                    -4.065277777
                ]
            },
            "properties": {
                "name": "Q457606",
                "article": null
            }
        },
        {
            "type": "Feature",
            "geometry": {
                "type": "Point",
                "coordinates": [
                    152.433333333,
                    -3.666666666
                ]
            },
            "properties": {
                "name": "Namatanai",
                "article": "https://en.wikipedia.org/wiki/Namatanai"
            }
        },
        {
            "type": "Feature",
            "geometry": {
                "type": "Point",
                "coordinates": [
                    152.45,
                    -4.166666666
                ]
            },
            "properties": {
                "name": "Duke of York Island",
                "article": "https://en.wikipedia.org/wiki/Duke_of_York_Island,_Papua_New_Guinea"
            }
        },
        {
            "type": "Feature",
            "geometry": {
                "type": "Point",
                "coordinates": [
                    150.883333333,
                    -2.933333333
                ]
            },
            "properties": {
                "name": "Dyaul Island",
                "article": "https://en.wikipedia.org/wiki/Dyaul_Island"
            }
        },
        {
            "type": "Feature",
            "geometry": {
                "type": "Point",
                "coordinates": [
                    143.416666666,
                    -8.55
                ]
            },
            "properties": {
                "name": "Kiwai Island",
                "article": "https://en.wikipedia.org/wiki/Kiwai_Island"
            }
        },
        {
            "type": "Feature",
            "geometry": {
                "type": "Point",
                "coordinates": [
                    146.283333333,
                    -8.6
                ]
            },
            "properties": {
                "name": "Kerema",
                "article": "https://en.wikipedia.org/wiki/Kerema"
            }
        },
        {
            "type": "Feature",
            "geometry": {
                "type": "Point",
                "coordinates": [
                    142.826666666,
                    -6.614166666
                ]
            },
            "properties": {
                "name": "Mount Bosavi",
                "article": "https://en.wikipedia.org/wiki/Mount_Bosavi"
            }
        },
        {
            "type": "Feature",
            "geometry": {
                "type": "Point",
                "coordinates": [
                    154.9825,
                    -5.916666666
                ]
            },
            "properties": {
                "name": "Mount Balbi",
                "article": "https://en.wikipedia.org/wiki/Mount_Balbi"
            }
        },
        {
            "type": "Feature",
            "geometry": {
                "type": "Point",
                "coordinates": [
                    152.772222222,
                    -9.126388888
                ]
            },
            "properties": {
                "name": "Woodlark Island",
                "article": "https://en.wikipedia.org/wiki/Woodlark_Island"
            }
        },
        {
            "type": "Feature",
            "geometry": {
                "type": "Point",
                "coordinates": [
                    152.202777777,
                    -4.270833333
                ]
            },
            "properties": {
                "name": "Rabaul caldera",
                "article": "https://en.wikipedia.org/wiki/Rabaul_caldera"
            }
        },
        {
            "type": "Feature",
            "geometry": {
                "type": "Point",
                "coordinates": [
                    149.966666666,
                    -1.65
                ]
            },
            "properties": {
                "name": "Emirau Island",
                "article": "https://en.wikipedia.org/wiki/Emirau_Island"
            }
        },
        {
            "type": "Feature",
            "geometry": {
                "type": "Point",
                "coordinates": [
                    151.24222222,
                    -10.58
                ]
            },
            "properties": {
                "name": "Engineer Islands",
                "article": "https://en.wikipedia.org/wiki/Engineer_Islands"
            }
        },
        {
            "type": "Feature",
            "geometry": {
                "type": "Point",
                "coordinates": [
                    151.23027778,
                    -10.57361111
                ]
            },
            "properties": {
                "name": "Engineer Islands",
                "article": "https://en.wikipedia.org/wiki/Engineer_Islands"
            }
        },
        {
            "type": "Feature",
            "geometry": {
                "type": "Point",
                "coordinates": [
                    154.216666666,
                    -4.5
                ]
            },
            "properties": {
                "name": "Nissan Island",
                "article": "https://en.wikipedia.org/wiki/Nissan_Island"
            }
        },
        {
            "type": "Feature",
            "geometry": {
                "type": "Point",
                "coordinates": [
                    148.15,
                    -8.95
                ]
            },
            "properties": {
                "name": "Mount Lamington",
                "article": "https://en.wikipedia.org/wiki/Mount_Lamington"
            }
        },
        {
            "type": "Feature",
            "geometry": {
                "type": "Point",
                "coordinates": [
                    155.48483,
                    -6.31639
                ]
            },
            "properties": {
                "name": "Panguna",
                "article": "https://en.wikipedia.org/wiki/Panguna"
            }
        },
        {
            "type": "Feature",
            "geometry": {
                "type": "Point",
                "coordinates": [
                    155.833333333,
                    -6.4
                ]
            },
            "properties": {
                "name": "Panguna",
                "article": "https://en.wikipedia.org/wiki/Panguna"
            }
        },
        {
            "type": "Feature",
            "geometry": {
                "type": "Point",
                "coordinates": [
                    150.916666666,
                    -8.666666666
                ]
            },
            "properties": {
                "name": "Kiriwina",
                "article": "https://en.wikipedia.org/wiki/Kiriwina"
            }
        },
        {
            "type": "Feature",
            "geometry": {
                "type": "Point",
                "coordinates": [
                    142.35,
                    -3.133333333
                ]
            },
            "properties": {
                "name": "Aitape",
                "article": "https://en.wikipedia.org/wiki/Aitape"
            }
        },
        {
            "type": "Feature",
            "geometry": {
                "type": "Point",
                "coordinates": [
                    152.06666667,
                    -4.11666667
                ]
            },
            "properties": {
                "name": "Watom Island",
                "article": "https://en.wikipedia.org/wiki/Watom_Island"
            }
        },
        {
            "type": "Feature",
            "geometry": {
                "type": "Point",
                "coordinates": [
                    143.333333333,
                    -6.4
                ]
            },
            "properties": {
                "name": "Lake Kutubu",
                "article": "https://en.wikipedia.org/wiki/Lake_Kutubu"
            }
        },
        {
            "type": "Feature",
            "geometry": {
                "type": "Point",
                "coordinates": [
                    143.886111111,
                    -6.038888888
                ]
            },
            "properties": {
                "name": "Mount Giluwe",
                "article": "https://en.wikipedia.org/wiki/Mount_Giluwe"
            }
        },
        {
            "type": "Feature",
            "geometry": {
                "type": "Point",
                "coordinates": [
                    152.766666666,
                    -4.7
                ]
            },
            "properties": {
                "name": "Lamassa Island",
                "article": "https://en.wikipedia.org/wiki/Lamassa_Island"
            }
        },
        {
            "type": "Feature",
            "geometry": {
                "type": "Point",
                "coordinates": [
                    147.35,
                    -2.4
                ]
            },
            "properties": {
                "name": "Lou Island",
                "article": "https://en.wikipedia.org/wiki/Lou_Island"
            }
        },
        {
            "type": "Feature",
            "geometry": {
                "type": "Point",
                "coordinates": [
                    147.883530555,
                    -5.611886111
                ]
            },
            "properties": {
                "name": "Umboi Island",
                "article": "https://en.wikipedia.org/wiki/Umboi_Island"
            }
        },
        {
            "type": "Feature",
            "geometry": {
                "type": "Point",
                "coordinates": [
                    147.883530555,
                    -5.611886111
                ]
            },
            "properties": {
                "name": "Umboi Island",
                "article": "https://en.wikipedia.org/wiki/Umboi_Island"
            }
        },
        {
            "type": "Feature",
            "geometry": {
                "type": "Point",
                "coordinates": [
                    147.8666667,
                    -5.53333333
                ]
            },
            "properties": {
                "name": "Umboi Island",
                "article": "https://en.wikipedia.org/wiki/Umboi_Island"
            }
        },
        {
            "type": "Feature",
            "geometry": {
                "type": "Point",
                "coordinates": [
                    147.8666667,
                    -5.53333333
                ]
            },
            "properties": {
                "name": "Umboi Island",
                "article": "https://en.wikipedia.org/wiki/Umboi_Island"
            }
        },
        {
            "type": "Feature",
            "geometry": {
                "type": "Point",
                "coordinates": [
                    151.973877777,
                    -2.624813888
                ]
            },
            "properties": {
                "name": "Simberi Island",
                "article": "https://en.wikipedia.org/wiki/Simberi_Island"
            }
        },
        {
            "type": "Feature",
            "geometry": {
                "type": "Point",
                "coordinates": [
                    145.033333333,
                    -4.083333333
                ]
            },
            "properties": {
                "name": "Manam",
                "article": "https://en.wikipedia.org/wiki/Manam_Motu"
            }
        },
        {
            "type": "Feature",
            "geometry": {
                "type": "Point",
                "coordinates": [
                    145.033333333,
                    -4.083333333
                ]
            },
            "properties": {
                "name": "Manam",
                "article": "https://en.wikipedia.org/wiki/Manam_Motu"
            }
        },
        {
            "type": "Feature",
            "geometry": {
                "type": "Point",
                "coordinates": [
                    145.03333333,
                    -4.08333333
                ]
            },
            "properties": {
                "name": "Manam",
                "article": "https://en.wikipedia.org/wiki/Manam_Motu"
            }
        },
        {
            "type": "Feature",
            "geometry": {
                "type": "Point",
                "coordinates": [
                    145.03333333,
                    -4.08333333
                ]
            },
            "properties": {
                "name": "Manam",
                "article": "https://en.wikipedia.org/wiki/Manam_Motu"
            }
        },
        {
            "type": "Feature",
            "geometry": {
                "type": "Point",
                "coordinates": [
                    145.035555555,
                    -4.077777777
                ]
            },
            "properties": {
                "name": "Manam",
                "article": "https://en.wikipedia.org/wiki/Manam_Motu"
            }
        },
        {
            "type": "Feature",
            "geometry": {
                "type": "Point",
                "coordinates": [
                    145.035555555,
                    -4.077777777
                ]
            },
            "properties": {
                "name": "Manam",
                "article": "https://en.wikipedia.org/wiki/Manam_Motu"
            }
        },
        {
            "type": "Feature",
            "geometry": {
                "type": "Point",
                "coordinates": [
                    152.18305556,
                    -4.25
                ]
            },
            "properties": {
                "name": "Q1910786",
                "article": null
            }
        },
        {
            "type": "Feature",
            "geometry": {
                "type": "Point",
                "coordinates": [
                    152.75,
                    -10.666666666
                ]
            },
            "properties": {
                "name": "Misima Island",
                "article": "https://en.wikipedia.org/wiki/Misima_Island"
            }
        },
        {
            "type": "Feature",
            "geometry": {
                "type": "Point",
                "coordinates": [
                    149.112,
                    -4.547
                ]
            },
            "properties": {
                "name": "Narage",
                "article": null
            }
        },
        {
            "type": "Feature",
            "geometry": {
                "type": "Point",
                "coordinates": [
                    154.15,
                    -11.35
                ]
            },
            "properties": {
                "name": "Rossel Island",
                "article": "https://en.wikipedia.org/wiki/Rossel_Island"
            }
        },
        {
            "type": "Feature",
            "geometry": {
                "type": "Point",
                "coordinates": [
                    147.63666667,
                    -2.08027778
                ]
            },
            "properties": {
                "name": "Pak",
                "article": "https://en.wikipedia.org/wiki/Pak_Island"
            }
        },
        {
            "type": "Feature",
            "geometry": {
                "type": "Point",
                "coordinates": [
                    143.41527778,
                    -9.0025
                ]
            },
            "properties": {
                "name": "Parama Island",
                "article": "https://en.wikipedia.org/wiki/Parama_Island"
            }
        },
        {
            "type": "Feature",
            "geometry": {
                "type": "Point",
                "coordinates": [
                    147.088333333,
                    -6.313888888
                ]
            },
            "properties": {
                "name": "Mount Bangeta",
                "article": "https://en.wikipedia.org/wiki/Mount_Bangeta"
            }
        },
        {
            "type": "Feature",
            "geometry": {
                "type": "Point",
                "coordinates": [
                    152.421388888,
                    -8.973888888
                ]
            },
            "properties": {
                "name": "Madau",
                "article": "https://en.wikipedia.org/wiki/Madau"
            }
        },
        {
            "type": "Feature",
            "geometry": {
                "type": "Point",
                "coordinates": [
                    151.25666667,
                    -11.15055556
                ]
            },
            "properties": {
                "name": "Quessant Island",
                "article": "https://en.wikipedia.org/wiki/Quessant_Island"
            }
        },
        {
            "type": "Feature",
            "geometry": {
                "type": "Point",
                "coordinates": [
                    147.81694444,
                    -2.3
                ]
            },
            "properties": {
                "name": "Rambutyo Island",
                "article": "https://en.wikipedia.org/wiki/Rambutyo_Island"
            }
        },
        {
            "type": "Feature",
            "geometry": {
                "type": "Point",
                "coordinates": [
                    150.866666666,
                    -10.583333333
                ]
            },
            "properties": {
                "name": "Sideia Island",
                "article": "https://en.wikipedia.org/wiki/Sideia_Island"
            }
        },
        {
            "type": "Feature",
            "geometry": {
                "type": "Point",
                "coordinates": [
                    154.641277777,
                    -3.602052777
                ]
            },
            "properties": {
                "name": "Sable Island (Papua New Guinea)",
                "article": null
            }
        },
        {
            "type": "Feature",
            "geometry": {
                "type": "Point",
                "coordinates": [
                    150.720428,
                    -10.561734
                ]
            },
            "properties": {
                "name": "Ito Island",
                "article": "https://en.wikipedia.org/wiki/Ito_Island"
            }
        },
        {
            "type": "Feature",
            "geometry": {
                "type": "Point",
                "coordinates": [
                    146.233333,
                    -2.833333
                ]
            },
            "properties": {
                "name": "Bat",
                "article": null
            }
        },
        {
            "type": "Feature",
            "geometry": {
                "type": "Point",
                "coordinates": [
                    144.407,
                    -3.389
                ]
            },
            "properties": {
                "name": "Vial Island",
                "article": "https://en.wikipedia.org/wiki/Vial_Island"
            }
        },
        {
            "type": "Feature",
            "geometry": {
                "type": "Point",
                "coordinates": [
                    147.156388888,
                    -7.243055555
                ]
            },
            "properties": {
                "name": "Lababia Island",
                "article": null
            }
        },
        {
            "type": "Feature",
            "geometry": {
                "type": "Point",
                "coordinates": [
                    143.56666667,
                    -3.35
                ]
            },
            "properties": {
                "name": "Kairiru",
                "article": null
            }
        },
        {
            "type": "Feature",
            "geometry": {
                "type": "Point",
                "coordinates": [
                    143.7,
                    -5.483333333
                ]
            },
            "properties": {
                "name": "Wabag",
                "article": "https://en.wikipedia.org/wiki/Wabag"
            }
        },
        {
            "type": "Feature",
            "geometry": {
                "type": "Point",
                "coordinates": [
                    154.672777777,
                    -5.421944444
                ]
            },
            "properties": {
                "name": "Buka",
                "article": "https://en.wikipedia.org/wiki/Buka,_Bougainville"
            }
        },
        {
            "type": "Feature",
            "geometry": {
                "type": "Point",
                "coordinates": [
                    149.07083333,
                    -9.20277778
                ]
            },
            "properties": {
                "name": "Q2522891",
                "article": null
            }
        },
        {
            "type": "Feature",
            "geometry": {
                "type": "Point",
                "coordinates": [
                    147.418611111,
                    -2.048611111
                ]
            },
            "properties": {
                "name": "Los Negros Island",
                "article": "https://en.wikipedia.org/wiki/Los_Negros_Island"
            }
        },
        {
            "type": "Feature",
            "geometry": {
                "type": "Point",
                "coordinates": [
                    153.45,
                    -11.333333333
                ]
            },
            "properties": {
                "name": "Yeina Island",
                "article": "https://en.wikipedia.org/wiki/Yeina_Island"
            }
        },
        {
            "type": "Feature",
            "geometry": {
                "type": "Point",
                "coordinates": [
                    145.07,
                    -1.53
                ]
            },
            "properties": {
                "name": "Luf",
                "article": null
            }
        },
        {
            "type": "Feature",
            "geometry": {
                "type": "Point",
                "coordinates": [
                    145.068888888,
                    -1.526666666
                ]
            },
            "properties": {
                "name": "Luf",
                "article": null
            }
        },
        {
            "type": "Feature",
            "geometry": {
                "type": "Point",
                "coordinates": [
                    152.44305556,
                    -9.55694444
                ]
            },
            "properties": {
                "name": "Alcester Island",
                "article": "https://en.wikipedia.org/wiki/Alcester_Island"
            }
        },
        {
            "type": "Feature",
            "geometry": {
                "type": "Point",
                "coordinates": [
                    152.36666667,
                    -10.68333333
                ]
            },
            "properties": {
                "name": "Panaeati Island",
                "article": "https://en.wikipedia.org/wiki/Panaeati_Island"
            }
        },
        {
            "type": "Feature",
            "geometry": {
                "type": "Point",
                "coordinates": [
                    147.533333333,
                    -8.8925
                ]
            },
            "properties": {
                "name": "Mount Victoria",
                "article": "https://en.wikipedia.org/wiki/Mount_Victoria_(Papua_New_Guinea)"
            }
        },
        {
            "type": "Feature",
            "geometry": {
                "type": "Point",
                "coordinates": [
                    150.033333333,
                    -5.45
                ]
            },
            "properties": {
                "name": "Garbuna Group",
                "article": "https://en.wikipedia.org/wiki/Garbuna_Group"
            }
        },
        {
            "type": "Feature",
            "geometry": {
                "type": "Point",
                "coordinates": [
                    155.608,
                    -6.442
                ]
            },
            "properties": {
                "name": "Takuan Group",
                "article": "https://en.wikipedia.org/wiki/Takuan_Group"
            }
        },
        {
            "type": "Feature",
            "geometry": {
                "type": "Point",
                "coordinates": [
                    148.42,
                    -5.525
                ]
            },
            "properties": {
                "name": "Langila",
                "article": "https://en.wikipedia.org/wiki/Langila"
            }
        },
        {
            "type": "Feature",
            "geometry": {
                "type": "Point",
                "coordinates": [
                    147.58333333,
                    -5.31666667
                ]
            },
            "properties": {
                "name": "Tolokiwa",
                "article": "https://en.wikipedia.org/wiki/Tolokiwa_Island"
            }
        },
        {
            "type": "Feature",
            "geometry": {
                "type": "Point",
                "coordinates": [
                    148.416666666,
                    -5.45
                ]
            },
            "properties": {
                "name": "Battle of Cape Gloucester",
                "article": "https://en.wikipedia.org/wiki/Battle_of_Cape_Gloucester"
            }
        },
        {
            "type": "Feature",
            "geometry": {
                "type": "Point",
                "coordinates": [
                    149.29,
                    -9.836
                ]
            },
            "properties": {
                "name": "Q3321806",
                "article": null
            }
        },
        {
            "type": "Feature",
            "geometry": {
                "type": "Point",
                "coordinates": [
                    149.569,
                    -10.035
                ]
            },
            "properties": {
                "name": "Q3322104",
                "article": null
            }
        },
        {
            "type": "Feature",
            "geometry": {
                "type": "Point",
                "coordinates": [
                    146.7,
                    -6.55
                ]
            },
            "properties": {
                "name": "Nadzab",
                "article": "https://en.wikipedia.org/wiki/Nadzab"
            }
        },
        {
            "type": "Feature",
            "geometry": {
                "type": "Point",
                "coordinates": [
                    142.950555555,
                    -5.848888888
                ]
            },
            "properties": {
                "name": "Tari",
                "article": "https://en.wikipedia.org/wiki/Tari,_Papua_New_Guinea"
            }
        },
        {
            "type": "Feature",
            "geometry": {
                "type": "Point",
                "coordinates": [
                    151.0,
                    -10.616666666
                ]
            },
            "properties": {
                "name": "Basilaki Island",
                "article": "https://en.wikipedia.org/wiki/Basilaki_Island"
            }
        },
        {
            "type": "Feature",
            "geometry": {
                "type": "Point",
                "coordinates": [
                    151.0,
                    -9.616666666
                ]
            },
            "properties": {
                "name": "Sanaroa Island",
                "article": "https://en.wikipedia.org/wiki/Sanaroa_Island"
            }
        },
        {
            "type": "Feature",
            "geometry": {
                "type": "Point",
                "coordinates": [
                    147.404,
                    -8.411
                ]
            },
            "properties": {
                "name": "Mount Albert Edward",
                "article": "https://en.wikipedia.org/wiki/Mount_Albert_Edward_(Papua_New_Guinea)"
            }
        },
        {
            "type": "Feature",
            "geometry": {
                "type": "Point",
                "coordinates": [
                    150.033333333,
                    -5.15
                ]
            },
            "properties": {
                "name": "Bola",
                "article": "https://en.wikipedia.org/wiki/Bola_(volcano)"
            }
        },
        {
            "type": "Feature",
            "geometry": {
                "type": "Point",
                "coordinates": [
                    149.066666666,
                    -9.2
                ]
            },
            "properties": {
                "name": "Victory",
                "article": "https://en.wikipedia.org/wiki/Victory_(volcano)"
            }
        },
        {
            "type": "Feature",
            "geometry": {
                "type": "Point",
                "coordinates": [
                    154.16666667,
                    -4.5
                ]
            },
            "properties": {
                "name": "Barahun Island",
                "article": "https://en.wikipedia.org/wiki/Barahun_Island"
            }
        },
        {
            "type": "Feature",
            "geometry": {
                "type": "Point",
                "coordinates": [
                    142.35,
                    -3.133333
                ]
            },
            "properties": {
                "name": "Battle of Driniumor River",
                "article": "https://en.wikipedia.org/wiki/Battle_of_Driniumor_River"
            }
        },
        {
            "type": "Feature",
            "geometry": {
                "type": "Point",
                "coordinates": [
                    146.247777777,
                    -6.266666666
                ]
            },
            "properties": {
                "name": "Battle of Kaiapit",
                "article": "https://en.wikipedia.org/wiki/Battle_of_Kaiapit"
            }
        },
        {
            "type": "Feature",
            "geometry": {
                "type": "Point",
                "coordinates": [
                    147.766666666,
                    -6.486388888
                ]
            },
            "properties": {
                "name": "Battle of Sattelberg",
                "article": "https://en.wikipedia.org/wiki/Battle_of_Sattelberg"
            }
        },
        {
            "type": "Feature",
            "geometry": {
                "type": "Point",
                "coordinates": [
                    147.85,
                    -6.483333
                ]
            },
            "properties": {
                "name": "Battle of Scarlet Beach",
                "article": "https://en.wikipedia.org/wiki/Landing_at_Scarlet_Beach"
            }
        },
        {
            "type": "Feature",
            "geometry": {
                "type": "Point",
                "coordinates": [
                    147.783333,
                    -6.45
                ]
            },
            "properties": {
                "name": "Battle of Wareo",
                "article": "https://en.wikipedia.org/wiki/Battle_of_Wareo"
            }
        },
        {
            "type": "Feature",
            "geometry": {
                "type": "Point",
                "coordinates": [
                    150.66666667,
                    -2.73333333
                ]
            },
            "properties": {
                "name": "Baudisson Island",
                "article": "https://en.wikipedia.org/wiki/Baudisson_Island"
            }
        },
        {
            "type": "Feature",
            "geometry": {
                "type": "Point",
                "coordinates": [
                    150.94944444,
                    -8.52527778
                ]
            },
            "properties": {
                "name": "Kaileuna",
                "article": "https://en.wikipedia.org/wiki/Kaileuna"
            }
        },
        {
            "type": "Feature",
            "geometry": {
                "type": "Point",
                "coordinates": [
                    152.85,
                    -4.8
                ]
            },
            "properties": {
                "name": "Lambom Island",
                "article": "https://en.wikipedia.org/wiki/Lambom_Island"
            }
        },
        {
            "type": "Feature",
            "geometry": {
                "type": "Point",
                "coordinates": [
                    153.18333333,
                    -3.5
                ]
            },
            "properties": {
                "name": "Lif Island",
                "article": "https://en.wikipedia.org/wiki/Lif_Island"
            }
        },
        {
            "type": "Feature",
            "geometry": {
                "type": "Point",
                "coordinates": [
                    153.33333333,
                    -1.75
                ]
            },
            "properties": {
                "name": "Lyra Reef",
                "article": "https://en.wikipedia.org/wiki/Lyra_Reef"
            }
        },
        {
            "type": "Feature",
            "geometry": {
                "type": "Point",
                "coordinates": [
                    149.356,
                    -10.387
                ]
            },
            "properties": {
                "name": "Mailu Island",
                "article": "https://en.wikipedia.org/wiki/Mailu_Island"
            }
        },
        {
            "type": "Feature",
            "geometry": {
                "type": "Point",
                "coordinates": [
                    153.21666667,
                    -3.46666667
                ]
            },
            "properties": {
                "name": "Malendok Island",
                "article": "https://en.wikipedia.org/wiki/Malendok_Island"
            }
        },
        {
            "type": "Feature",
            "geometry": {
                "type": "Point",
                "coordinates": [
                    150.71666667,
                    -2.7
                ]
            },
            "properties": {
                "name": "Manne Island",
                "article": "https://en.wikipedia.org/wiki/Manne_Island"
            }
        },
        {
            "type": "Feature",
            "geometry": {
                "type": "Point",
                "coordinates": [
                    147.68333333,
                    -9.05
                ]
            },
            "properties": {
                "name": "Mount Bellamy",
                "article": "https://en.wikipedia.org/wiki/Mount_Bellamy"
            }
        },
        {
            "type": "Feature",
            "geometry": {
                "type": "Point",
                "coordinates": [
                    141.218055555,
                    -5.09
                ]
            },
            "properties": {
                "name": "Mount Fubilan",
                "article": "https://en.wikipedia.org/wiki/Mount_Fubilan"
            }
        },
        {
            "type": "Feature",
            "geometry": {
                "type": "Point",
                "coordinates": [
                    149.16666667,
                    -9.15
                ]
            },
            "properties": {
                "name": "Mount Trafalgar",
                "article": "https://en.wikipedia.org/wiki/Mount_Trafalgar"
            }
        },
        {
            "type": "Feature",
            "geometry": {
                "type": "Point",
                "coordinates": [
                    151.023611111,
                    -10.279722222
                ]
            },
            "properties": {
                "name": "Nuakata Island",
                "article": "https://en.wikipedia.org/wiki/Nuakata_Island"
            }
        },
        {
            "type": "Feature",
            "geometry": {
                "type": "Point",
                "coordinates": [
                    153.156944444,
                    -11.230277777
                ]
            },
            "properties": {
                "name": "Pana Tinani",
                "article": "https://en.wikipedia.org/wiki/Pana_Tinani"
            }
        },
        {
            "type": "Feature",
            "geometry": {
                "type": "Point",
                "coordinates": [
                    150.55,
                    -2.6
                ]
            },
            "properties": {
                "name": "Patio Island",
                "article": "https://en.wikipedia.org/wiki/Patio_Island"
            }
        },
        {
            "type": "Feature",
            "geometry": {
                "type": "Point",
                "coordinates": [
                    154.13333333,
                    -4.4
                ]
            },
            "properties": {
                "name": "Pinipel Island",
                "article": "https://en.wikipedia.org/wiki/Pinipel_Island"
            }
        },
        {
            "type": "Feature",
            "geometry": {
                "type": "Point",
                "coordinates": [
                    147.225791666,
                    -1.961641666
                ]
            },
            "properties": {
                "name": "Pityilu Island",
                "article": "https://en.wikipedia.org/wiki/Pityilu_Island"
            }
        },
        {
            "type": "Feature",
            "geometry": {
                "type": "Point",
                "coordinates": [
                    155.73833333,
                    -10.81222222
                ]
            },
            "properties": {
                "name": "Pocklington Reef",
                "article": "https://en.wikipedia.org/wiki/Pocklington_Reef"
            }
        },
        {
            "type": "Feature",
            "geometry": {
                "type": "Point",
                "coordinates": [
                    143.45,
                    -8.4
                ]
            },
            "properties": {
                "name": "Purutu Island",
                "article": "https://en.wikipedia.org/wiki/Purutu_Island"
            }
        },
        {
            "type": "Feature",
            "geometry": {
                "type": "Point",
                "coordinates": [
                    145.28333333,
                    -0.78333333
                ]
            },
            "properties": {
                "name": "Sae Island",
                "article": "https://en.wikipedia.org/wiki/Sae_Island"
            }
        },
        {
            "type": "Feature",
            "geometry": {
                "type": "Point",
                "coordinates": [
                    150.53333333,
                    -2.68333333
                ]
            },
            "properties": {
                "name": "Selapiu Island",
                "article": "https://en.wikipedia.org/wiki/Selapiu_Island"
            }
        },
        {
            "type": "Feature",
            "geometry": {
                "type": "Point",
                "coordinates": [
                    154.16666667,
                    -4.46666667
                ]
            },
            "properties": {
                "name": "Sirot Island",
                "article": "https://en.wikipedia.org/wiki/Sirot_Island"
            }
        },
        {
            "type": "Feature",
            "geometry": {
                "type": "Point",
                "coordinates": [
                    147.35,
                    -2.38333
                ]
            },
            "properties": {
                "name": "St. Andrew Strait",
                "article": "https://en.wikipedia.org/wiki/St._Andrew_Strait"
            }
        },
        {
            "type": "Feature",
            "geometry": {
                "type": "Point",
                "coordinates": [
                    152.0,
                    -2.83333
                ]
            },
            "properties": {
                "name": "Tabar Island",
                "article": "https://en.wikipedia.org/wiki/Tabar_Island"
            }
        },
        {
            "type": "Feature",
            "geometry": {
                "type": "Point",
                "coordinates": [
                    154.654,
                    -5.525
                ]
            },
            "properties": {
                "name": "Taiof Island",
                "article": "https://en.wikipedia.org/wiki/Taiof_Island"
            }
        },
        {
            "type": "Feature",
            "geometry": {
                "type": "Point",
                "coordinates": [
                    151.9666667,
                    -2.83333333
                ]
            },
            "properties": {
                "name": "Tatau Island",
                "article": "https://en.wikipedia.org/wiki/Tatau_Island"
            }
        },
        {
            "type": "Feature",
            "geometry": {
                "type": "Point",
                "coordinates": [
                    151.967,
                    -2.78333
                ]
            },
            "properties": {
                "name": "Tatau Island",
                "article": "https://en.wikipedia.org/wiki/Tatau_Island"
            }
        },
        {
            "type": "Feature",
            "geometry": {
                "type": "Point",
                "coordinates": [
                    153.2,
                    -3.53333
                ]
            },
            "properties": {
                "name": "Tefa Island",
                "article": "https://en.wikipedia.org/wiki/Tefa_Island"
            }
        },
        {
            "type": "Feature",
            "geometry": {
                "type": "Point",
                "coordinates": [
                    154.935,
                    -5.835
                ]
            },
            "properties": {
                "name": "Tore",
                "article": "https://en.wikipedia.org/wiki/Tore_(volcano)"
            }
        },
        {
            "type": "Feature",
            "geometry": {
                "type": "Point",
                "coordinates": [
                    150.533,
                    -2.55
                ]
            },
            "properties": {
                "name": "Tsoilaunung Island",
                "article": "https://en.wikipedia.org/wiki/Tsoilaunung_Island"
            }
        },
        {
            "type": "Feature",
            "geometry": {
                "type": "Point",
                "coordinates": [
                    151.941,
                    -4.18306
                ]
            },
            "properties": {
                "name": "Urara Island",
                "article": "https://en.wikipedia.org/wiki/Urara_Island"
            }
        },
        {
            "type": "Feature",
            "geometry": {
                "type": "Point",
                "coordinates": [
                    151.16694444,
                    -8.85194444
                ]
            },
            "properties": {
                "name": "Vakuta",
                "article": "https://en.wikipedia.org/wiki/Vakuta"
            }
        },
        {
            "type": "Feature",
            "geometry": {
                "type": "Point",
                "coordinates": [
                    143.616666666,
                    -8.383333333
                ]
            },
            "properties": {
                "name": "Wabuda Island",
                "article": "https://en.wikipedia.org/wiki/Wabuda_Island"
            }
        },
        {
            "type": "Feature",
            "geometry": {
                "type": "Point",
                "coordinates": [
                    146.533333333,
                    -8.816666666
                ]
            },
            "properties": {
                "name": "Yule Island",
                "article": "https://en.wikipedia.org/wiki/Yule_Island"
            }
        },
        {
            "type": "Feature",
            "geometry": {
                "type": "Point",
                "coordinates": [
                    151.967,
                    -2.78333
                ]
            },
            "properties": {
                "name": "Tatau Island",
                "article": "https://en.wikipedia.org/wiki/Tatau_Island"
            }
        },
        {
            "type": "Feature",
            "geometry": {
                "type": "Point",
                "coordinates": [
                    153.2,
                    -3.53333
                ]
            },
            "properties": {
                "name": "Tefa Island",
                "article": "https://en.wikipedia.org/wiki/Tefa_Island"
            }
        },
        {
            "type": "Feature",
            "geometry": {
                "type": "Point",
                "coordinates": [
                    154.935,
                    -5.835
                ]
            },
            "properties": {
                "name": "Tore",
                "article": "https://en.wikipedia.org/wiki/Tore_(volcano)"
            }
        },
        {
            "type": "Feature",
            "geometry": {
                "type": "Point",
                "coordinates": [
                    150.533,
                    -2.55
                ]
            },
            "properties": {
                "name": "Tsoilaunung Island",
                "article": "https://en.wikipedia.org/wiki/Tsoilaunung_Island"
            }
        },
        {
            "type": "Feature",
            "geometry": {
                "type": "Point",
                "coordinates": [
                    151.941,
                    -4.18306
                ]
            },
            "properties": {
                "name": "Urara Island",
                "article": "https://en.wikipedia.org/wiki/Urara_Island"
            }
        },
        {
            "type": "Feature",
            "geometry": {
                "type": "Point",
                "coordinates": [
                    151.16694444,
                    -8.85194444
                ]
            },
            "properties": {
                "name": "Vakuta",
                "article": "https://en.wikipedia.org/wiki/Vakuta"
            }
        },
        {
            "type": "Feature",
            "geometry": {
                "type": "Point",
                "coordinates": [
                    143.616666666,
                    -8.383333333
                ]
            },
            "properties": {
                "name": "Wabuda Island",
                "article": "https://en.wikipedia.org/wiki/Wabuda_Island"
            }
        },
        {
            "type": "Feature",
            "geometry": {
                "type": "Point",
                "coordinates": [
                    146.533333333,
                    -8.816666666
                ]
            },
            "properties": {
                "name": "Yule Island",
                "article": "https://en.wikipedia.org/wiki/Yule_Island"
            }
        },
        {
            "type": "Feature",
            "geometry": {
                "type": "Point",
                "coordinates": [
                    149.010833333,
                    -9.669166666
                ]
            },
            "properties": {
                "name": "Mount Suckling",
                "article": "https://en.wikipedia.org/wiki/Mount_Suckling"
            }
        },
        {
            "type": "Feature",
            "geometry": {
                "type": "Point",
                "coordinates": [
                    149.06666667,
                    -9.21666667
                ]
            },
            "properties": {
                "name": "Mount Victory, Papua New Guinea",
                "article": "https://en.wikipedia.org/wiki/Mount_Victory_(Papua_New_Guinea)"
            }
        },
        {
            "type": "Feature",
            "geometry": {
                "type": "Point",
                "coordinates": [
                    150.20583333,
                    -9.33416667
                ]
            },
            "properties": {
                "name": "Mount Vineuo",
                "article": "https://en.wikipedia.org/wiki/Mount_Vineuo"
            }
        },
        {
            "type": "Feature",
            "geometry": {
                "type": "Point",
                "coordinates": [
                    147.059722222,
                    -2.893055555
                ]
            },
            "properties": {
                "name": "Alim Island",
                "article": null
            }
        },
        {
            "type": "Feature",
            "geometry": {
                "type": "Point",
                "coordinates": [
                    145.0,
                    -5.7166667
                ]
            },
            "properties": {
                "name": "Mount Herbert",
                "article": null
            }
        },
        {
            "type": "Feature",
            "geometry": {
                "type": "Point",
                "coordinates": [
                    145.0208,
                    -5.6317
                ]
            },
            "properties": {
                "name": "Mount Herbert",
                "article": null
            }
        },
        {
            "type": "Feature",
            "geometry": {
                "type": "Point",
                "coordinates": [
                    144.75,
                    -6.1
                ]
            },
            "properties": {
                "name": "Mount Kubor",
                "article": "https://en.wikipedia.org/wiki/Mount_Kubor"
            }
        },
        {
            "type": "Feature",
            "geometry": {
                "type": "Point",
                "coordinates": [
                    146.3752778,
                    -5.95388889
                ]
            },
            "properties": {
                "name": "Mount Gladstone",
                "article": null
            }
        },
        {
            "type": "Feature",
            "geometry": {
                "type": "Point",
                "coordinates": [
                    141.0825,
                    -4.99583333
                ]
            },
            "properties": {
                "name": "Q12108362",
                "article": null
            }
        },
        {
            "type": "Feature",
            "geometry": {
                "type": "Point",
                "coordinates": [
                    149.35472222,
                    -4.62361111
                ]
            },
            "properties": {
                "name": "Mundua",
                "article": null
            }
        },
        {
            "type": "Feature",
            "geometry": {
                "type": "Point",
                "coordinates": [
                    143.25805556,
                    -3.20694444
                ]
            },
            "properties": {
                "name": "Q15060295",
                "article": null
            }
        },
        {
            "type": "Feature",
            "geometry": {
                "type": "Point",
                "coordinates": [
                    149.14027778,
                    -4.88888889
                ]
            },
            "properties": {
                "name": "Unea",
                "article": "https://en.wikipedia.org/wiki/Unea_Island"
            }
        },
        {
            "type": "Feature",
            "geometry": {
                "type": "Point",
                "coordinates": [
                    143.30305556,
                    -3.22888889
                ]
            },
            "properties": {
                "name": "Q15134304",
                "article": null
            }
        },
        {
            "type": "Feature",
            "geometry": {
                "type": "Point",
                "coordinates": [
                    152.68333333,
                    -11.13333333
                ]
            },
            "properties": {
                "name": "Bagaman Island",
                "article": "https://en.wikipedia.org/wiki/Bagaman_Island"
            }
        },
        {
            "type": "Feature",
            "geometry": {
                "type": "Point",
                "coordinates": [
                    147.233999,
                    -2.220442
                ]
            },
            "properties": {
                "name": "Big Ndrova Island",
                "article": "https://en.wikipedia.org/wiki/Big_Ndrova_Island"
            }
        },
        {
            "type": "Feature",
            "geometry": {
                "type": "Point",
                "coordinates": [
                    151.9175,
                    -8.8017
                ]
            },
            "properties": {
                "name": "Dugumenu Island",
                "article": "https://en.wikipedia.org/wiki/Dugumenu_Island"
            }
        },
        {
            "type": "Feature",
            "geometry": {
                "type": "Point",
                "coordinates": [
                    152.534,
                    -11.066
                ]
            },
            "properties": {
                "name": "Gulowa Island",
                "article": "https://en.wikipedia.org/wiki/Gulowa_Island"
            }
        },
        {
            "type": "Feature",
            "geometry": {
                "type": "Point",
                "coordinates": [
                    147.21885,
                    -2.223658
                ]
            },
            "properties": {
                "name": "Little Ndrova Island",
                "article": "https://en.wikipedia.org/wiki/Little_Ndrova_Island"
            }
        },
        {
            "type": "Feature",
            "geometry": {
                "type": "Point",
                "coordinates": [
                    152.00222222,
                    -10.78694444
                ]
            },
            "properties": {
                "name": "Lunn Island",
                "article": "https://en.wikipedia.org/wiki/Lunn_Island"
            }
        },
        {
            "type": "Feature",
            "geometry": {
                "type": "Point",
                "coordinates": [
                    152.56666667,
                    -11.08333333
                ]
            },
            "properties": {
                "name": "Motorina Island",
                "article": "https://en.wikipedia.org/wiki/Motorina_Island"
            }
        },
        {
            "type": "Feature",
            "geometry": {
                "type": "Point",
                "coordinates": [
                    153.01222222,
                    -11.16964444
                ]
            },
            "properties": {
                "name": "Pana Wina Island",
                "article": "https://en.wikipedia.org/wiki/Pana_Wina_Island"
            }
        },
        {
            "type": "Feature",
            "geometry": {
                "type": "Point",
                "coordinates": [
                    147.18,
                    -2.20416667
                ]
            },
            "properties": {
                "name": "Sanders Island",
                "article": null
            }
        },
        {
            "type": "Feature",
            "geometry": {
                "type": "Point",
                "coordinates": [
                    151.883,
                    -10.3333
                ]
            },
            "properties": {
                "name": "Hastings Island",
                "article": "https://en.wikipedia.org/wiki/Hastings_Island_(Papua_New_Guinea)"
            }
        },
        {
            "type": "Feature",
            "geometry": {
                "type": "Point",
                "coordinates": [
                    152.919,
                    -11.17
                ]
            },
            "properties": {
                "name": "Kuwanak Island",
                "article": "https://en.wikipedia.org/wiki/Kuwanak_Island"
            }
        },
        {
            "type": "Feature",
            "geometry": {
                "type": "Point",
                "coordinates": [
                    146.716,
                    -6.86333
                ]
            },
            "properties": {
                "name": "Mount Shungol",
                "article": "https://en.wikipedia.org/wiki/Mount_Shungol"
            }
        },
        {
            "type": "Feature",
            "geometry": {
                "type": "Point",
                "coordinates": [
                    146.7151,
                    -6.8624
                ]
            },
            "properties": {
                "name": "Mount Shungol",
                "article": "https://en.wikipedia.org/wiki/Mount_Shungol"
            }
        },
        {
            "type": "Feature",
            "geometry": {
                "type": "Point",
                "coordinates": [
                    152.45,
                    -11.05
                ]
            },
            "properties": {
                "name": "Utian Island",
                "article": "https://en.wikipedia.org/wiki/Utian_Island"
            }
        },
        {
            "type": "Feature",
            "geometry": {
                "type": "Point",
                "coordinates": [
                    151.87555556,
                    -10.26333333
                ]
            },
            "properties": {
                "name": "East Island",
                "article": "https://en.wikipedia.org/wiki/East_Island,_Papua_New_Guinea"
            }
        },
        {
            "type": "Feature",
            "geometry": {
                "type": "Point",
                "coordinates": [
                    152.36666667,
                    -10.68333333
                ]
            },
            "properties": {
                "name": "Panapompom Islands",
                "article": "https://en.wikipedia.org/wiki/Panapompom_Islands"
            }
        },
        {
            "type": "Feature",
            "geometry": {
                "type": "Point",
                "coordinates": [
                    152.1375,
                    -11.25361111
                ]
            },
            "properties": {
                "name": "Panarairai Island",
                "article": "https://en.wikipedia.org/wiki/Panarairai_Island"
            }
        },
        {
            "type": "Feature",
            "geometry": {
                "type": "Point",
                "coordinates": [
                    153.158889,
                    -11.23
                ]
            },
            "properties": {
                "name": "Panatinane Island",
                "article": "https://en.wikipedia.org/wiki/Panatinane_Island"
            }
        },
        {
            "type": "Feature",
            "geometry": {
                "type": "Point",
                "coordinates": [
                    150.36666667,
                    -9.5
                ]
            },
            "properties": {
                "name": "Wagifa Island",
                "article": "https://en.wikipedia.org/wiki/Wagifa_Island"
            }
        },
        {
            "type": "Feature",
            "geometry": {
                "type": "Point",
                "coordinates": [
                    152.39694444,
                    -4.23694444
                ]
            },
            "properties": {
                "name": "Kabakon",
                "article": "https://en.wikipedia.org/wiki/Kabakon"
            }
        },
        {
            "type": "Feature",
            "geometry": {
                "type": "Point",
                "coordinates": [
                    152.396944444,
                    -4.236666666
                ]
            },
            "properties": {
                "name": "Kabakon",
                "article": "https://en.wikipedia.org/wiki/Kabakon"
            }
        },
        {
            "type": "Feature",
            "geometry": {
                "type": "Point",
                "coordinates": [
                    146.886,
                    -1.9125
                ]
            },
            "properties": {
                "name": "Ponam Island",
                "article": "https://en.wikipedia.org/wiki/Ponam_Island"
            }
        },
        {
            "type": "Feature",
            "geometry": {
                "type": "Point",
                "coordinates": [
                    152.45826,
                    -4.22915
                ]
            },
            "properties": {
                "name": "Mioko Island",
                "article": "https://en.wikipedia.org/wiki/Mioko_Island"
            }
        },
        {
            "type": "Feature",
            "geometry": {
                "type": "Point",
                "coordinates": [
                    153.0,
                    -11.2
                ]
            },
            "properties": {
                "name": "Samarai Islands",
                "article": "https://en.wikipedia.org/wiki/Samarai_Islands"
            }
        },
        {
            "type": "Feature",
            "geometry": {
                "type": "Point",
                "coordinates": [
                    152.423888888,
                    -9.158055555
                ]
            },
            "properties": {
                "name": "Nanon Island",
                "article": "https://en.wikipedia.org/wiki/Nanon_Island"
            }
        },
        {
            "type": "Feature",
            "geometry": {
                "type": "Point",
                "coordinates": [
                    152.0,
                    -11.23333333
                ]
            },
            "properties": {
                "name": "Duperre Islands",
                "article": "https://en.wikipedia.org/wiki/Duperre_Islands"
            }
        },
        {
            "type": "Feature",
            "geometry": {
                "type": "Point",
                "coordinates": [
                    153.08333333,
                    -11.16666667
                ]
            },
            "properties": {
                "name": "Panasia",
                "article": "https://en.wikipedia.org/wiki/Panasia"
            }
        },
        {
            "type": "Feature",
            "geometry": {
                "type": "Point",
                "coordinates": [
                    152.85,
                    -11.16666667
                ]
            },
            "properties": {
                "name": "Panatanian Island",
                "article": "https://en.wikipedia.org/wiki/Panatanian_Island"
            }
        },
        {
            "type": "Feature",
            "geometry": {
                "type": "Point",
                "coordinates": [
                    153.096944444,
                    -11.121666666
                ]
            },
            "properties": {
                "name": "Sabari Island",
                "article": "https://en.wikipedia.org/wiki/Sabari_Island"
            }
        },
        {
            "type": "Feature",
            "geometry": {
                "type": "Point",
                "coordinates": [
                    153.1,
                    -11.11666667
                ]
            },
            "properties": {
                "name": "Sabari Island",
                "article": "https://en.wikipedia.org/wiki/Sabari_Island"
            }
        },
        {
            "type": "Feature",
            "geometry": {
                "type": "Point",
                "coordinates": [
                    152.78333333,
                    -11.16666667
                ]
            },
            "properties": {
                "name": "Pana Numara",
                "article": "https://en.wikipedia.org/wiki/Pana_Numara"
            }
        },
        {
            "type": "Feature",
            "geometry": {
                "type": "Point",
                "coordinates": [
                    152.73333333,
                    -11.13333333
                ]
            },
            "properties": {
                "name": "Bobo Eina Island",
                "article": "https://en.wikipedia.org/wiki/Bobo_Eina_Island"
            }
        },
        {
            "type": "Feature",
            "geometry": {
                "type": "Point",
                "coordinates": [
                    153.08333333,
                    -11.18333333
                ]
            },
            "properties": {
                "name": "Nigaho Island",
                "article": "https://en.wikipedia.org/wiki/Nigaho_Island"
            }
        },
        {
            "type": "Feature",
            "geometry": {
                "type": "Point",
                "coordinates": [
                    153.086944444,
                    -11.178888888
                ]
            },
            "properties": {
                "name": "Nigaho Island",
                "article": "https://en.wikipedia.org/wiki/Nigaho_Island"
            }
        },
        {
            "type": "Feature",
            "geometry": {
                "type": "Point",
                "coordinates": [
                    152.53333333,
                    -10.85
                ]
            },
            "properties": {
                "name": "East Deboyne Islands",
                "article": "https://en.wikipedia.org/wiki/East_Deboyne_Islands"
            }
        },
        {
            "type": "Feature",
            "geometry": {
                "type": "Point",
                "coordinates": [
                    153.25888889,
                    -11.31333333
                ]
            },