{
    "type": "FeatureCollection",
    "features": [
        {
            "type": "Feature",
            "geometry": {
                "type": "Point",
                "coordinates": [
                    124.45,
                    7.65
                ]
            },
            "properties": {
                "name": "Latukan",
                "article": "https://en.wikipedia.org/wiki/Latukan"
            }
        },
        {
            "type": "Feature",
            "geometry": {
                "type": "Point",
                "coordinates": [
                    125.0,
                    7.5
                ]
            },
            "properties": {
                "name": "Mindanao",
                "article": "https://en.wikipedia.org/wiki/Mindanao"
            }
        },
        {
            "type": "Feature",
            "geometry": {
                "type": "Point",
                "coordinates": [
                    121.0,
                    16.0
                ]
            },
            "properties": {
                "name": "Luzon",
                "article": "https://en.wikipedia.org/wiki/Luzon"
            }
        },
        {
            "type": "Feature",
            "geometry": {
                "type": "Point",
                "coordinates": [
                    123.366666666,
                    13.333333333
                ]
            },
            "properties": {
                "name": "Lake Bato",
                "article": "https://en.wikipedia.org/wiki/Lake_Bato"
            }
        },
        {
            "type": "Feature",
            "geometry": {
                "type": "Point",
                "coordinates": [
                    124.833333333,
                    10.833333333
                ]
            },
            "properties": {
                "name": "Leyte",
                "article": "https://en.wikipedia.org/wiki/Leyte"
            }
        },
        {
            "type": "Feature",
            "geometry": {
                "type": "Point",
                "coordinates": [
                    121.09,
                    12.93
                ]
            },
            "properties": {
                "name": "Mindoro",
                "article": "https://en.wikipedia.org/wiki/Mindoro"
            }
        },
        {
            "type": "Feature",
            "geometry": {
                "type": "Point",
                "coordinates": [
                    123.0,
                    10.0
                ]
            },
            "properties": {
                "name": "Negros",
                "article": "https://en.wikipedia.org/wiki/Negros"
            }
        },
        {
            "type": "Feature",
            "geometry": {
                "type": "Point",
                "coordinates": [
                    125.116666666,
                    12.05
                ]
            },
            "properties": {
                "name": "Samar",
                "article": "https://en.wikipedia.org/wiki/Samar"
            }
        },
        {
            "type": "Feature",
            "geometry": {
                "type": "Point",
                "coordinates": [
                    123.636666666,
                    8.2175
                ]
            },
            "properties": {
                "name": "Mount Malindang",
                "article": "https://en.wikipedia.org/wiki/Mount_Malindang"
            }
        },
        {
            "type": "Feature",
            "geometry": {
                "type": "Point",
                "coordinates": [
                    120.55,
                    16.35
                ]
            },
            "properties": {
                "name": "Mount Cabuyao",
                "article": "https://en.wikipedia.org/wiki/Mount_Cabuyao"
            }
        },
        {
            "type": "Feature",
            "geometry": {
                "type": "Point",
                "coordinates": [
                    123.3353,
                    11.589
                ]
            },
            "properties": {
                "name": "South Gigante Island",
                "article": null
            }
        },
        {
            "type": "Feature",
            "geometry": {
                "type": "Point",
                "coordinates": [
                    124.316666666,
                    10.716666666
                ]
            },
            "properties": {
                "name": "Tulang",
                "article": "https://en.wikipedia.org/wiki/Tulang"
            }
        },
        {
            "type": "Feature",
            "geometry": {
                "type": "Point",
                "coordinates": [
                    122.483333333,
                    11.15
                ]
            },
            "properties": {
                "name": "Panay",
                "article": "https://en.wikipedia.org/wiki/Panay"
            }
        },
        {
            "type": "Feature",
            "geometry": {
                "type": "Point",
                "coordinates": [
                    122.567777777,
                    12.413888888
                ]
            },
            "properties": {
                "name": "Mount Guiting-Guiting",
                "article": "https://en.wikipedia.org/wiki/Mount_Guiting-Guiting"
            }
        },
        {
            "type": "Feature",
            "geometry": {
                "type": "Point",
                "coordinates": [
                    124.6880556,
                    8.6744444
                ]
            },
            "properties": {
                "name": "Q399531",
                "article": null
            }
        },
        {
            "type": "Feature",
            "geometry": {
                "type": "Point",
                "coordinates": [
                    117.02,
                    7.95
                ]
            },
            "properties": {
                "name": "Balabac Island",
                "article": "https://en.wikipedia.org/wiki/Balabac_Island"
            }
        },
        {
            "type": "Feature",
            "geometry": {
                "type": "Point",
                "coordinates": [
                    121.1,
                    17.31
                ]
            },
            "properties": {
                "name": "Mount Binuluan",
                "article": "https://en.wikipedia.org/wiki/Mount_Binuluan"
            }
        },
        {
            "type": "Feature",
            "geometry": {
                "type": "Point",
                "coordinates": [
                    124.05,
                    12.77
                ]
            },
            "properties": {
                "name": "Mount Bulusan",
                "article": "https://en.wikipedia.org/wiki/Mount_Bulusan"
            }
        },
        {
            "type": "Feature",
            "geometry": {
                "type": "Point",
                "coordinates": [
                    120.806388888,
                    15.837777777
                ]
            },
            "properties": {
                "name": "Amorong",
                "article": "https://en.wikipedia.org/wiki/Mount_Amorong"
            }
        },
        {
            "type": "Feature",
            "geometry": {
                "type": "Point",
                "coordinates": [
                    117.981,
                    9.27988
                ]
            },
            "properties": {
                "name": "Tabon Caves",
                "article": "https://en.wikipedia.org/wiki/Tabon_Caves"
            }
        },
        {
            "type": "Feature",
            "geometry": {
                "type": "Point",
                "coordinates": [
                    124.15,
                    13.2
                ]
            },
            "properties": {
                "name": "Rapu-rapu Island",
                "article": "https://en.wikipedia.org/wiki/Rapu-rapu_Island"
            }
        },
        {
            "type": "Feature",
            "geometry": {
                "type": "Point",
                "coordinates": [
                    125.2125,
                    10.051388888
                ]
            },
            "properties": {
                "name": "Panaon",
                "article": "https://en.wikipedia.org/wiki/Panaon_Island"
            }
        },
        {
            "type": "Feature",
            "geometry": {
                "type": "Point",
                "coordinates": [
                    120.93,
                    14.49
                ]
            },
            "properties": {
                "name": "Battle of Manila Bay",
                "article": "https://en.wikipedia.org/wiki/Battle_of_Manila_Bay"
            }
        },
        {
            "type": "Feature",
            "geometry": {
                "type": "Point",
                "coordinates": [
                    121.012222,
                    13.986944
                ]
            },
            "properties": {
                "name": "Taal Lake",
                "article": "https://en.wikipedia.org/wiki/Taal_Lake"
            }
        },
        {
            "type": "Feature",
            "geometry": {
                "type": "Point",
                "coordinates": [
                    121.016944444,
                    13.9825
                ]
            },
            "properties": {
                "name": "Taal Lake",
                "article": "https://en.wikipedia.org/wiki/Taal_Lake"
            }
        },
        {
            "type": "Feature",
            "geometry": {
                "type": "Point",
                "coordinates": [
                    120.63029722,
                    14.30506389
                ]
            },
            "properties": {
                "name": "El Fraile Island",
                "article": "https://en.wikipedia.org/wiki/Fort_Drum_(Philippines)"
            }
        },
        {
            "type": "Feature",
            "geometry": {
                "type": "Point",
                "coordinates": [
                    123.271,
                    9.079
                ]
            },
            "properties": {
                "name": "Apo Island",
                "article": "https://en.wikipedia.org/wiki/Apo_Island"
            }
        },
        {
            "type": "Feature",
            "geometry": {
                "type": "Point",
                "coordinates": [
                    120.742,
                    15.2
                ]
            },
            "properties": {
                "name": "Mount Arayat",
                "article": "https://en.wikipedia.org/wiki/Mount_Arayat"
            }
        },
        {
            "type": "Feature",
            "geometry": {
                "type": "Point",
                "coordinates": [
                    121.02723,
                    14.5665
                ]
            },
            "properties": {
                "name": "The Stratford Residences",
                "article": "https://en.wikipedia.org/wiki/The_Stratford_Residences"
            }
        },
        {
            "type": "Feature",
            "geometry": {
                "type": "Point",
                "coordinates": [
                    123.352,
                    11.6222
                ]
            },
            "properties": {
                "name": "North Gigante Island",
                "article": null
            }
        },
        {
            "type": "Feature",
            "geometry": {
                "type": "Point",
                "coordinates": [
                    123.966666666,
                    10.3
                ]
            },
            "properties": {
                "name": "Mactan",
                "article": "https://en.wikipedia.org/wiki/Mactan"
            }
        },
        {
            "type": "Feature",
            "geometry": {
                "type": "Point",
                "coordinates": [
                    120.96666667,
                    14.58333333
                ]
            },
            "properties": {
                "name": "Battle of Manila",
                "article": "https://en.wikipedia.org/wiki/Battle_of_Manila_(1945)"
            }
        },
        {
            "type": "Feature",
            "geometry": {
                "type": "Point",
                "coordinates": [
                    120.417,
                    14.6667
                ]
            },
            "properties": {
                "name": "Battle of Bataan",
                "article": "https://en.wikipedia.org/wiki/Battle_of_Bataan"
            }
        },
        {
            "type": "Feature",
            "geometry": {
                "type": "Point",
                "coordinates": [
                    125.0,
                    8.0
                ]
            },
            "properties": {
                "name": "Battle of Mindanao",
                "article": "https://en.wikipedia.org/wiki/Battle_of_Mindanao"
            }
        },
        {
            "type": "Feature",
            "geometry": {
                "type": "Point",
                "coordinates": [
                    120.417,
                    14.6667
                ]
            },
            "properties": {
                "name": "Battle of Corregidor",
                "article": "https://en.wikipedia.org/wiki/Battle_of_Corregidor"
            }
        },
        {
            "type": "Feature",
            "geometry": {
                "type": "Point",
                "coordinates": [
                    125.012222222,
                    11.172222222
                ]
            },
            "properties": {
                "name": "Battle of Leyte",
                "article": "https://en.wikipedia.org/wiki/Battle_of_Leyte"
            }
        },
        {
            "type": "Feature",
            "geometry": {
                "type": "Point",
                "coordinates": [
                    124.581,
                    10.982
                ]
            },
            "properties": {
                "name": "Battle of Ormoc Bay",
                "article": "https://en.wikipedia.org/wiki/Battle_of_Ormoc_Bay"
            }
        },
        {
            "type": "Feature",
            "geometry": {
                "type": "Point",
                "coordinates": [
                    124.0,
                    13.25
                ]
            },
            "properties": {
                "name": "Batan Island",
                "article": "https://en.wikipedia.org/wiki/Batan_Island,_Albay"
            }
        },
        {
            "type": "Feature",
            "geometry": {
                "type": "Point",
                "coordinates": [
                    123.86666667,
                    13.3
                ]
            },
            "properties": {
                "name": "Cagraray Island",
                "article": "https://en.wikipedia.org/wiki/Cagraray"
            }
        },
        {
            "type": "Feature",
            "geometry": {
                "type": "Point",
                "coordinates": [
                    125.948333333,
                    9.673611111
                ]
            },
            "properties": {
                "name": "Bucas Grande",
                "article": "https://en.wikipedia.org/wiki/Bucas_Grande"
            }
        },
        {
            "type": "Feature",
            "geometry": {
                "type": "Point",
                "coordinates": [
                    121.015277777,
                    14.604166666
                ]
            },
            "properties": {
                "name": "Battle of Manila",
                "article": "https://en.wikipedia.org/wiki/Battle_of_Manila_(1899)"
            }
        },
        {
            "type": "Feature",
            "geometry": {
                "type": "Point",
                "coordinates": [
                    123.31,
                    13.468888888
                ]
            },
            "properties": {
                "name": "Lake Baao",
                "article": "https://en.wikipedia.org/wiki/Lake_Baao"
            }
        },
        {
            "type": "Feature",
            "geometry": {
                "type": "Point",
                "coordinates": [
                    121.94,
                    19.523333333
                ]
            },
            "properties": {
                "name": "Babuyan Claro",
                "article": "https://en.wikipedia.org/wiki/Babuyan_Claro_Volcano"
            }
        },
        {
            "type": "Feature",
            "geometry": {
                "type": "Point",
                "coordinates": [
                    122.998611111,
                    9.137777777
                ]
            },
            "properties": {
                "name": "Lake Balanan",
                "article": "https://en.wikipedia.org/wiki/Lake_Balanan"
            }
        },
        {
            "type": "Feature",
            "geometry": {
                "type": "Point",
                "coordinates": [
                    124.98,
                    8.77
                ]
            },
            "properties": {
                "name": "Balatukan",
                "article": "https://en.wikipedia.org/wiki/Mount_Balatukan"
            }
        },
        {
            "type": "Feature",
            "geometry": {
                "type": "Point",
                "coordinates": [
                    122.037222222,
                    14.424166666
                ]
            },
            "properties": {
                "name": "Balesin Island",
                "article": "https://en.wikipedia.org/wiki/Balesin_Island"
            }
        },
        {
            "type": "Feature",
            "geometry": {
                "type": "Point",
                "coordinates": [
                    121.483333333,
                    14.066666666
                ]
            },
            "properties": {
                "name": "Mount Banahaw",
                "article": "https://en.wikipedia.org/wiki/Mount_Banahaw"
            }
        },
        {
            "type": "Feature",
            "geometry": {
                "type": "Point",
                "coordinates": [
                    121.4925,
                    14.06751
                ]
            },
            "properties": {
                "name": "Mount Banahaw",
                "article": "https://en.wikipedia.org/wiki/Mount_Banahaw"
            }
        },
        {
            "type": "Feature",
            "geometry": {
                "type": "Point",
                "coordinates": [
                    123.733333333,
                    11.2
                ]
            },
            "properties": {
                "name": "Bantayan",
                "article": "https://en.wikipedia.org/wiki/Bantayan_Island"
            }
        },
        {
            "type": "Feature",
            "geometry": {
                "type": "Point",
                "coordinates": [
                    123.17388889,
                    11.21111111
                ]
            },
            "properties": {
                "name": "Igbon Island",
                "article": "https://en.wikipedia.org/wiki/Igbon_Island"
            }
        },
        {
            "type": "Feature",
            "geometry": {
                "type": "Point",
                "coordinates": [
                    122.05,
                    6.566666666
                ]
            },
            "properties": {
                "name": "Basilan",
                "article": "https://en.wikipedia.org/wiki/Basilan_Island"
            }
        },
        {
            "type": "Feature",
            "geometry": {
                "type": "Point",
                "coordinates": [
                    121.913888888,
                    11.469444444
                ]
            },
            "properties": {
                "name": "Batbatan Island",
                "article": null
            }
        },
        {
            "type": "Feature",
            "geometry": {
                "type": "Point",
                "coordinates": [
                    120.35,
                    15.13
                ]
            },
            "properties": {
                "name": "Pinatubo",
                "article": "https://en.wikipedia.org/wiki/Mount_Pinatubo"
            }
        },
        {
            "type": "Feature",
            "geometry": {
                "type": "Point",
                "coordinates": [
                    123.685,
                    13.256666666
                ]
            },
            "properties": {
                "name": "Mayon Volcano",
                "article": "https://en.wikipedia.org/wiki/Mayon"
            }
        },
        {
            "type": "Feature",
            "geometry": {
                "type": "Point",
                "coordinates": [
                    124.25,
                    13.833333333
                ]
            },
            "properties": {
                "name": "Catanduanes",
                "article": "https://en.wikipedia.org/wiki/Catanduanes"
            }
        },
        {
            "type": "Feature",
            "geometry": {
                "type": "Point",
                "coordinates": [
                    121.118888888,
                    14.508888888
                ]
            },
            "properties": {
                "name": "Laguna Lake",
                "article": "https://en.wikipedia.org/wiki/Laguna_de_Bay"
            }
        },
        {
            "type": "Feature",
            "geometry": {
                "type": "Point",
                "coordinates": [
                    121.423055555,
                    14.062222222
                ]
            },
            "properties": {
                "name": "San Cristobal",
                "article": "https://en.wikipedia.org/wiki/Mount_San_Cristobal"
            }
        },
        {
            "type": "Feature",
            "geometry": {
                "type": "Point",
                "coordinates": [
                    123.20222222,
                    11.04
                ]
            },
            "properties": {
                "name": "Lakawon",
                "article": "https://en.wikipedia.org/wiki/Lakawon"
            }
        },
        {
            "type": "Feature",
            "geometry": {
                "type": "Point",
                "coordinates": [
                    124.5633333,
                    10.1133333
                ]
            },
            "properties": {
                "name": "Q1805770",
                "article": null
            }
        },
        {
            "type": "Feature",
            "geometry": {
                "type": "Point",
                "coordinates": [
                    126.046666666,
                    7.381666666
                ]
            },
            "properties": {
                "name": "Leonard Kniaseff",
                "article": "https://en.wikipedia.org/wiki/Leonard_Kniaseff"
            }
        },
        {
            "type": "Feature",
            "geometry": {
                "type": "Point",
                "coordinates": [
                    121.017783,
                    14.559497
                ]
            },
            "properties": {
                "name": "LKG Tower",
                "article": "https://en.wikipedia.org/wiki/LKG_Tower"
            }
        },
        {
            "type": "Feature",
            "geometry": {
                "type": "Point",
                "coordinates": [
                    122.58333333,
                    12.41666667
                ]
            },
            "properties": {
                "name": "Sibuyan",
                "article": "https://en.wikipedia.org/wiki/Sibuyan_Island"
            }
        },
        {
            "type": "Feature",
            "geometry": {
                "type": "Point",
                "coordinates": [
                    123.698055555,
                    12.529166666
                ]
            },
            "properties": {
                "name": "Ticao Island",
                "article": "https://en.wikipedia.org/wiki/Ticao_Island"
            }
        },
        {
            "type": "Feature",
            "geometry": {
                "type": "Point",
                "coordinates": [
                    125.6,
                    10.1
                ]
            },
            "properties": {
                "name": "Dinagat Island",
                "article": "https://en.wikipedia.org/wiki/Dinagat_Island"
            }
        },
        {
            "type": "Feature",
            "geometry": {
                "type": "Point",
                "coordinates": [
                    121.9208333,
                    20.93111111
                ]
            },
            "properties": {
                "name": "Mabudis Island",
                "article": null
            }
        },
        {
            "type": "Feature",
            "geometry": {
                "type": "Point",
                "coordinates": [
                    121.709722222,
                    12.926388888
                ]
            },
            "properties": {
                "name": "Maestre de Campo Island",
                "article": "https://en.wikipedia.org/wiki/Maestre_de_Campo_Island"
            }
        },
        {
            "type": "Feature",
            "geometry": {
                "type": "Point",
                "coordinates": [
                    124.859663888,
                    10.874444444
                ]
            },
            "properties": {
                "name": "Mahagnao Volcano",
                "article": "https://en.wikipedia.org/wiki/Mahagnao_Volcano"
            }
        },
        {
            "type": "Feature",
            "geometry": {
                "type": "Point",
                "coordinates": [
                    123.2086,
                    11.2409
                ]
            },
            "properties": {
                "name": "Malangabang Island",
                "article": null
            }
        },
        {
            "type": "Feature",
            "geometry": {
                "type": "Point",
                "coordinates": [
                    123.2108333,
                    11.2413889
                ]
            },
            "properties": {
                "name": "Malangabang Island",
                "article": null
            }
        },
        {
            "type": "Feature",
            "geometry": {
                "type": "Point",
                "coordinates": [
                    123.25,
                    10.65
                ]
            },
            "properties": {
                "name": "Mandalagan",
                "article": "https://en.wikipedia.org/wiki/Mandalagan"
            }
        },
        {
            "type": "Feature",
            "geometry": {
                "type": "Point",
                "coordinates": [
                    119.55,
                    10.766666666
                ]
            },
            "properties": {
                "name": "Lake Manguao",
                "article": "https://en.wikipedia.org/wiki/Lake_Manguao"
            }
        },
        {
            "type": "Feature",
            "geometry": {
                "type": "Point",
                "coordinates": [
                    121.6958333,
                    11.5994444
                ]
            },
            "properties": {
                "name": "Maniguin Island",
                "article": "https://en.wikipedia.org/wiki/Maniguin_Island"
            }
        },
        {
            "type": "Feature",
            "geometry": {
                "type": "Point",
                "coordinates": [
                    123.816666666,
                    9.6
                ]
            },
            "properties": {
                "name": "Panglao Island",
                "article": "https://en.wikipedia.org/wiki/Panglao_Island"
            }
        },
        {
            "type": "Feature",
            "geometry": {
                "type": "Point",
                "coordinates": [
                    125.108333333,
                    6.433333333
                ]
            },
            "properties": {
                "name": "Mount Matutum",
                "article": "https://en.wikipedia.org/wiki/Mount_Matutum"
            }
        },
        {
            "type": "Feature",
            "geometry": {
                "type": "Point",
                "coordinates": [
                    124.8883333,
                    6.1013889
                ]
            },
            "properties": {
                "name": "Lake Maughan",
                "article": null
            }
        },
        {
            "type": "Feature",
            "geometry": {
                "type": "Point",
                "coordinates": [
                    115.0,
                    11.083333333
                ]
            },
            "properties": {
                "name": "West York Island",
                "article": "https://en.wikipedia.org/wiki/West_York_Island"
            }
        },
        {
            "type": "Feature",
            "geometry": {
                "type": "Point",
                "coordinates": [
                    117.669722222,
                    8.818333333
                ]
            },
            "properties": {
                "name": "Mount Mantalingajan",
                "article": "https://en.wikipedia.org/wiki/Mount_Mantalingajan"
            }
        },
        {
            "type": "Feature",
            "geometry": {
                "type": "Point",
                "coordinates": [
                    120.4,
                    14.72
                ]
            },
            "properties": {
                "name": "Mount Natib",
                "article": "https://en.wikipedia.org/wiki/Mount_Natib"
            }
        },
        {
            "type": "Feature",
            "geometry": {
                "type": "Point",
                "coordinates": [
                    121.95372222,
                    19.52233333
                ]
            },
            "properties": {
                "name": "Babuyan Island",
                "article": "https://en.wikipedia.org/wiki/Babuyan_Island"
            }
        },
        {
            "type": "Feature",
            "geometry": {
                "type": "Point",
                "coordinates": [
                    123.44833333,
                    9.8225
                ]
            },
            "properties": {
                "name": "Osmeña Peak",
                "article": null
            }
        },
        {
            "type": "Feature",
            "geometry": {
                "type": "Point",
                "coordinates": [
                    121.053055555,
                    14.604722222
                ]
            },
            "properties": {
                "name": "Atlanta Centre",
                "article": "https://en.wikipedia.org/wiki/Atlanta_Centre"
            }
        },
        {
            "type": "Feature",
            "geometry": {
                "type": "Point",
                "coordinates": [
                    120.54,
                    18.1203
                ]
            },
            "properties": {
                "name": "Paoay Lake National Park",
                "article": null
            }
        },
        {
            "type": "Feature",
            "geometry": {
                "type": "Point",
                "coordinates": [
                    120.98,
                    17.146666666
                ]
            },
            "properties": {
                "name": "Patoc",
                "article": "https://en.wikipedia.org/wiki/Mount_Patoc"
            }
        },
        {
            "type": "Feature",
            "geometry": {
                "type": "Point",
                "coordinates": [
                    122.285833333,
                    12.523611111
                ]
            },
            "properties": {
                "name": "Romblon Island",
                "article": "https://en.wikipedia.org/wiki/Romblon_Island"
            }
        },
        {
            "type": "Feature",
            "geometry": {
                "type": "Point",
                "coordinates": [
                    123.635,
                    12.02
                ]
            },
            "properties": {
                "name": "Peña Island",
                "article": null
            }
        },
        {
            "type": "Feature",
            "geometry": {
                "type": "Point",
                "coordinates": [
                    118.48333333,
                    4.53333333
                ]
            },
            "properties": {
                "name": "Pababag Island",
                "article": "https://en.wikipedia.org/wiki/Pababag_Island"
            }
        },
        {
            "type": "Feature",
            "geometry": {
                "type": "Point",
                "coordinates": [
                    119.79306,
                    5.035
                ]
            },
            "properties": {
                "name": "Pababag Island",
                "article": "https://en.wikipedia.org/wiki/Pababag_Island"
            }
        },
        {
            "type": "Feature",
            "geometry": {
                "type": "Point",
                "coordinates": [
                    123.63778,
                    13.93861
                ]
            },
            "properties": {
                "name": "Quinalasag Island",
                "article": null
            }
        },
        {
            "type": "Feature",
            "geometry": {
                "type": "Point",
                "coordinates": [
                    123.6377778,
                    13.9386111
                ]
            },
            "properties": {
                "name": "Quinalasag Island",
                "article": null
            }
        },
        {
            "type": "Feature",
            "geometry": {
                "type": "Point",
                "coordinates": [
                    121.021111111,
                    14.561666666
                ]
            },
            "properties": {
                "name": "The World Centre",
                "article": "https://en.wikipedia.org/wiki/The_World_Centre"
            }
        },
        {
            "type": "Feature",
            "geometry": {
                "type": "Point",
                "coordinates": [
                    123.566666666,
                    9.3
                ]
            },
            "properties": {
                "name": "Q2208167",
                "article": null
            }
        },
        {
            "type": "Feature",
            "geometry": {
                "type": "Point",
                "coordinates": [
                    124.2649444,
                    11.7675
                ]
            },
            "properties": {
                "name": "Sambawan",
                "article": null
            }
        },
        {
            "type": "Feature",
            "geometry": {
                "type": "Point",
                "coordinates": [
                    121.011383,
                    14.559692
                ]
            },
            "properties": {
                "name": "Exportbank Plaza",
                "article": "https://en.wikipedia.org/wiki/Exportbank_Plaza"
            }
        },
        {
            "type": "Feature",
            "geometry": {
                "type": "Point",
                "coordinates": [
                    119.9138889,
                    15.5183333
                ]
            },
            "properties": {
                "name": "Q2220008",
                "article": null
            }
        },
        {
            "type": "Feature",
            "geometry": {
                "type": "Point",
                "coordinates": [
                    114.283333333,
                    11.052222222
                ]
            },
            "properties": {
                "name": "Pag-asa Island",
                "article": "https://en.wikipedia.org/wiki/Thitu_Island"
            }
        },
        {
            "type": "Feature",
            "geometry": {
                "type": "Point",
                "coordinates": [
                    124.701388888,
                    6.215277777
                ]
            },
            "properties": {
                "name": "Lake Sebu",
                "article": "https://en.wikipedia.org/wiki/Lake_Sebu"
            }
        },
        {
            "type": "Feature",
            "geometry": {
                "type": "Point",
                "coordinates": [
                    126.05,
                    9.866666666
                ]
            },
            "properties": {
                "name": "Siargao",
                "article": "https://en.wikipedia.org/wiki/Siargao"
            }
        },
        {
            "type": "Feature",
            "geometry": {
                "type": "Point",
                "coordinates": [
                    123.435277777,
                    10.458888888
                ]
            },
            "properties": {
                "name": "Sipaway Island",
                "article": null
            }
        },
        {
            "type": "Feature",
            "geometry": {
                "type": "Point",
                "coordinates": [
                    121.912844444,
                    19.536622222
                ]
            },
            "properties": {
                "name": "Smith Volcano",
                "article": "https://en.wikipedia.org/wiki/Smith_Volcano"
            }
        },
        {
            "type": "Feature",
            "geometry": {
                "type": "Point",
                "coordinates": [
                    117.025277777,
                    8.100833333
                ]
            },
            "properties": {
                "name": "Ramos",
                "article": null
            }
        },
        {
            "type": "Feature",
            "geometry": {
                "type": "Point",
                "coordinates": [
                    124.33333333,
                    10.66666667
                ]
            },
            "properties": {
                "name": "Lake Danao",
                "article": "https://en.wikipedia.org/wiki/Lake_Danao_(Cebu)"
            }
        },
        {
            "type": "Feature",
            "geometry": {
                "type": "Point",
                "coordinates": [
                    124.694,
                    11.071
                ]
            },
            "properties": {
                "name": "Lake Danao",
                "article": "https://en.wikipedia.org/wiki/Lake_Danao_(Leyte)"
            }
        },
        {
            "type": "Feature",
            "geometry": {
                "type": "Point",
                "coordinates": [
                    120.685,
                    11.309
                ]
            },
            "properties": {
                "name": "Manamoc Island",
                "article": "https://en.wikipedia.org/wiki/Manamoc"
            }
        },
        {
            "type": "Feature",
            "geometry": {
                "type": "Point",
                "coordinates": [
                    120.5,
                    14.50595
                ]
            },
            "properties": {
                "name": "Mount Mariveles",
                "article": "https://en.wikipedia.org/wiki/Mount_Mariveles"
            }
        },
        {
            "type": "Feature",
            "geometry": {
                "type": "Point",
                "coordinates": [
                    124.333333333,
                    10.65
                ]
            },
            "properties": {
                "name": "Pacijan Island",
                "article": "https://en.wikipedia.org/wiki/Pacijan_Island"
            }
        },
        {
            "type": "Feature",
            "geometry": {
                "type": "Point",
                "coordinates": [
                    122.3789,
                    9.8729
                ]
            },
            "properties": {
                "name": "Danjugan Island",
                "article": "https://en.wikipedia.org/wiki/Danjugan_Island"
            }
        },
        {
            "type": "Feature",
            "geometry": {
                "type": "Point",
                "coordinates": [
                    122.3791667,
                    9.8744444
                ]
            },
            "properties": {
                "name": "Danjugan Island",
                "article": "https://en.wikipedia.org/wiki/Danjugan_Island"
            }
        },
        {
            "type": "Feature",
            "geometry": {
                "type": "Point",
                "coordinates": [
                    124.050277777,
                    7.790277777
                ]
            },
            "properties": {
                "name": "Lake Dapao",
                "article": "https://en.wikipedia.org/wiki/Lake_Dapao"
            }
        },
        {
            "type": "Feature",
            "geometry": {
                "type": "Point",
                "coordinates": [
                    120.8466,
                    16.8833
                ]
            },
            "properties": {
                "name": "Mount Data",
                "article": "https://en.wikipedia.org/wiki/Mount_Data"
            }
        },
        {
            "type": "Feature",
            "geometry": {
                "type": "Point",
                "coordinates": [
                    120.84666667,
                    16.88333333
                ]
            },
            "properties": {
                "name": "Mount Data",
                "article": "https://en.wikipedia.org/wiki/Mount_Data"
            }
        },
        {
            "type": "Feature",
            "geometry": {
                "type": "Point",
                "coordinates": [
                    121.92733889,
                    20.70566111
                ]
            },
            "properties": {
                "name": "Diogo Island",
                "article": "https://en.wikipedia.org/wiki/Diogo_Island"
            }
        },
        {
            "type": "Feature",
            "geometry": {
                "type": "Point",
                "coordinates": [
                    124.920833333,
                    8.115277777
                ]
            },
            "properties": {
                "name": "Mount Dulang-dulang",
                "article": "https://en.wikipedia.org/wiki/Mount_Dulang-dulang"
            }
        },
        {
            "type": "Feature",
            "geometry": {
                "type": "Point",
                "coordinates": [
                    124.668055555,
                    9.200555555
                ]
            },
            "properties": {
                "name": "Mount Hibok-Hibok",
                "article": "https://en.wikipedia.org/wiki/Mount_Hibok-Hibok"
            }
        },
        {
            "type": "Feature",
            "geometry": {
                "type": "Point",
                "coordinates": [
                    122.58333333,
                    10.56666667
                ]
            },
            "properties": {
                "name": "Guimaras",
                "article": null
            }
        },
        {
            "type": "Feature",
            "geometry": {
                "type": "Point",
                "coordinates": [
                    122.05,
                    14.116666666
                ]
            },
            "properties": {
                "name": "Alabat Island",
                "article": "https://en.wikipedia.org/wiki/Alabat_Island"
            }
        },
        {
            "type": "Feature",
            "geometry": {
                "type": "Point",
                "coordinates": [
                    122.516666666,
                    12.45
                ]
            },
            "properties": {
                "name": "Mount Nailog",
                "article": "https://en.wikipedia.org/wiki/Mount_Nailog"
            }
        },
        {
            "type": "Feature",
            "geometry": {
                "type": "Point",
                "coordinates": [
                    124.2525,
                    7.88
                ]
            },
            "properties": {
                "name": "Lake Lanao",
                "article": "https://en.wikipedia.org/wiki/Lake_Lanao"
            }
        },
        {
            "type": "Feature",
            "geometry": {
                "type": "Point",
                "coordinates": [
                    124.3052,
                    11.926
                ]
            },
            "properties": {
                "name": "Almagro Island",
                "article": null
            }
        },
        {
            "type": "Feature",
            "geometry": {
                "type": "Point",
                "coordinates": [
                    124.3072222,
                    11.9286111
                ]
            },
            "properties": {
                "name": "Almagro Island",
                "article": null
            }
        },
        {
            "type": "Feature",
            "geometry": {
                "type": "Point",
                "coordinates": [
                    125.475833333,
                    5.441944444
                ]
            },
            "properties": {
                "name": "Sarangani Island",
                "article": null
            }
        },
        {
            "type": "Feature",
            "geometry": {
                "type": "Point",
                "coordinates": [
                    122.136,
                    18.544
                ]
            },
            "properties": {
                "name": "Palaui Island",
                "article": "https://en.wikipedia.org/wiki/Palaui_Island_Protected_Landscape_and_Seascape"
            }
        },
        {
            "type": "Feature",
            "geometry": {
                "type": "Point",
                "coordinates": [
                    123.8058,
                    13.38044
                ]
            },
            "properties": {
                "name": "San Miguel Island",
                "article": "https://en.wikipedia.org/wiki/San_Miguel_Island_(Philippines)"
            }
        },
        {
            "type": "Feature",
            "geometry": {
                "type": "Point",
                "coordinates": [
                    121.90245,
                    20.90409167
                ]
            },
            "properties": {
                "name": "Siayan Island",
                "article": "https://en.wikipedia.org/wiki/Siayan_Island"
            }
        },
        {
            "type": "Feature",
            "geometry": {
                "type": "Point",
                "coordinates": [
                    120.75,
                    16.55
                ]
            },
            "properties": {
                "name": "Kabayan Mummies",
                "article": "https://en.wikipedia.org/wiki/Kabayan_Mummies"
            }
        },
        {
            "type": "Feature",
            "geometry": {
                "type": "Point",
                "coordinates": [
                    121.95,
                    20.416667
                ]
            },
            "properties": {
                "name": "Batan Island",
                "article": "https://en.wikipedia.org/wiki/Batan_Island"
            }
        },
        {
            "type": "Feature",
            "geometry": {
                "type": "Point",
                "coordinates": [
                    124.3233333,
                    11.7883333
                ]
            },
            "properties": {
                "name": "Maripipi Island",
                "article": null
            }
        },
        {
            "type": "Feature",
            "geometry": {
                "type": "Point",
                "coordinates": [
                    124.3236,
                    11.7868
                ]
            },
            "properties": {
                "name": "Maripipi Island",
                "article": null
            }
        },
        {
            "type": "Feature",
            "geometry": {
                "type": "Point",
                "coordinates": [
                    123.66765,
                    11.89054
                ]
            },
            "properties": {
                "name": "Naro Island",
                "article": null
            }
        },
        {
            "type": "Feature",
            "geometry": {
                "type": "Point",
                "coordinates": [
                    121.36562,
                    18.87218
                ]
            },
            "properties": {
                "name": "Fuga Island",
                "article": "https://en.wikipedia.org/wiki/Fuga_Island"
            }
        },
        {
            "type": "Feature",
            "geometry": {
                "type": "Point",
                "coordinates": [
                    124.45,
                    10.666666666
                ]
            },
            "properties": {
                "name": "Poro Island",
                "article": "https://en.wikipedia.org/wiki/Poro_Island"
            }
        },
        {
            "type": "Feature",
            "geometry": {
                "type": "Point",
                "coordinates": [
                    123.825555555,
                    13.933611111
                ]
            },
            "properties": {
                "name": "Lahuy Island",
                "article": null
            }
        },
        {
            "type": "Feature",
            "geometry": {
                "type": "Point",
                "coordinates": [
                    123.9883333,
                    10.208
                ]
            },
            "properties": {
                "name": "Gilutongan Island",
                "article": "https://en.wikipedia.org/wiki/Gilutongan_Island"
            }
        },
        {
            "type": "Feature",
            "geometry": {
                "type": "Point",
                "coordinates": [
                    123.608333333,
                    13.416111111
                ]
            },
            "properties": {
                "name": "Malinao Volcano",
                "article": "https://en.wikipedia.org/wiki/Malinao_Volcano"
            }
        },
        {
            "type": "Feature",
            "geometry": {
                "type": "Point",
                "coordinates": [
                    125.71666718,
                    9.10000038
                ]
            },
            "properties": {
                "name": "Mount Hilong-hilong",
                "article": null
            }
        },
        {
            "type": "Feature",
            "geometry": {
                "type": "Point",
                "coordinates": [
                    121.2,
                    14.13
                ]
            },
            "properties": {
                "name": "Mount Makiling",
                "article": "https://en.wikipedia.org/wiki/Mount_Makiling"
            }
        },
        {
            "type": "Feature",
            "geometry": {
                "type": "Point",
                "coordinates": [
                    120.98333333,
                    13.25
                ]
            },
            "properties": {
                "name": "Mount Halcon",
                "article": "https://en.wikipedia.org/wiki/Mount_Halcon"
            }
        },
        {
            "type": "Feature",
            "geometry": {
                "type": "Point",
                "coordinates": [
                    126.181666666,
                    6.74
                ]
            },
            "properties": {
                "name": "Mount Hamiguitan",
                "article": "https://en.wikipedia.org/wiki/Mount_Hamiguitan"
            }
        },
        {
            "type": "Feature",
            "geometry": {
                "type": "Point",
                "coordinates": [
                    124.316666666,
                    7.65
                ]
            },
            "properties": {
                "name": "Mount Makaturing",
                "article": "https://en.wikipedia.org/wiki/Mount_Makaturing"
            }
        },
        {
            "type": "Feature",
            "geometry": {
                "type": "Point",
                "coordinates": [
                    124.9125,
                    8.142777777
                ]
            },
            "properties": {
                "name": "Mount Kitanglad",
                "article": "https://en.wikipedia.org/wiki/Mount_Kitanglad"
            }
        },
        {
            "type": "Feature",
            "geometry": {
                "type": "Point",
                "coordinates": [
                    124.265,
                    11.570277777
                ]
            },
            "properties": {
                "name": "Higatangan Island",
                "article": null
            }
        },
        {
            "type": "Feature",
            "geometry": {
                "type": "Point",
                "coordinates": [
                    125.71666667,
                    10.73333333
                ]
            },
            "properties": {
                "name": "Homonhon",
                "article": "https://en.wikipedia.org/wiki/Homonhon"
            }
        },
        {
            "type": "Feature",
            "geometry": {
                "type": "Point",
                "coordinates": [
                    121.18659,
                    14.53274
                ]
            },
            "properties": {
                "name": "Angono Petroglyphs",
                "article": "https://en.wikipedia.org/wiki/Angono_Petroglyphs"
            }
        },
        {
            "type": "Feature",
            "geometry": {
                "type": "Point",
                "coordinates": [
                    120.893,
                    13.723
                ]
            },
            "properties": {
                "name": "Mount Panay",
                "article": "https://en.wikipedia.org/wiki/Mount_Panay"
            }
        },
        {
            "type": "Feature",
            "geometry": {
                "type": "Point",
                "coordinates": [
                    122.011666666,
                    20.466388888
                ]
            },
            "properties": {
                "name": "Mount Iraya",
                "article": "https://en.wikipedia.org/wiki/Mount_Iraya"
            }
        },
        {
            "type": "Feature",
            "geometry": {
                "type": "Point",
                "coordinates": [
                    123.456666666,
                    13.456666666
                ]
            },
            "properties": {
                "name": "Mount Iriga",
                "article": "https://en.wikipedia.org/wiki/Mount_Iriga"
            }
        },
        {
            "type": "Feature",
            "geometry": {
                "type": "Point",
                "coordinates": [
                    123.373333333,
                    13.659166666
                ]
            },
            "properties": {
                "name": "Mount Isarog",
                "article": "https://en.wikipedia.org/wiki/Mount_Isarog"
            }
        },
        {
            "type": "Feature",
            "geometry": {
                "type": "Point",
                "coordinates": [
                    124.116666666,
                    11.333333333
                ]
            },
            "properties": {
                "name": "Malapascua",
                "article": "https://en.wikipedia.org/wiki/Malapascua"
            }
        },
        {
            "type": "Feature",
            "geometry": {
                "type": "Point",
                "coordinates": [
                    121.83333333,
                    20.76666667
                ]
            },
            "properties": {
                "name": "Itbayat Island",
                "article": "https://en.wikipedia.org/wiki/Itbayat_Island"
            }
        },
        {
            "type": "Feature",
            "geometry": {
                "type": "Point",
                "coordinates": [
                    125.52,
                    9.59333333
                ]
            },
            "properties": {
                "name": "Paco",
                "article": "https://en.wikipedia.org/wiki/Paco_(volcano)"
            }
        },
        {
            "type": "Feature",
            "geometry": {
                "type": "Point",
                "coordinates": [
                    123.131944444,
                    10.411944444
                ]
            },
            "properties": {
                "name": "Kanlaon Volcano",
                "article": "https://en.wikipedia.org/wiki/Kanlaon"
            }
        },
        {
            "type": "Feature",
            "geometry": {
                "type": "Point",
                "coordinates": [
                    123.1418,
                    10.4318
                ]
            },
            "properties": {
                "name": "Kanlaon Volcano",
                "article": "https://en.wikipedia.org/wiki/Kanlaon"
            }
        },
        {
            "type": "Feature",
            "geometry": {
                "type": "Point",
                "coordinates": [
                    124.3688889,
                    11.9427778
                ]
            },
            "properties": {
                "name": "Kirikite Island",
                "article": null
            }
        },
        {
            "type": "Feature",
            "geometry": {
                "type": "Point",
                "coordinates": [
                    122.7875,
                    14.01333333
                ]
            },
            "properties": {
                "name": "Q1747522",
                "article": null
            }
        },
        {
            "type": "Feature",
            "geometry": {
                "type": "Point",
                "coordinates": [
                    117.051667,
                    8.163333
                ]
            },
            "properties": {
                "name": "Pandanan Shipwreck",
                "article": "https://en.wikipedia.org/wiki/Pandanan_shipwreck"
            }
        },
        {
            "type": "Feature",
            "geometry": {
                "type": "Point",
                "coordinates": [
                    124.6525,
                    11.9027778
                ]
            },
            "properties": {
                "name": "Libucan Daco Island",
                "article": null
            }
        },
        {
            "type": "Feature",
            "geometry": {
                "type": "Point",
                "coordinates": [
                    124.6492,
                    11.9036
                ]
            },
            "properties": {
                "name": "Libucan Daco Island",
                "article": null
            }
        },
        {
            "type": "Feature",
            "geometry": {
                "type": "Point",
                "coordinates": [
                    121.423055555,
                    14.062222222
                ]
            },
            "properties": {
                "name": "San Cristobal",
                "article": "https://en.wikipedia.org/wiki/Mount_San_Cristobal"
            }
        },
        {
            "type": "Feature",
            "geometry": {
                "type": "Point",
                "coordinates": [
                    123.20222222,
                    11.04
                ]
            },
            "properties": {
                "name": "Lakawon",
                "article": "https://en.wikipedia.org/wiki/Lakawon"
            }
        },
        {
            "type": "Feature",
            "geometry": {
                "type": "Point",
                "coordinates": [
                    124.5633333,
                    10.1133333
                ]
            },
            "properties": {
                "name": "Q1805770",
                "article": null
            }
        },
        {
            "type": "Feature",
            "geometry": {
                "type": "Point",
                "coordinates": [
                    126.046666666,
                    7.381666666
                ]
            },
            "properties": {
                "name": "Leonard Kniaseff",
                "article": "https://en.wikipedia.org/wiki/Leonard_Kniaseff"
            }
        },
        {
            "type": "Feature",
            "geometry": {
                "type": "Point",
                "coordinates": [
                    121.017783,
                    14.559497
                ]
            },
            "properties": {
                "name": "LKG Tower",
                "article": "https://en.wikipedia.org/wiki/LKG_Tower"
            }
        },
        {
            "type": "Feature",
            "geometry": {
                "type": "Point",
                "coordinates": [
                    122.58333333,
                    12.41666667
                ]
            },
            "properties": {
                "name": "Sibuyan",
                "article": "https://en.wikipedia.org/wiki/Sibuyan_Island"
            }
        },
        {
            "type": "Feature",
            "geometry": {
                "type": "Point",
                "coordinates": [
                    123.698055555,
                    12.529166666
                ]
            },
            "properties": {
                "name": "Ticao Island",
                "article": "https://en.wikipedia.org/wiki/Ticao_Island"
            }
        },
        {
            "type": "Feature",
            "geometry": {
                "type": "Point",
                "coordinates": [
                    125.6,
                    10.1
                ]
            },
            "properties": {
                "name": "Dinagat Island",
                "article": "https://en.wikipedia.org/wiki/Dinagat_Island"
            }
        },
        {
            "type": "Feature",
            "geometry": {
                "type": "Point",
                "coordinates": [
                    121.9208333,
                    20.93111111
                ]
            },
            "properties": {
                "name": "Mabudis Island",
                "article": null
            }
        },
        {
            "type": "Feature",
            "geometry": {
                "type": "Point",
                "coordinates": [
                    121.709722222,
                    12.926388888
                ]
            },
            "properties": {
                "name": "Maestre de Campo Island",
                "article": "https://en.wikipedia.org/wiki/Maestre_de_Campo_Island"
            }
        },
        {
            "type": "Feature",
            "geometry": {
                "type": "Point",
                "coordinates": [
                    124.859663888,
                    10.874444444
                ]
            },
            "properties": {
                "name": "Mahagnao Volcano",
                "article": "https://en.wikipedia.org/wiki/Mahagnao_Volcano"
            }
        },
        {
            "type": "Feature",
            "geometry": {
                "type": "Point",
                "coordinates": [
                    123.2086,
                    11.2409
                ]
            },
            "properties": {
                "name": "Malangabang Island",
                "article": null
            }
        },
        {
            "type": "Feature",
            "geometry": {
                "type": "Point",
                "coordinates": [
                    123.2108333,
                    11.2413889
                ]
            },
            "properties": {
                "name": "Malangabang Island",
                "article": null
            }
        },
        {
            "type": "Feature",
            "geometry": {
                "type": "Point",
                "coordinates": [
                    123.25,
                    10.65
                ]
            },
            "properties": {
                "name": "Mandalagan",
                "article": "https://en.wikipedia.org/wiki/Mandalagan"
            }
        },
        {
            "type": "Feature",
            "geometry": {
                "type": "Point",
                "coordinates": [
                    119.55,
                    10.766666666
                ]
            },
            "properties": {
                "name": "Lake Manguao",
                "article": "https://en.wikipedia.org/wiki/Lake_Manguao"
            }
        },
        {
            "type": "Feature",
            "geometry": {
                "type": "Point",
                "coordinates": [
                    121.6958333,
                    11.5994444
                ]
            },
            "properties": {
                "name": "Maniguin Island",
                "article": "https://en.wikipedia.org/wiki/Maniguin_Island"
            }
        },
        {
            "type": "Feature",
            "geometry": {
                "type": "Point",
                "coordinates": [
                    123.816666666,
                    9.6
                ]
            },
            "properties": {
                "name": "Panglao Island",
                "article": "https://en.wikipedia.org/wiki/Panglao_Island"
            }
        },
        {
            "type": "Feature",
            "geometry": {
                "type": "Point",
                "coordinates": [
                    125.108333333,
                    6.433333333
                ]
            },
            "properties": {
                "name": "Mount Matutum",
                "article": "https://en.wikipedia.org/wiki/Mount_Matutum"
            }
        },
        {
            "type": "Feature",
            "geometry": {
                "type": "Point",
                "coordinates": [
                    124.8883333,
                    6.1013889
                ]
            },
            "properties": {
                "name": "Lake Maughan",
                "article": null
            }
        },
        {
            "type": "Feature",
            "geometry": {
                "type": "Point",
                "coordinates": [
                    115.0,
                    11.083333333
                ]
            },
            "properties": {
                "name": "West York Island",
                "article": "https://en.wikipedia.org/wiki/West_York_Island"
            }
        },
        {
            "type": "Feature",
            "geometry": {
                "type": "Point",
                "coordinates": [
                    117.669722222,
                    8.818333333
                ]
            },
            "properties": {
                "name": "Mount Mantalingajan",
                "article": "https://en.wikipedia.org/wiki/Mount_Mantalingajan"
            }
        },
        {
            "type": "Feature",
            "geometry": {
                "type": "Point",
                "coordinates": [
                    120.4,
                    14.72
                ]
            },
            "properties": {
                "name": "Mount Natib",
                "article": "https://en.wikipedia.org/wiki/Mount_Natib"
            }
        },
        {
            "type": "Feature",
            "geometry": {
                "type": "Point",
                "coordinates": [
                    121.95372222,
                    19.52233333
                ]
            },
            "properties": {
                "name": "Babuyan Island",
                "article": "https://en.wikipedia.org/wiki/Babuyan_Island"
            }
        },
        {
            "type": "Feature",
            "geometry": {
                "type": "Point",
                "coordinates": [
                    123.44833333,
                    9.8225
                ]
            },
            "properties": {
                "name": "Osmeña Peak",
                "article": null
            }
        },
        {
            "type": "Feature",
            "geometry": {
                "type": "Point",
                "coordinates": [
                    121.053055555,
                    14.604722222
                ]
            },
            "properties": {
                "name": "Atlanta Centre",
                "article": "https://en.wikipedia.org/wiki/Atlanta_Centre"
            }
        },
        {
            "type": "Feature",
            "geometry": {
                "type": "Point",
                "coordinates": [
                    120.54,
                    18.1203
                ]
            },
            "properties": {
                "name": "Paoay Lake National Park",
                "article": null
            }
        },
        {
            "type": "Feature",
            "geometry": {
                "type": "Point",
                "coordinates": [
                    120.98,
                    17.146666666
                ]
            },
            "properties": {
                "name": "Patoc",
                "article": "https://en.wikipedia.org/wiki/Mount_Patoc"
            }
        },
        {
            "type": "Feature",
            "geometry": {
                "type": "Point",
                "coordinates": [
                    122.285833333,
                    12.523611111
                ]
            },
            "properties": {
                "name": "Romblon Island",
                "article": "https://en.wikipedia.org/wiki/Romblon_Island"
            }
        },
        {
            "type": "Feature",
            "geometry": {
                "type": "Point",
                "coordinates": [
                    123.635,
                    12.02
                ]
            },
            "properties": {
                "name": "Peña Island",
                "article": null
            }
        },
        {
            "type": "Feature",
            "geometry": {
                "type": "Point",
                "coordinates": [
                    118.48333333,
                    4.53333333
                ]
            },
            "properties": {
                "name": "Pababag Island",
                "article": "https://en.wikipedia.org/wiki/Pababag_Island"
            }
        },
        {
            "type": "Feature",
            "geometry": {
                "type": "Point",
                "coordinates": [
                    119.79306,
                    5.035
                ]
            },
            "properties": {
                "name": "Pababag Island",
                "article": "https://en.wikipedia.org/wiki/Pababag_Island"
            }
        },
        {
            "type": "Feature",
            "geometry": {
                "type": "Point",
                "coordinates": [
                    123.63778,
                    13.93861
                ]
            },
            "properties": {
                "name": "Quinalasag Island",
                "article": null
            }
        },
        {
            "type": "Feature",
            "geometry": {
                "type": "Point",
                "coordinates": [
                    123.6377778,
                    13.9386111
                ]
            },
            "properties": {
                "name": "Quinalasag Island",
                "article": null
            }
        },
        {
            "type": "Feature",
            "geometry": {
                "type": "Point",
                "coordinates": [
                    121.021111111,
                    14.561666666
                ]
            },
            "properties": {
                "name": "The World Centre",
                "article": "https://en.wikipedia.org/wiki/The_World_Centre"
            }
        },
        {
            "type": "Feature",
            "geometry": {
                "type": "Point",
                "coordinates": [
                    123.566666666,
                    9.3
                ]
            },
            "properties": {
                "name": "Q2208167",
                "article": null
            }
        },
        {
            "type": "Feature",
            "geometry": {
                "type": "Point",
                "coordinates": [
                    124.2649444,
                    11.7675
                ]
            },
            "properties": {
                "name": "Sambawan",
                "article": null
            }
        },
        {
            "type": "Feature",
            "geometry": {
                "type": "Point",
                "coordinates": [
                    121.011383,
                    14.559692
                ]
            },
            "properties": {
                "name": "Exportbank Plaza",
                "article": "https://en.wikipedia.org/wiki/Exportbank_Plaza"
            }
        },
        {
            "type": "Feature",
            "geometry": {
                "type": "Point",
                "coordinates": [
                    119.9138889,
                    15.5183333
                ]
            },
            "properties": {
                "name": "Q2220008",
                "article": null
            }
        },
        {
            "type": "Feature",
            "geometry": {
                "type": "Point",
                "coordinates": [
                    114.283333333,
                    11.052222222
                ]
            },
            "properties": {
                "name": "Pag-asa Island",
                "article": "https://en.wikipedia.org/wiki/Thitu_Island"
            }
        },
        {
            "type": "Feature",
            "geometry": {
                "type": "Point",
                "coordinates": [
                    124.701388888,
                    6.215277777
                ]
            },
            "properties": {
                "name": "Lake Sebu",
                "article": "https://en.wikipedia.org/wiki/Lake_Sebu"
            }
        },
        {
            "type": "Feature",
            "geometry": {
                "type": "Point",
                "coordinates": [
                    126.05,
                    9.866666666
                ]
            },
            "properties": {
                "name": "Siargao",
                "article": "https://en.wikipedia.org/wiki/Siargao"
            }
        },
        {
            "type": "Feature",
            "geometry": {
                "type": "Point",
                "coordinates": [
                    123.435277777,
                    10.458888888
                ]
            },
            "properties": {
                "name": "Sipaway Island",
                "article": null
            }
        },
        {
            "type": "Feature",
            "geometry": {
                "type": "Point",
                "coordinates": [
                    121.912844444,
                    19.536622222
                ]
            },
            "properties": {
                "name": "Smith Volcano",
                "article": "https://en.wikipedia.org/wiki/Smith_Volcano"
            }
        },
        {
            "type": "Feature",
            "geometry": {
                "type": "Point",
                "coordinates": [
                    117.025277777,
                    8.100833333
                ]
            },
            "properties": {
                "name": "Ramos",
                "article": null
            }
        },
        {
            "type": "Feature",
            "geometry": {
                "type": "Point",
                "coordinates": [
                    124.33333333,
                    13.95
                ]
            },
            "properties": {
                "name": "Panay Island",
                "article": "https://en.wikipedia.org/wiki/Panay_(Catanduanes)"
            }
        },
        {
            "type": "Feature",
            "geometry": {
                "type": "Point",
                "coordinates": [
                    125.803,
                    10.984
                ]
            },
            "properties": {
                "name": "Calicoan Island",
                "article": "https://en.wikipedia.org/wiki/Calicoan_Island"
            }
        },
        {
            "type": "Feature",
            "geometry": {
                "type": "Point",
                "coordinates": [
                    123.389722222,
                    9.431944444
                ]
            },
            "properties": {
                "name": "Sumilon",
                "article": null
            }
        },
        {
            "type": "Feature",
            "geometry": {
                "type": "Point",
                "coordinates": [
                    124.19051,
                    12.06435
                ]
            },
            "properties": {
                "name": "Tagapul-an Island",
                "article": null
            }
        },
        {
            "type": "Feature",
            "geometry": {
                "type": "Point",
                "coordinates": [
                    124.1947222,
                    12.0636111
                ]
            },
            "properties": {
                "name": "Tagapul-an Island",
                "article": null
            }
        },
        {
            "type": "Feature",
            "geometry": {
                "type": "Point",
                "coordinates": [
                    123.13417,
                    11.24194
                ]
            },
            "properties": {
                "name": "Tago Island",
                "article": "https://en.wikipedia.org/wiki/Tago_Island"
            }
        },
        {
            "type": "Feature",
            "geometry": {
                "type": "Point",
                "coordinates": [
                    123.1341667,
                    11.2419444
                ]
            },
            "properties": {
                "name": "Tago Island",
                "article": "https://en.wikipedia.org/wiki/Tago_Island"
            }
        },
        {
            "type": "Feature",
            "geometry": {
                "type": "Point",
                "coordinates": [
                    120.1166,
                    15.4833
                ]
            },
            "properties": {
                "name": "Mount Tapulao",
                "article": "https://en.wikipedia.org/wiki/Mount_Tapulao"
            }
        },
        {
            "type": "Feature",
            "geometry": {
                "type": "Point",
                "coordinates": [
                    121.016666666,
                    10.85
                ]
            },
            "properties": {
                "name": "Q2397545",
                "article": null
            }
        },
        {
            "type": "Feature",
            "geometry": {
                "type": "Point",
                "coordinates": [
                    121.04,
                    10.846
                ]
            },
            "properties": {
                "name": "Q2397545",
                "article": null
            }
        },
        {
            "type": "Feature",
            "geometry": {
                "type": "Point",
                "coordinates": [
                    121.083333333,
                    13.55
                ]
            },
            "properties": {
                "name": "Verde Island",
                "article": "https://en.wikipedia.org/wiki/Verde_Island"
            }
        },
        {
            "type": "Feature",
            "geometry": {
                "type": "Point",
                "coordinates": [
                    125.696,
                    11.045
                ]
            },
            "properties": {
                "name": "Tubabao Island",
                "article": "https://en.wikipedia.org/wiki/Tubabao"
            }
        },
        {
            "type": "Feature",
            "geometry": {
                "type": "Point",
                "coordinates": [
                    120.96666667,
                    14.58333333
                ]
            },
            "properties": {
                "name": "Battle of Manila",
                "article": "https://en.wikipedia.org/wiki/Battle_of_Manila_(1762)"
            }
        },
        {
            "type": "Feature",
            "geometry": {
                "type": "Point",
                "coordinates": [
                    121.12934,
                    17.01185
                ]
            },
            "properties": {
                "name": "Mount Amuyao",
                "article": null
            }
        },
        {
            "type": "Feature",
            "geometry": {
                "type": "Point",
                "coordinates": [
                    119.829166666,
                    11.444166666
                ]
            },
            "properties": {
                "name": "Linapacan Island",
                "article": null
            }
        },
        {
            "type": "Feature",
            "geometry": {
                "type": "Point",
                "coordinates": [
                    121.95,
                    14.833333
                ]
            },
            "properties": {
                "name": "Polillo",
                "article": "https://en.wikipedia.org/wiki/Polillo_Island"
            }
        },
        {
            "type": "Feature",
            "geometry": {
                "type": "Point",
                "coordinates": [
                    119.866669444,
                    10.533330555
                ]
            },
            "properties": {
                "name": "Dumaran Island",
                "article": "https://en.wikipedia.org/wiki/Dumaran_Island"
            }
        },
        {
            "type": "Feature",
            "geometry": {
                "type": "Point",
                "coordinates": [
                    124.53333333,
                    10.76666667
                ]
            },
            "properties": {
                "name": "Ponson Island",
                "article": "https://en.wikipedia.org/wiki/Ponson_Island"
            }
        },
        {
            "type": "Feature",
            "geometry": {
                "type": "Point",
                "coordinates": [
                    123.25833333,
                    11.44166667
                ]
            },
            "properties": {
                "name": "Sicogon Island",
                "article": "https://en.wikipedia.org/wiki/Sicogon"
            }
        },
        {
            "type": "Feature",
            "geometry": {
                "type": "Point",
                "coordinates": [
                    122.186667,
                    11.418833
                ]
            },
            "properties": {
                "name": "Q2864580",
                "article": null
            }
        },
        {
            "type": "Feature",
            "geometry": {
                "type": "Point",
                "coordinates": [
                    120.96666667,
                    14.65
                ]
            },
            "properties": {
                "name": "Battle of Caloocan",
                "article": "https://en.wikipedia.org/wiki/Battle_of_Caloocan"
            }
        },
        {
            "type": "Feature",
            "geometry": {
                "type": "Point",
                "coordinates": [
                    120.966667,
                    14.65
                ]
            },
            "properties": {
                "name": "Battle of Caloocan",
                "article": "https://en.wikipedia.org/wiki/Battle_of_Caloocan"
            }
        },
        {
            "type": "Feature",
            "geometry": {
                "type": "Point",
                "coordinates": [
                    120.75,
                    14.53333333
                ]
            },
            "properties": {
                "name": "Battle of Puerto de Cavite",
                "article": "https://en.wikipedia.org/wiki/Battle_of_Puerto_de_Cavite"
            }
        },
        {
            "type": "Feature",
            "geometry": {
                "type": "Point",
                "coordinates": [
                    119.155,
                    10.57027778
                ]
            },
            "properties": {
                "name": "Boayan Island",
                "article": "https://en.wikipedia.org/wiki/Boayan_Island"
            }
        },
        {
            "type": "Feature",
            "geometry": {
                "type": "Point",
                "coordinates": [
                    124.75,
                    10.25
                ]
            },
            "properties": {
                "name": "Canigao Island",
                "article": "https://en.wikipedia.org/wiki/Canigao_Island"
            }
        },
        {
            "type": "Feature",
            "geometry": {
                "type": "Point",
                "coordinates": [
                    121.063611,
                    14.583553
                ]
            },
            "properties": {
                "name": "One Corporate Centre",
                "article": "https://en.wikipedia.org/wiki/One_Corporate_Centre"
            }
        },
        {
            "type": "Feature",
            "geometry": {
                "type": "Point",
                "coordinates": [
                    119.9,
                    12.3
                ]
            },
            "properties": {
                "name": "Calauit Island",
                "article": "https://en.wikipedia.org/wiki/Calauit_Island"
            }
        },
        {
            "type": "Feature",
            "geometry": {
                "type": "Point",
                "coordinates": [
                    121.025717,
                    14.561678
                ]
            },
            "properties": {
                "name": "Petron Megaplaza",
                "article": "https://en.wikipedia.org/wiki/Petron_Megaplaza"
            }
        },
        {
            "type": "Feature",
            "geometry": {
                "type": "Point",
                "coordinates": [
                    121.021,
                    14.5563
                ]
            },
            "properties": {
                "name": "The Enterprise Center Tower 1",
                "article": "https://en.wikipedia.org/wiki/The_Enterprise_Center"
            }
        },
        {
            "type": "Feature",
            "geometry": {
                "type": "Point",
                "coordinates": [
                    122.03,
                    12.4
                ]
            },
            "properties": {
                "name": "Tablas",
                "article": "https://en.wikipedia.org/wiki/Tablas_Island"
            }
        },
        {
            "type": "Feature",
            "geometry": {
                "type": "Point",
                "coordinates": [
                    121.021975,
                    14.557325
                ]
            },
            "properties": {
                "name": "Philamlife Tower",
                "article": "https://en.wikipedia.org/wiki/AIA_Tower_(Makati)"
            }
        },
        {
            "type": "Feature",
            "geometry": {
                "type": "Point",
                "coordinates": [
                    124.535,
                    11.523
                ]
            },
            "properties": {
                "name": "Q3503188",
                "article": null
            }
        },
        {
            "type": "Feature",
            "geometry": {
                "type": "Point",
                "coordinates": [
                    121.057728,
                    14.5781
                ]
            },
            "properties": {
                "name": "One San Miguel Avenue",
                "article": "https://en.wikipedia.org/wiki/One_San_Miguel_Avenue"
            }
        },
        {
            "type": "Feature",
            "geometry": {
                "type": "Point",
                "coordinates": [
                    120.991675,
                    14.570219444
                ]
            },
            "properties": {
                "name": "Quirino station",
                "article": "https://en.wikipedia.org/wiki/Quirino_station_(LRT)"
            }
        },
        {
            "type": "Feature",
            "geometry": {
                "type": "Point",
                "coordinates": [
                    121.000683333,
                    14.538825
                ]
            },
            "properties": {
                "name": "EDSA station",
                "article": "https://en.wikipedia.org/wiki/EDSA_station_(LRT)"
            }
        },
        {
            "type": "Feature",
            "geometry": {
                "type": "Point",
                "coordinates": [
                    123.89901389,
                    10.29674444
                ]
            },
            "properties": {
                "name": "Colon Street",
                "article": "https://en.wikipedia.org/wiki/Colon_Street"
            }
        },
        {
            "type": "Feature",
            "geometry": {
                "type": "Point",
                "coordinates": [
                    120.982758333,
                    14.616794444
                ]
            },
            "properties": {
                "name": "Tayuman LRT Station",
                "article": "https://en.wikipedia.org/wiki/Tayuman_station_(LRT)"
            }
        },
        {
            "type": "Feature",
            "geometry": {
                "type": "Point",
                "coordinates": [
                    121.042730555,
                    14.618572222
                ]
            },
            "properties": {
                "name": "Betty Go-Belmonte Station",
                "article": "https://en.wikipedia.org/wiki/Betty_Go-Belmonte_station"
            }
        },
        {
            "type": "Feature",
            "geometry": {
                "type": "Point",
                "coordinates": [
                    120.992691666,
                    14.60085
                ]
            },
            "properties": {
                "name": "Legarda Station",
                "article": "https://en.wikipedia.org/wiki/Legarda_station"
            }
        },
        {
            "type": "Feature",
            "geometry": {
                "type": "Point",
                "coordinates": [
                    121.005194444,
                    14.601666666
                ]
            },
            "properties": {
                "name": "Pureza Station",
                "article": "https://en.wikipedia.org/wiki/Pureza_station"
            }
        },
        {
            "type": "Feature",
            "geometry": {
                "type": "Point",
                "coordinates": [
                    121.072958333,
                    14.631097222
                ]
            },
            "properties": {
                "name": "Katipunan station",
                "article": "https://en.wikipedia.org/wiki/Katipunan_station"
            }
        },
        {
            "type": "Feature",
            "geometry": {
                "type": "Point",
                "coordinates": [
                    120.983402777,
                    14.603497222
                ]
            },
            "properties": {
                "name": "Recto Station",
                "article": "https://en.wikipedia.org/wiki/Recto_station"
            }
        },
        {
            "type": "Feature",
            "geometry": {
                "type": "Point",
                "coordinates": [
                    121.026111111,
                    14.610555555
                ]
            },
            "properties": {
                "name": "J. Ruiz Station",
                "article": "https://en.wikipedia.org/wiki/J._Ruiz_station"
            }
        },
        {
            "type": "Feature",
            "geometry": {
                "type": "Point",
                "coordinates": [
                    121.01712,
                    14.60409
                ]
            },
            "properties": {
                "name": "V. Mapa Station",
                "article": "https://en.wikipedia.org/wiki/V._Mapa_station"
            }
        },
        {
            "type": "Feature",
            "geometry": {
                "type": "Point",
                "coordinates": [
                    120.982936111,
                    14.622791666
                ]
            },
            "properties": {
                "name": "Blumentritt station",
                "article": "https://en.wikipedia.org/wiki/Blumentritt_station_(LRT)"
            }
        },
        {
            "type": "Feature",
            "geometry": {
                "type": "Point",
                "coordinates": [
                    121.063,
                    14.5871
                ]
            },
            "properties": {
                "name": "UnionBank Plaza",
                "article": "https://en.wikipedia.org/wiki/UnionBank_Plaza"
            }
        },
        {
            "type": "Feature",
            "geometry": {
                "type": "Point",
                "coordinates": [
                    121.019233333,
                    14.541786111
                ]
            },
            "properties": {
                "name": "Magallanes Station",
                "article": "https://en.wikipedia.org/wiki/Magallanes_station"
            }
        },
        {
            "type": "Feature",
            "geometry": {
                "type": "Point",
                "coordinates": [
                    120.981397222,
                    14.630641666
                ]
            },
            "properties": {
                "name": "Abad Santos LRT Station",
                "article": "https://en.wikipedia.org/wiki/Abad_Santos_station"
            }
        },
        {
            "type": "Feature",
            "geometry": {
                "type": "Point",
                "coordinates": [
                    120.729166666,
                    11.355833333
                ]
            },
            "properties": {
                "name": "Pamalican Island",
                "article": "https://en.wikipedia.org/wiki/Pamalican"
            }
        },
        {
            "type": "Feature",
            "geometry": {
                "type": "Point",
                "coordinates": [
                    120.0202778,
                    11.88888889
                ]
            },
            "properties": {
                "name": "Q3699250",
                "article": null
            }
        },
        {
            "type": "Feature",
            "geometry": {
                "type": "Point",
                "coordinates": [
                    120.984661111,
                    14.582491666
                ]
            },
            "properties": {
                "name": "United Nations station",
                "article": "https://en.wikipedia.org/wiki/United_Nations_station_(LRT)"
            }
        },
        {
            "type": "Feature",
            "geometry": {
                "type": "Point",
                "coordinates": [
                    121.027672222,
                    14.548941666
                ]
            },
            "properties": {
                "name": "Ayala Station",
                "article": "https://en.wikipedia.org/wiki/Ayala_station"
            }
        },
        {
            "type": "Feature",
            "geometry": {
                "type": "Point",
                "coordinates": [
                    121.001405555,
                    14.537516666
                ]
            },
            "properties": {
                "name": "Taft Avenue Station",
                "article": "https://en.wikipedia.org/wiki/Taft_Avenue_station"
            }
        },
        {
            "type": "Feature",
            "geometry": {
                "type": "Point",
                "coordinates": [
                    120.994680555,
                    14.563475
                ]
            },
            "properties": {
                "name": "Vito Cruz station",
                "article": "https://en.wikipedia.org/wiki/Vito_Cruz_station_(LRT)"
            }
        },
        {
            "type": "Feature",
            "geometry": {
                "type": "Point",
                "coordinates": [
                    120.987991666,
                    14.576630555
                ]
            },
            "properties": {
                "name": "Pedro Gil LRT Station",
                "article": "https://en.wikipedia.org/wiki/Pedro_Gil_station"
            }
        },
        {
            "type": "Feature",
            "geometry": {
                "type": "Point",
                "coordinates": [
                    121.05666667,
                    6.01333333
                ]
            },
            "properties": {
                "name": "Bud Dajo",
                "article": "https://en.wikipedia.org/wiki/Bud_Dajo"
            }
        },
        {
            "type": "Feature",
            "geometry": {
                "type": "Point",
                "coordinates": [
                    120.996,
                    14.0093
                ]
            },
            "properties": {
                "name": "Vulcan Point",
                "article": null
            }
        },
        {
            "type": "Feature",
            "geometry": {
                "type": "Point",
                "coordinates": [
                    124.656,
                    9.25833
                ]
            },
            "properties": {
                "name": "White Island",
                "article": "https://en.wikipedia.org/wiki/White_Island_(Philippines)"
            }
        },