{
    "type": "FeatureCollection",
    "features": [
        {
            "type": "Feature",
            "geometry": {
                "type": "Point",
                "coordinates": [
                    20.28828,
                    42.65913
                ]
            },
            "properties": {
                "name": "Peja",
                "article": "https://en.wikipedia.org/wiki/Peja"
            }
        },
        {
            "type": "Feature",
            "geometry": {
                "type": "Point",
                "coordinates": [
                    20.4539,
                    44.7936
                ]
            },
            "properties": {
                "name": "Belgrade Centre railway station",
                "article": "https://en.wikipedia.org/wiki/Belgrade_Centre_Railway_Station"
            }
        },
        {
            "type": "Feature",
            "geometry": {
                "type": "Point",
                "coordinates": [
                    21.67,
                    42.952
                ]
            },
            "properties": {
                "name": "Justiniana Prima",
                "article": "https://en.wikipedia.org/wiki/Justiniana_Prima"
            }
        },
        {
            "type": "Feature",
            "geometry": {
                "type": "Point",
                "coordinates": [
                    22.633333333,
                    43.266666666
                ]
            },
            "properties": {
                "name": "Zavoj Lake",
                "article": "https://en.wikipedia.org/wiki/Zavoj_Lake"
            }
        },
        {
            "type": "Feature",
            "geometry": {
                "type": "Point",
                "coordinates": [
                    20.866666666,
                    42.883333333
                ]
            },
            "properties": {
                "name": "Mitrovica",
                "article": "https://en.wikipedia.org/wiki/Mitrovica,_Kosovo"
            }
        },
        {
            "type": "Feature",
            "geometry": {
                "type": "Point",
                "coordinates": [
                    20.74,
                    42.23
                ]
            },
            "properties": {
                "name": "Prizren",
                "article": "https://en.wikipedia.org/wiki/Prizren"
            }
        },
        {
            "type": "Feature",
            "geometry": {
                "type": "Point",
                "coordinates": [
                    22.575555555,
                    42.862777777
                ]
            },
            "properties": {
                "name": "Ruy Mountain",
                "article": "https://en.wikipedia.org/wiki/Ruy_(mountain)"
            }
        },
        {
            "type": "Feature",
            "geometry": {
                "type": "Point",
                "coordinates": [
                    20.683333333,
                    42.916666666
                ]
            },
            "properties": {
                "name": "Zubin Potok",
                "article": "https://en.wikipedia.org/wiki/Zubin_Potok"
            }
        },
        {
            "type": "Feature",
            "geometry": {
                "type": "Point",
                "coordinates": [
                    19.588333333,
                    45.356388888
                ]
            },
            "properties": {
                "name": "Bački Petrovac",
                "article": "https://en.wikipedia.org/wiki/Ba%C4%8Dki_Petrovac"
            }
        },
        {
            "type": "Feature",
            "geometry": {
                "type": "Point",
                "coordinates": [
                    21.25944,
                    42.23194
                ]
            },
            "properties": {
                "name": "Kaçanik",
                "article": "https://en.wikipedia.org/wiki/Ka%C3%A7anik"
            }
        },
        {
            "type": "Feature",
            "geometry": {
                "type": "Point",
                "coordinates": [
                    20.411388888,
                    45.293888888
                ]
            },
            "properties": {
                "name": "Belo jezero",
                "article": null
            }
        },
        {
            "type": "Feature",
            "geometry": {
                "type": "Point",
                "coordinates": [
                    20.4125,
                    45.294444444
                ]
            },
            "properties": {
                "name": "Belo jezero",
                "article": null
            }
        },
        {
            "type": "Feature",
            "geometry": {
                "type": "Point",
                "coordinates": [
                    20.7825,
                    42.971388888
                ]
            },
            "properties": {
                "name": "Banjska Monastery",
                "article": "https://en.wikipedia.org/wiki/Banjska_Monastery"
            }
        },
        {
            "type": "Feature",
            "geometry": {
                "type": "Point",
                "coordinates": [
                    20.4052,
                    44.8288
                ]
            },
            "properties": {
                "name": "Q288199",
                "article": null
            }
        },
        {
            "type": "Feature",
            "geometry": {
                "type": "Point",
                "coordinates": [
                    19.42748429,
                    43.95043615
                ]
            },
            "properties": {
                "name": "Mramorje",
                "article": "https://en.wikipedia.org/wiki/Mramorje"
            }
        },
        {
            "type": "Feature",
            "geometry": {
                "type": "Point",
                "coordinates": [
                    20.2397,
                    45.2472
                ]
            },
            "properties": {
                "name": "Titelski Breg",
                "article": "https://en.wikipedia.org/wiki/Titelski_Breg"
            }
        },
        {
            "type": "Feature",
            "geometry": {
                "type": "Point",
                "coordinates": [
                    20.079166666,
                    45.049166666
                ]
            },
            "properties": {
                "name": "Inđija",
                "article": "https://en.wikipedia.org/wiki/In%C4%91ija"
            }
        },
        {
            "type": "Feature",
            "geometry": {
                "type": "Point",
                "coordinates": [
                    20.459166666,
                    45.824444444
                ]
            },
            "properties": {
                "name": "Kikinda",
                "article": "https://en.wikipedia.org/wiki/Kikinda"
            }
        },
        {
            "type": "Feature",
            "geometry": {
                "type": "Point",
                "coordinates": [
                    19.716666666,
                    43.75
                ]
            },
            "properties": {
                "name": "Čajetina",
                "article": "https://en.wikipedia.org/wiki/%C4%8Cajetina"
            }
        },
        {
            "type": "Feature",
            "geometry": {
                "type": "Point",
                "coordinates": [
                    19.820277777,
                    43.466666666
                ]
            },
            "properties": {
                "name": "Nova Varoš",
                "article": "https://en.wikipedia.org/wiki/Nova_Varo%C5%A1"
            }
        },
        {
            "type": "Feature",
            "geometry": {
                "type": "Point",
                "coordinates": [
                    20.485111,
                    44.815517
                ]
            },
            "properties": {
                "name": "Hall Aleksandar Nikolić",
                "article": "https://en.wikipedia.org/wiki/Aleksandar_Nikoli%C4%87_Hall"
            }
        },
        {
            "type": "Feature",
            "geometry": {
                "type": "Point",
                "coordinates": [
                    20.804111,
                    42.250406
                ]
            },
            "properties": {
                "name": "Hermitage of St. Peter Koriški",
                "article": "https://en.wikipedia.org/wiki/Hermitage_of_St._Peter_of_Kori%C5%A1a"
            }
        },
        {
            "type": "Feature",
            "geometry": {
                "type": "Point",
                "coordinates": [
                    22.08388889,
                    43.96166667
                ]
            },
            "properties": {
                "name": "Šarbanovac",
                "article": "https://en.wikipedia.org/wiki/%C5%A0arbanovac_(Bor)"
            }
        },
        {
            "type": "Feature",
            "geometry": {
                "type": "Point",
                "coordinates": [
                    21.89805556,
                    43.77361111
                ]
            },
            "properties": {
                "name": "Šiljak",
                "article": null
            }
        },
        {
            "type": "Feature",
            "geometry": {
                "type": "Point",
                "coordinates": [
                    21.02722,
                    42.23944
                ]
            },
            "properties": {
                "name": "Štrpce",
                "article": "https://en.wikipedia.org/wiki/%C5%A0trpce"
            }
        },
        {
            "type": "Feature",
            "geometry": {
                "type": "Point",
                "coordinates": [
                    20.549722222,
                    45.485
                ]
            },
            "properties": {
                "name": "Žitište",
                "article": "https://en.wikipedia.org/wiki/%C5%BDiti%C5%A1te"
            }
        },
        {
            "type": "Feature",
            "geometry": {
                "type": "Point",
                "coordinates": [
                    20.466667,
                    44.816667
                ]
            },
            "properties": {
                "name": "bombing of Belgrade in World War II",
                "article": "https://en.wikipedia.org/wiki/German_bombing_of_Belgrade"
            }
        },
        {
            "type": "Feature",
            "geometry": {
                "type": "Point",
                "coordinates": [
                    22.54439,
                    44.65372
                ]
            },
            "properties": {
                "name": "Diana Fortress",
                "article": "https://en.wikipedia.org/wiki/Diana_Fort"
            }
        },
        {
            "type": "Feature",
            "geometry": {
                "type": "Point",
                "coordinates": [
                    20.098055555,
                    45.926111111
                ]
            },
            "properties": {
                "name": "Battle of Zenta",
                "article": "https://en.wikipedia.org/wiki/Battle_of_Zenta"
            }
        },
        {
            "type": "Feature",
            "geometry": {
                "type": "Point",
                "coordinates": [
                    21.41722,
                    44.8975
                ]
            },
            "properties": {
                "name": "Bela Crkva",
                "article": "https://en.wikipedia.org/wiki/Bela_Crkva"
            }
        },
        {
            "type": "Feature",
            "geometry": {
                "type": "Point",
                "coordinates": [
                    19.635,
                    45.808888888
                ]
            },
            "properties": {
                "name": "Bačka Topola",
                "article": "https://en.wikipedia.org/wiki/Ba%C4%8Dka_Topola"
            }
        },
        {
            "type": "Feature",
            "geometry": {
                "type": "Point",
                "coordinates": [
                    21.077777777,
                    42.69
                ]
            },
            "properties": {
                "name": "Obiliq",
                "article": "https://en.wikipedia.org/wiki/Obiliq"
            }
        },
        {
            "type": "Feature",
            "geometry": {
                "type": "Point",
                "coordinates": [
                    21.41666667,
                    42.615
                ]
            },
            "properties": {
                "name": "Novo Brdo Fortress",
                "article": "https://en.wikipedia.org/wiki/Novo_Brdo_Fortress"
            }
        },
        {
            "type": "Feature",
            "geometry": {
                "type": "Point",
                "coordinates": [
                    22.47694444,
                    43.19388889
                ]
            },
            "properties": {
                "name": "Belava",
                "article": "https://en.wikipedia.org/wiki/Belava"
            }
        },
        {
            "type": "Feature",
            "geometry": {
                "type": "Point",
                "coordinates": [
                    20.262777777,
                    44.382222222
                ]
            },
            "properties": {
                "name": "Battle of Kolubara",
                "article": "https://en.wikipedia.org/wiki/Battle_of_Kolubara"
            }
        },
        {
            "type": "Feature",
            "geometry": {
                "type": "Point",
                "coordinates": [
                    19.8625,
                    45.2525
                ]
            },
            "properties": {
                "name": "Battle of Petrovaradin",
                "article": "https://en.wikipedia.org/wiki/Battle_of_Petrovaradin"
            }
        },
        {
            "type": "Feature",
            "geometry": {
                "type": "Point",
                "coordinates": [
                    21.4347,
                    43.9736
                ]
            },
            "properties": {
                "name": "Battle of Ivankovac",
                "article": "https://en.wikipedia.org/wiki/Battle_of_Ivankovac"
            }
        },
        {
            "type": "Feature",
            "geometry": {
                "type": "Point",
                "coordinates": [
                    19.528055555,
                    44.554444444
                ]
            },
            "properties": {
                "name": "Battle of Cer, Serbia",
                "article": "https://en.wikipedia.org/wiki/Battle_of_Cer"
            }
        },
        {
            "type": "Feature",
            "geometry": {
                "type": "Point",
                "coordinates": [
                    20.25,
                    44.366666666
                ]
            },
            "properties": {
                "name": "Lazarevac",
                "article": "https://en.wikipedia.org/wiki/Lazarevac"
            }
        },
        {
            "type": "Feature",
            "geometry": {
                "type": "Point",
                "coordinates": [
                    20.455953333,
                    44.021151666
                ]
            },
            "properties": {
                "name": "Gornji Milanovac",
                "article": "https://en.wikipedia.org/wiki/Gornji_Milanovac"
            }
        },
        {
            "type": "Feature",
            "geometry": {
                "type": "Point",
                "coordinates": [
                    22.2675,
                    42.6267
                ]
            },
            "properties": {
                "name": "Vardenik",
                "article": "https://en.wikipedia.org/wiki/Vardenik_(mountain)"
            }
        },
        {
            "type": "Feature",
            "geometry": {
                "type": "Point",
                "coordinates": [
                    21.155,
                    42.37
                ]
            },
            "properties": {
                "name": "Ferizaj",
                "article": "https://en.wikipedia.org/wiki/Ferizaj"
            }
        },
        {
            "type": "Feature",
            "geometry": {
                "type": "Point",
                "coordinates": [
                    19.758611111,
                    46.103055555
                ]
            },
            "properties": {
                "name": "Palić",
                "article": "https://en.wikipedia.org/wiki/Pali%C4%87"
            }
        },
        {
            "type": "Feature",
            "geometry": {
                "type": "Point",
                "coordinates": [
                    22.783333333,
                    43.016666666
                ]
            },
            "properties": {
                "name": "Dimitrovgrad",
                "article": "https://en.wikipedia.org/wiki/Dimitrovgrad,_Serbia"
            }
        },
        {
            "type": "Feature",
            "geometry": {
                "type": "Point",
                "coordinates": [
                    21.566666666,
                    42.566666666
                ]
            },
            "properties": {
                "name": "Kamenica",
                "article": "https://en.wikipedia.org/wiki/Kamenica,_Kosovo"
            }
        },
        {
            "type": "Feature",
            "geometry": {
                "type": "Point",
                "coordinates": [
                    20.28333333,
                    44.95
                ]
            },
            "properties": {
                "name": "Novi Banovci",
                "article": "https://en.wikipedia.org/wiki/Novi_Banovci"
            }
        },
        {
            "type": "Feature",
            "geometry": {
                "type": "Point",
                "coordinates": [
                    20.477344444,
                    44.805222222
                ]
            },
            "properties": {
                "name": "Vukov Spomenik railway station",
                "article": "https://en.wikipedia.org/wiki/Vukov_Spomenik_railway_station"
            }
        },
        {
            "type": "Feature",
            "geometry": {
                "type": "Point",
                "coordinates": [
                    20.456944444,
                    44.817777777
                ]
            },
            "properties": {
                "name": "Belgrade",
                "article": "https://en.wikipedia.org/wiki/Belgrade"
            }
        },
        {
            "type": "Feature",
            "geometry": {
                "type": "Point",
                "coordinates": [
                    19.866666666,
                    45.25
                ]
            },
            "properties": {
                "name": "Petrovaradin",
                "article": "https://en.wikipedia.org/wiki/Petrovaradin"
            }
        },
        {
            "type": "Feature",
            "geometry": {
                "type": "Point",
                "coordinates": [
                    21.166666666,
                    42.666666666
                ]
            },
            "properties": {
                "name": "Pristina",
                "article": "https://en.wikipedia.org/wiki/Pristina"
            }
        },
        {
            "type": "Feature",
            "geometry": {
                "type": "Point",
                "coordinates": [
                    22.607222222,
                    44.603888888
                ]
            },
            "properties": {
                "name": "Kladovo",
                "article": "https://en.wikipedia.org/wiki/Kladovo"
            }
        },
        {
            "type": "Feature",
            "geometry": {
                "type": "Point",
                "coordinates": [
                    20.653148,
                    42.061423
                ]
            },
            "properties": {
                "name": "Dragash",
                "article": "https://en.wikipedia.org/wiki/Dragash"
            }
        },
        {
            "type": "Feature",
            "geometry": {
                "type": "Point",
                "coordinates": [
                    20.821944444,
                    42.38
                ]
            },
            "properties": {
                "name": "Suhareka",
                "article": "https://en.wikipedia.org/wiki/Suva_Reka"
            }
        },
        {
            "type": "Feature",
            "geometry": {
                "type": "Point",
                "coordinates": [
                    20.84,
                    42.91
                ]
            },
            "properties": {
                "name": "Zvečan",
                "article": "https://en.wikipedia.org/wiki/Zve%C4%8Dan"
            }
        },
        {
            "type": "Feature",
            "geometry": {
                "type": "Point",
                "coordinates": [
                    21.3556,
                    43.2019
                ]
            },
            "properties": {
                "name": "Battle of Pločnik",
                "article": "https://en.wikipedia.org/wiki/Battle_of_Plo%C4%8Dnik"
            }
        },
        {
            "type": "Feature",
            "geometry": {
                "type": "Point",
                "coordinates": [
                    20.97611,
                    44.7475
                ]
            },
            "properties": {
                "name": "Kovin",
                "article": "https://en.wikipedia.org/wiki/Kovin"
            }
        },
        {
            "type": "Feature",
            "geometry": {
                "type": "Point",
                "coordinates": [
                    20.965833333,
                    45.080833333
                ]
            },
            "properties": {
                "name": "Alibunar",
                "article": "https://en.wikipedia.org/wiki/Alibunar"
            }
        },
        {
            "type": "Feature",
            "geometry": {
                "type": "Point",
                "coordinates": [
                    21.0975,
                    42.638333333
                ]
            },
            "properties": {
                "name": "Fushë Kosova",
                "article": "https://en.wikipedia.org/wiki/Kosovo_Polje"
            }
        },
        {
            "type": "Feature",
            "geometry": {
                "type": "Point",
                "coordinates": [
                    20.51765,
                    44.689962
                ]
            },
            "properties": {
                "name": "Avala",
                "article": "https://en.wikipedia.org/wiki/Avala"
            }
        },
        {
            "type": "Feature",
            "geometry": {
                "type": "Point",
                "coordinates": [
                    20.514166666,
                    44.690555555
                ]
            },
            "properties": {
                "name": "Avala",
                "article": "https://en.wikipedia.org/wiki/Avala"
            }
        },
        {
            "type": "Feature",
            "geometry": {
                "type": "Point",
                "coordinates": [
                    22.306666666,
                    43.217777777
                ]
            },
            "properties": {
                "name": "Bela Palanka",
                "article": "https://en.wikipedia.org/wiki/Bela_Palanka"
            }
        },
        {
            "type": "Feature",
            "geometry": {
                "type": "Point",
                "coordinates": [
                    19.651388888,
                    43.543888888
                ]
            },
            "properties": {
                "name": "Prijepolje",
                "article": "https://en.wikipedia.org/wiki/Prijepolje"
            }
        },
        {
            "type": "Feature",
            "geometry": {
                "type": "Point",
                "coordinates": [
                    22.60833333,
                    43.36888889
                ]
            },
            "properties": {
                "name": "Babin zub",
                "article": null
            }
        },
        {
            "type": "Feature",
            "geometry": {
                "type": "Point",
                "coordinates": [
                    20.418,
                    44.8067
                ]
            },
            "properties": {
                "name": "New Belgrade railway station",
                "article": "https://en.wikipedia.org/wiki/New_Belgrade_railway_station"
            }
        },
        {
            "type": "Feature",
            "geometry": {
                "type": "Point",
                "coordinates": [
                    19.559722222,
                    43.973055555
                ]
            },
            "properties": {
                "name": "Bajina Bašta",
                "article": "https://en.wikipedia.org/wiki/Bajina_Ba%C5%A1ta"
            }
        },
        {
            "type": "Feature",
            "geometry": {
                "type": "Point",
                "coordinates": [
                    21.307777777,
                    42.821111111
                ]
            },
            "properties": {
                "name": "Batllava Lake",
                "article": "https://en.wikipedia.org/wiki/Batllava_Lake"
            }
        },
        {
            "type": "Feature",
            "geometry": {
                "type": "Point",
                "coordinates": [
                    20.453362,
                    44.765707
                ]
            },
            "properties": {
                "name": "Beli dvor",
                "article": "https://en.wikipedia.org/wiki/Beli_dvor"
            }
        },
        {
            "type": "Feature",
            "geometry": {
                "type": "Point",
                "coordinates": [
                    22.230555555,
                    42.529444444
                ]
            },
            "properties": {
                "name": "Besna Kobila",
                "article": "https://en.wikipedia.org/wiki/Besna_Kobila"
            }
        },
        {
            "type": "Feature",
            "geometry": {
                "type": "Point",
                "coordinates": [
                    19.610555555,
                    44.966111111
                ]
            },
            "properties": {
                "name": "Sirmium",
                "article": "https://en.wikipedia.org/wiki/Sirmium"
            }
        },
        {
            "type": "Feature",
            "geometry": {
                "type": "Point",
                "coordinates": [
                    20.325555555,
                    42.9875
                ]
            },
            "properties": {
                "name": "Tutin",
                "article": "https://en.wikipedia.org/wiki/Tutin,_Serbia"
            }
        },
        {
            "type": "Feature",
            "geometry": {
                "type": "Point",
                "coordinates": [
                    20.266388888,
                    42.546944444
                ]
            },
            "properties": {
                "name": "Visoki Dečani",
                "article": "https://en.wikipedia.org/wiki/Visoki_De%C4%8Dani"
            }
        },
        {
            "type": "Feature",
            "geometry": {
                "type": "Point",
                "coordinates": [
                    20.47907,
                    44.28828
                ]
            },
            "properties": {
                "name": "Garaško Lake",
                "article": null
            }
        },
        {
            "type": "Feature",
            "geometry": {
                "type": "Point",
                "coordinates": [
                    20.1,
                    46.05
                ]
            },
            "properties": {
                "name": "Novi Kneževac",
                "article": "https://en.wikipedia.org/wiki/Novi_Kne%C5%BEevac"
            }
        },
        {
            "type": "Feature",
            "geometry": {
                "type": "Point",
                "coordinates": [
                    20.05,
                    46.066666666
                ]
            },
            "properties": {
                "name": "Kanjiža",
                "article": "https://en.wikipedia.org/wiki/Kanji%C5%BEa"
            }
        },
        {
            "type": "Feature",
            "geometry": {
                "type": "Point",
                "coordinates": [
                    19.49416667,
                    44.60305556
                ]
            },
            "properties": {
                "name": "Cer",
                "article": "https://en.wikipedia.org/wiki/Cer_(mountain)"
            }
        },
        {
            "type": "Feature",
            "geometry": {
                "type": "Point",
                "coordinates": [
                    20.139444444,
                    45.938888888
                ]
            },
            "properties": {
                "name": "Čoka",
                "article": "https://en.wikipedia.org/wiki/%C4%8Coka"
            }
        },
        {
            "type": "Feature",
            "geometry": {
                "type": "Point",
                "coordinates": [
                    20.735833333,
                    42.211388888
                ]
            },
            "properties": {
                "name": "Our Lady of Promise",
                "article": "https://en.wikipedia.org/wiki/Our_Lady_of_Ljevi%C5%A1"
            }
        },
        {
            "type": "Feature",
            "geometry": {
                "type": "Point",
                "coordinates": [
                    22.024166666,
                    44.561111111
                ]
            },
            "properties": {
                "name": "Lepenski Vir",
                "article": "https://en.wikipedia.org/wiki/Lepenski_Vir"
            }
        },
        {
            "type": "Feature",
            "geometry": {
                "type": "Point",
                "coordinates": [
                    20.216666666,
                    44.949972222
                ]
            },
            "properties": {
                "name": "Nova Pazova",
                "article": "https://en.wikipedia.org/wiki/Nova_Pazova"
            }
        },
        {
            "type": "Feature",
            "geometry": {
                "type": "Point",
                "coordinates": [
                    20.415669,
                    43.128342
                ]
            },
            "properties": {
                "name": "Stari Ras",
                "article": "https://en.wikipedia.org/wiki/Stari_Ras"
            }
        },
        {
            "type": "Feature",
            "geometry": {
                "type": "Point",
                "coordinates": [
                    20.465,
                    44.80555556
                ]
            },
            "properties": {
                "name": "Kralja Milana",
                "article": null
            }
        },
        {
            "type": "Feature",
            "geometry": {
                "type": "Point",
                "coordinates": [
                    20.4604,
                    44.8058
                ]
            },
            "properties": {
                "name": "Kneza Miloša street",
                "article": "https://en.wikipedia.org/wiki/Kneza_Milo%C5%A1a_Street"
            }
        },
        {
            "type": "Feature",
            "geometry": {
                "type": "Point",
                "coordinates": [
                    19.16638889,
                    44.51222222
                ]
            },
            "properties": {
                "name": "Koviljkin grad",
                "article": "https://en.wikipedia.org/wiki/Koviljkin_grad"
            }
        },
        {
            "type": "Feature",
            "geometry": {
                "type": "Point",
                "coordinates": [
                    19.7925,
                    43.4089
                ]
            },
            "properties": {
                "name": "Zlatar",
                "article": "https://en.wikipedia.org/wiki/Zlatar_(mountain)"
            }
        },
        {
            "type": "Feature",
            "geometry": {
                "type": "Point",
                "coordinates": [
                    21.94888889,
                    43.31027778
                ]
            },
            "properties": {
                "name": "Mediana",
                "article": "https://en.wikipedia.org/wiki/Mediana"
            }
        },
        {
            "type": "Feature",
            "geometry": {
                "type": "Point",
                "coordinates": [
                    20.45,
                    44.7833
                ]
            },
            "properties": {
                "name": "Vračar plateau",
                "article": "https://en.wikipedia.org/wiki/Vra%C4%8Dar_plateau"
            }
        },
        {
            "type": "Feature",
            "geometry": {
                "type": "Point",
                "coordinates": [
                    20.034,
                    43.546
                ]
            },
            "properties": {
                "name": "Mučanj",
                "article": "https://en.wikipedia.org/wiki/Mu%C4%8Danj"
            }
        },
        {
            "type": "Feature",
            "geometry": {
                "type": "Point",
                "coordinates": [
                    20.78805556,
                    42.7475
                ]
            },
            "properties": {
                "name": "Skenderaj",
                "article": "https://en.wikipedia.org/wiki/Skenderaj"
            }
        },
        {
            "type": "Feature",
            "geometry": {
                "type": "Point",
                "coordinates": [
                    20.8,
                    43.1
                ]
            },
            "properties": {
                "name": "Leposavić",
                "article": "https://en.wikipedia.org/wiki/Leposavi%C4%87"
            }
        },
        {
            "type": "Feature",
            "geometry": {
                "type": "Point",
                "coordinates": [
                    20.80278,
                    43.10389
                ]
            },
            "properties": {
                "name": "Leposavić",
                "article": "https://en.wikipedia.org/wiki/Leposavi%C4%87"
            }
        },
        {
            "type": "Feature",
            "geometry": {
                "type": "Point",
                "coordinates": [
                    20.483333333,
                    42.783333333
                ]
            },
            "properties": {
                "name": "Istog",
                "article": "https://en.wikipedia.org/wiki/Istog"
            }
        },
        {
            "type": "Feature",
            "geometry": {
                "type": "Point",
                "coordinates": [
                    20.0,
                    43.266666666
                ]
            },
            "properties": {
                "name": "Sjenica",
                "article": "https://en.wikipedia.org/wiki/Sjenica"
            }
        },
        {
            "type": "Feature",
            "geometry": {
                "type": "Point",
                "coordinates": [
                    21.19166667,
                    42.91166667
                ]
            },
            "properties": {
                "name": "Podujeva",
                "article": "https://en.wikipedia.org/wiki/Podujev%C3%AB"
            }
        },
        {
            "type": "Feature",
            "geometry": {
                "type": "Point",
                "coordinates": [
                    21.933333333,
                    44.416666666
                ]
            },
            "properties": {
                "name": "Majdanpek",
                "article": "https://en.wikipedia.org/wiki/Majdanpek"
            }
        },
        {
            "type": "Feature",
            "geometry": {
                "type": "Point",
                "coordinates": [
                    21.12583,
                    42.52167
                ]
            },
            "properties": {
                "name": "Lipjan",
                "article": "https://en.wikipedia.org/wiki/Lipjan"
            }
        },
        {
            "type": "Feature",
            "geometry": {
                "type": "Point",
                "coordinates": [
                    21.124166666,
                    42.522222222
                ]
            },
            "properties": {
                "name": "Lipjan",
                "article": "https://en.wikipedia.org/wiki/Lipjan"
            }
        },
        {
            "type": "Feature",
            "geometry": {
                "type": "Point",
                "coordinates": [
                    21.033333333,
                    42.433333333
                ]
            },
            "properties": {
                "name": "Shtime",
                "article": "https://en.wikipedia.org/wiki/Shtime"
            }
        },
        {
            "type": "Feature",
            "geometry": {
                "type": "Point",
                "coordinates": [
                    20.6936,
                    44.9664
                ]
            },
            "properties": {
                "name": "Kačarevo",
                "article": "https://en.wikipedia.org/wiki/Ka%C4%8Darevo"
            }
        },
        {
            "type": "Feature",
            "geometry": {
                "type": "Point",
                "coordinates": [
                    22.151666666,
                    44.466388888
                ]
            },
            "properties": {
                "name": "Donji Milanovac",
                "article": "https://en.wikipedia.org/wiki/Donji_Milanovac"
            }
        },
        {
            "type": "Feature",
            "geometry": {
                "type": "Point",
                "coordinates": [
                    22.151666666,
                    44.466388888
                ]
            },
            "properties": {
                "name": "Donji Milanovac",
                "article": "https://en.wikipedia.org/wiki/Donji_Milanovac"
            }
        },
        {
            "type": "Feature",
            "geometry": {
                "type": "Point",
                "coordinates": [
                    20.229722222,
                    43.581111111
                ]
            },
            "properties": {
                "name": "Ivanjica",
                "article": "https://en.wikipedia.org/wiki/Ivanjica"
            }
        },
        {
            "type": "Feature",
            "geometry": {
                "type": "Point",
                "coordinates": [
                    20.89389,
                    42.62833
                ]
            },
            "properties": {
                "name": "Drenas",
                "article": "https://en.wikipedia.org/wiki/Drenas"
            }
        },
        {
            "type": "Feature",
            "geometry": {
                "type": "Point",
                "coordinates": [
                    19.598055555,
                    44.965555555
                ]
            },
            "properties": {
                "name": "Mačvanska Mitrovica",
                "article": "https://en.wikipedia.org/wiki/Ma%C4%8Dvanska_Mitrovica"
            }
        },
        {
            "type": "Feature",
            "geometry": {
                "type": "Point",
                "coordinates": [
                    21.35833,
                    42.32139
                ]
            },
            "properties": {
                "name": "Viti",
                "article": "https://en.wikipedia.org/wiki/Viti,_Kosovo"
            }
        },
        {
            "type": "Feature",
            "geometry": {
                "type": "Point",
                "coordinates": [
                    20.077777777,
                    45.525
                ]
            },
            "properties": {
                "name": "Pearl Island",
                "article": null
            }
        },
        {
            "type": "Feature",
            "geometry": {
                "type": "Point",
                "coordinates": [
                    20.451944444,
                    44.813333333
                ]
            },
            "properties": {
                "name": "Belgrade Cooperative",
                "article": "https://en.wikipedia.org/wiki/Belgrade_Cooperative_Bank"
            }
        },
        {
            "type": "Feature",
            "geometry": {
                "type": "Point",
                "coordinates": [
                    21.016111111,
                    45.047222222
                ]
            },
            "properties": {
                "name": "Banatski Karlovac",
                "article": "https://en.wikipedia.org/wiki/Banatski_Karlovac"
            }
        },
        {
            "type": "Feature",
            "geometry": {
                "type": "Point",
                "coordinates": [
                    20.704722222,
                    44.807222222
                ]
            },
            "properties": {
                "name": "Starčevo",
                "article": "https://en.wikipedia.org/wiki/Star%C4%8Devo"
            }
        },
        {
            "type": "Feature",
            "geometry": {
                "type": "Point",
                "coordinates": [
                    19.568611111,
                    45.002222222
                ]
            },
            "properties": {
                "name": "Laćarak",
                "article": "https://en.wikipedia.org/wiki/La%C4%87arak"
            }
        },
        {
            "type": "Feature",
            "geometry": {
                "type": "Point",
                "coordinates": [
                    20.77222,
                    45.36667
                ]
            },
            "properties": {
                "name": "Sečanj",
                "article": "https://en.wikipedia.org/wiki/Se%C4%8Danj"
            }
        },
        {
            "type": "Feature",
            "geometry": {
                "type": "Point",
                "coordinates": [
                    20.7725,
                    45.366666666
                ]
            },
            "properties": {
                "name": "Sečanj",
                "article": "https://en.wikipedia.org/wiki/Se%C4%8Danj"
            }
        },
        {
            "type": "Feature",
            "geometry": {
                "type": "Point",
                "coordinates": [
                    20.283333333,
                    44.983333333
                ]
            },
            "properties": {
                "name": "Stari Banovci",
                "article": "https://en.wikipedia.org/wiki/Stari_Banovci"
            }
        },
        {
            "type": "Feature",
            "geometry": {
                "type": "Point",
                "coordinates": [
                    19.7678,
                    45.1656
                ]
            },
            "properties": {
                "name": "Mount Veliki Gradac",
                "article": null
            }
        },
        {
            "type": "Feature",
            "geometry": {
                "type": "Point",
                "coordinates": [
                    21.193333333,
                    42.598333333
                ]
            },
            "properties": {
                "name": "Gračanica monastery",
                "article": "https://en.wikipedia.org/wiki/Gra%C4%8Danica_Monastery"
            }
        },
        {
            "type": "Feature",
            "geometry": {
                "type": "Point",
                "coordinates": [
                    20.92009,
                    42.12866
                ]
            },
            "properties": {
                "name": "Crn Vrv",
                "article": "https://en.wikipedia.org/wiki/Maja_e_zez%C3%AB"
            }
        },
        {
            "type": "Feature",
            "geometry": {
                "type": "Point",
                "coordinates": [
                    21.23055556,
                    44.73277778
                ]
            },
            "properties": {
                "name": "Viminacium",
                "article": "https://en.wikipedia.org/wiki/Viminacium"
            }
        },
        {
            "type": "Feature",
            "geometry": {
                "type": "Point",
                "coordinates": [
                    20.446263,
                    44.796911
                ]
            },
            "properties": {
                "name": "BIGZ building",
                "article": "https://en.wikipedia.org/wiki/BIGZ_building"
            }
        },
        {
            "type": "Feature",
            "geometry": {
                "type": "Point",
                "coordinates": [
                    20.52916667,
                    44.29861111
                ]
            },
            "properties": {
                "name": "Bukulja",
                "article": "https://en.wikipedia.org/wiki/Bukulja"
            }
        },
        {
            "type": "Feature",
            "geometry": {
                "type": "Point",
                "coordinates": [
                    21.11138889,
                    44.00888889
                ]
            },
            "properties": {
                "name": "Crni Vrh",
                "article": "https://en.wikipedia.org/wiki/Crni_Vrh_(Jagodina)"
            }
        },
        {
            "type": "Feature",
            "geometry": {
                "type": "Point",
                "coordinates": [
                    19.293,
                    44.33
                ]
            },
            "properties": {
                "name": "Jagodnja",
                "article": "https://en.wikipedia.org/wiki/Jagodnja"
            }
        },
        {
            "type": "Feature",
            "geometry": {
                "type": "Point",
                "coordinates": [
                    20.716666666,
                    43.916666666
                ]
            },
            "properties": {
                "name": "Knić",
                "article": "https://en.wikipedia.org/wiki/Kni%C4%87"
            }
        },
        {
            "type": "Feature",
            "geometry": {
                "type": "Point",
                "coordinates": [
                    20.645738888,
                    43.6963
                ]
            },
            "properties": {
                "name": "Žiča",
                "article": "https://en.wikipedia.org/wiki/%C5%BDi%C4%8Da"
            }
        },
        {
            "type": "Feature",
            "geometry": {
                "type": "Point",
                "coordinates": [
                    20.36166667,
                    42.83222222
                ]
            },
            "properties": {
                "name": "Mokra Gora",
                "article": "https://en.wikipedia.org/wiki/Mokra_Gora_(mountain)"
            }
        },
        {
            "type": "Feature",
            "geometry": {
                "type": "Point",
                "coordinates": [
                    20.565555555,
                    44.465555555
                ]
            },
            "properties": {
                "name": "Kosmaj",
                "article": "https://en.wikipedia.org/wiki/Kosmaj"
            }
        },
        {
            "type": "Feature",
            "geometry": {
                "type": "Point",
                "coordinates": [
                    20.46,
                    44.82
                ]
            },
            "properties": {
                "name": "Singidunum",
                "article": "https://en.wikipedia.org/wiki/Singidunum"
            }
        },
        {
            "type": "Feature",
            "geometry": {
                "type": "Point",
                "coordinates": [
                    20.456944444,
                    44.817777777
                ]
            },
            "properties": {
                "name": "Knez Mihailova Street",
                "article": "https://en.wikipedia.org/wiki/Knez_Mihailova_Street"
            }
        },
        {
            "type": "Feature",
            "geometry": {
                "type": "Point",
                "coordinates": [
                    20.46294444,
                    44.81269444
                ]
            },
            "properties": {
                "name": "Nikola Pašić Square",
                "article": "https://en.wikipedia.org/wiki/Nikola_Pa%C5%A1i%C4%87_Square"
            }
        },
        {
            "type": "Feature",
            "geometry": {
                "type": "Point",
                "coordinates": [
                    20.566944444,
                    42.961666666
                ]
            },
            "properties": {
                "name": "Gazivoda Lake",
                "article": "https://en.wikipedia.org/wiki/Gazivoda_Lake"
            }
        },
        {
            "type": "Feature",
            "geometry": {
                "type": "Point",
                "coordinates": [
                    20.15638889,
                    44.10944444
                ]
            },
            "properties": {
                "name": "Ravna Gora",
                "article": "https://en.wikipedia.org/wiki/Ravna_Gora_(highland)"
            }
        },
        {
            "type": "Feature",
            "geometry": {
                "type": "Point",
                "coordinates": [
                    19.18,
                    44.489166666
                ]
            },
            "properties": {
                "name": "Gučevo",
                "article": "https://en.wikipedia.org/wiki/Gu%C4%8Devo"
            }
        },
        {
            "type": "Feature",
            "geometry": {
                "type": "Point",
                "coordinates": [
                    22.409444444,
                    44.684722222
                ]
            },
            "properties": {
                "name": "Tekija",
                "article": "https://en.wikipedia.org/wiki/Tekija_(Kladovo)"
            }
        },
        {
            "type": "Feature",
            "geometry": {
                "type": "Point",
                "coordinates": [
                    19.76300927,
                    44.89070923
                ]
            },
            "properties": {
                "name": "Gomolava",
                "article": null
            }
        },
        {
            "type": "Feature",
            "geometry": {
                "type": "Point",
                "coordinates": [
                    20.45637222,
                    44.80817778
                ]
            },
            "properties": {
                "name": "Nemanjina Street",
                "article": "https://en.wikipedia.org/wiki/Nemanjina_Street"
            }
        },
        {
            "type": "Feature",
            "geometry": {
                "type": "Point",
                "coordinates": [
                    21.94278,
                    43.36528
                ]
            },
            "properties": {
                "name": "Battle of Čegar",
                "article": "https://en.wikipedia.org/wiki/Battle_of_%C4%8Cegar"
            }
        },
        {
            "type": "Feature",
            "geometry": {
                "type": "Point",
                "coordinates": [
                    21.94274,
                    43.36546
                ]
            },
            "properties": {
                "name": "Battle of Čegar",
                "article": "https://en.wikipedia.org/wiki/Battle_of_%C4%8Cegar"
            }
        },
        {
            "type": "Feature",
            "geometry": {
                "type": "Point",
                "coordinates": [
                    22.02138889,
                    44.4525
                ]
            },
            "properties": {
                "name": "Liškovac",
                "article": "https://en.wikipedia.org/wiki/Li%C5%A1kovac"
            }
        },
        {
            "type": "Feature",
            "geometry": {
                "type": "Point",
                "coordinates": [
                    22.21722222,
                    44.22083333
                ]
            },
            "properties": {
                "name": "Deli Jovan",
                "article": "https://en.wikipedia.org/wiki/Deli_Jovan"
            }
        },
        {
            "type": "Feature",
            "geometry": {
                "type": "Point",
                "coordinates": [
                    19.91388889,
                    45.16694444
                ]
            },
            "properties": {
                "name": "Stražilovo",
                "article": "https://en.wikipedia.org/wiki/Stra%C5%BEilovo"
            }
        },
        {
            "type": "Feature",
            "geometry": {
                "type": "Point",
                "coordinates": [
                    20.462153,
                    44.813118
                ]
            },
            "properties": {
                "name": "Dom Sindikata",
                "article": "https://en.wikipedia.org/wiki/Dom_Sindikata"
            }
        },
        {
            "type": "Feature",
            "geometry": {
                "type": "Point",
                "coordinates": [
                    20.466,
                    44.8102
                ]
            },
            "properties": {
                "name": "Stanković Musical School",
                "article": "https://en.wikipedia.org/wiki/Stankovi%C4%87_Musical_School"
            }
        },
        {
            "type": "Feature",
            "geometry": {
                "type": "Point",
                "coordinates": [
                    21.299166666,
                    42.1475
                ]
            },
            "properties": {
                "name": "Elez Han",
                "article": "https://en.wikipedia.org/wiki/Hani_i_Elezit"
            }
        },
        {
            "type": "Feature",
            "geometry": {
                "type": "Point",
                "coordinates": [
                    20.540278,
                    44.131389
                ]
            },
            "properties": {
                "name": "Rudnik",
                "article": "https://en.wikipedia.org/wiki/Rudnik_(mountain)"
            }
        },
        {
            "type": "Feature",
            "geometry": {
                "type": "Point",
                "coordinates": [
                    22.74555556,
                    43.38805556
                ]
            },
            "properties": {
                "name": "Q1905647",
                "article": null
            }
        },
        {
            "type": "Feature",
            "geometry": {
                "type": "Point",
                "coordinates": [
                    21.400277777,
                    44.767777777
                ]
            },
            "properties": {
                "name": "Silver Lake",
                "article": "https://en.wikipedia.org/wiki/Silver_Lake_(Serbia)"
            }
        },
        {
            "type": "Feature",
            "geometry": {
                "type": "Point",
                "coordinates": [
                    22.0608,
                    43.1267
                ]
            },
            "properties": {
                "name": "Babička Gora",
                "article": "https://en.wikipedia.org/wiki/Babi%C4%8Dka_Gora"
            }
        },
        {
            "type": "Feature",
            "geometry": {
                "type": "Point",
                "coordinates": [
                    22.06194444,
                    43.12638889
                ]
            },
            "properties": {
                "name": "Babička Gora",
                "article": "https://en.wikipedia.org/wiki/Babi%C4%8Dka_Gora"
            }
        },
        {
            "type": "Feature",
            "geometry": {
                "type": "Point",
                "coordinates": [
                    20.666666666,
                    44.25
                ]
            },
            "properties": {
                "name": "Oplenac",
                "article": null
            }
        },
        {
            "type": "Feature",
            "geometry": {
                "type": "Point",
                "coordinates": [
                    20.221944444,
                    44.822777777
                ]
            },
            "properties": {
                "name": "Dobanovci",
                "article": "https://en.wikipedia.org/wiki/Dobanovci"
            }
        },
        {
            "type": "Feature",
            "geometry": {
                "type": "Point",
                "coordinates": [
                    20.8225,
                    43.269166666
                ]
            },
            "properties": {
                "name": "Pančić's Peak",
                "article": "https://en.wikipedia.org/wiki/Pan%C4%8Di%C4%87%27s_Peak"
            }
        },
        {
            "type": "Feature",
            "geometry": {
                "type": "Point",
                "coordinates": [
                    20.716666666,
                    42.316666666
                ]
            },
            "properties": {
                "name": "Mamusha",
                "article": "https://en.wikipedia.org/wiki/Mamusha"
            }
        },
        {
            "type": "Feature",
            "geometry": {
                "type": "Point",
                "coordinates": [
                    20.893888888,
                    42.281944444
                ]
            },
            "properties": {
                "name": "Church of Virgin Hodegetria",
                "article": "https://en.wikipedia.org/wiki/Church_of_the_Virgin_Hodegetria,_Mu%C5%A1uti%C5%A1te"
            }
        },
        {
            "type": "Feature",
            "geometry": {
                "type": "Point",
                "coordinates": [
                    22.310056685,
                    44.656960733
                ]
            },
            "properties": {
                "name": "Tabula Traiana",
                "article": "https://en.wikipedia.org/wiki/Tabula_Traiana"
            }
        },
        {
            "type": "Feature",
            "geometry": {
                "type": "Point",
                "coordinates": [
                    21.689166666,
                    42.691666666
                ]
            },
            "properties": {
                "name": "Goljak",
                "article": "https://en.wikipedia.org/wiki/Gollak"
            }
        },
        {
            "type": "Feature",
            "geometry": {
                "type": "Point",
                "coordinates": [
                    20.75189,
                    43.46681
                ]
            },
            "properties": {
                "name": "Željin",
                "article": "https://en.wikipedia.org/wiki/%C5%BDeljin"
            }
        },
        {
            "type": "Feature",
            "geometry": {
                "type": "Point",
                "coordinates": [
                    21.09727,
                    44.18424
                ]
            },
            "properties": {
                "name": "Lapovo",
                "article": "https://en.wikipedia.org/wiki/Lapovo"
            }
        },
        {
            "type": "Feature",
            "geometry": {
                "type": "Point",
                "coordinates": [
                    21.1,
                    44.183333333
                ]
            },
            "properties": {
                "name": "Lapovo",
                "article": "https://en.wikipedia.org/wiki/Lapovo"
            }
        },
        {
            "type": "Feature",
            "geometry": {
                "type": "Point",
                "coordinates": [
                    21.94638889,
                    42.79138889
                ]
            },
            "properties": {
                "name": "Kukavica",
                "article": "https://en.wikipedia.org/wiki/Kukavica"
            }
        },
        {
            "type": "Feature",
            "geometry": {
                "type": "Point",
                "coordinates": [
                    20.4625,
                    44.8109
                ]
            },
            "properties": {
                "name": "Stari Dvor",
                "article": "https://en.wikipedia.org/wiki/Stari_dvor"
            }
        },
        {
            "type": "Feature",
            "geometry": {
                "type": "Point",
                "coordinates": [
                    20.4,
                    44.783333333
                ]
            },
            "properties": {
                "name": "Ada Ciganlija",
                "article": "https://en.wikipedia.org/wiki/Ada_Ciganlija"
            }
        },
        {
            "type": "Feature",
            "geometry": {
                "type": "Point",
                "coordinates": [
                    21.51722222,
                    44.26472222
                ]
            },
            "properties": {
                "name": "Ježevac",
                "article": "https://en.wikipedia.org/wiki/Je%C5%BEevac_(mountain)"
            }
        },
        {
            "type": "Feature",
            "geometry": {
                "type": "Point",
                "coordinates": [
                    21.825,
                    44.084
                ]
            },
            "properties": {
                "name": "Kučaj mountains",
                "article": "https://en.wikipedia.org/wiki/Ku%C4%8Daj"
            }
        },
        {
            "type": "Feature",
            "geometry": {
                "type": "Point",
                "coordinates": [
                    21.416666666,
                    42.166666666
                ]
            },
            "properties": {
                "name": "Skopska Crna Gora",
                "article": "https://en.wikipedia.org/wiki/Skopska_Crna_Gora"
            }
        },
        {
            "type": "Feature",
            "geometry": {
                "type": "Point",
                "coordinates": [
                    20.166666666,
                    44.366666666
                ]
            },
            "properties": {
                "name": "Lajkovac",
                "article": "https://en.wikipedia.org/wiki/Lajkovac"
            }
        },
        {
            "type": "Feature",
            "geometry": {
                "type": "Point",
                "coordinates": [
                    20.4686,
                    44.8157
                ]
            },
            "properties": {
                "name": "Jovan Cvijić's house",
                "article": "https://en.wikipedia.org/wiki/Jovan_Cviji%C4%87_House"
            }
        },
        {
            "type": "Feature",
            "geometry": {
                "type": "Point",
                "coordinates": [
                    20.6697,
                    42.3752
                ]
            },
            "properties": {
                "name": "Q2402336",
                "article": null
            }
        },
        {
            "type": "Feature",
            "geometry": {
                "type": "Point",
                "coordinates": [
                    22.17101,
                    43.18268
                ]
            },
            "properties": {
                "name": "Trem",
                "article": null
            }
        },
        {
            "type": "Feature",
            "geometry": {
                "type": "Point",
                "coordinates": [
                    22.17611111,
                    43.18027778
                ]
            },
            "properties": {
                "name": "Trem",
                "article": null
            }
        },
        {
            "type": "Feature",
            "geometry": {
                "type": "Point",
                "coordinates": [
                    22.82333,
                    43.33222
                ]
            },
            "properties": {
                "name": "Tri Chuke",
                "article": null
            }
        },
        {
            "type": "Feature",
            "geometry": {
                "type": "Point",
                "coordinates": [
                    21.84251,
                    44.43326
                ]
            },
            "properties": {
                "name": "Blagojev Kamen",
                "article": "https://en.wikipedia.org/wiki/Blagojev_Kamen"
            }
        },
        {
            "type": "Feature",
            "geometry": {
                "type": "Point",
                "coordinates": [
                    21.8564,
                    44.4375
                ]
            },
            "properties": {
                "name": "Blagojev Kamen",
                "article": "https://en.wikipedia.org/wiki/Blagojev_Kamen"
            }
        },
        {
            "type": "Feature",
            "geometry": {
                "type": "Point",
                "coordinates": [
                    20.233055555,
                    42.653888888
                ]
            },
            "properties": {
                "name": "Kopranik",
                "article": "https://en.wikipedia.org/wiki/Kopranik"
            }
        },
        {
            "type": "Feature",
            "geometry": {
                "type": "Point",
                "coordinates": [
                    21.40333333,
                    45.13916667
                ]
            },
            "properties": {
                "name": "Q2708467",
                "article": null
            }
        },
        {
            "type": "Feature",
            "geometry": {
                "type": "Point",
                "coordinates": [
                    20.276666666,
                    43.337777777
                ]
            },
            "properties": {
                "name": "Golija",
                "article": "https://en.wikipedia.org/wiki/Golija"
            }
        },
        {
            "type": "Feature",
            "geometry": {
                "type": "Point",
                "coordinates": [
                    19.82,
                    46.1
                ]
            },
            "properties": {
                "name": "Ludaš Lake",
                "article": "https://en.wikipedia.org/wiki/Luda%C5%A1_Lake"
            }
        },
        {
            "type": "Feature",
            "geometry": {
                "type": "Point",
                "coordinates": [
                    19.7608,
                    44.7292
                ]
            },
            "properties": {
                "name": "Battle of Mišar",
                "article": "https://en.wikipedia.org/wiki/Battle_of_Mi%C5%A1ar"
            }
        },
        {
            "type": "Feature",
            "geometry": {
                "type": "Point",
                "coordinates": [
                    21.408226,
                    44.894644
                ]
            },
            "properties": {
                "name": "Bela Crkva lakes",
                "article": "https://en.wikipedia.org/wiki/Bela_Crkva_lakes"
            }
        },
        {
            "type": "Feature",
            "geometry": {
                "type": "Point",
                "coordinates": [
                    20.505,
                    44.821666666
                ]
            },
            "properties": {
                "name": "Ada Huja",
                "article": "https://en.wikipedia.org/wiki/Ada_Huja"
            }
        },
        {
            "type": "Feature",
            "geometry": {
                "type": "Point",
                "coordinates": [
                    20.510833,
                    44.823056
                ]
            },
            "properties": {
                "name": "Ada Huja",
                "article": "https://en.wikipedia.org/wiki/Ada_Huja"
            }
        },
        {
            "type": "Feature",
            "geometry": {
                "type": "Point",
                "coordinates": [
                    20.383333333,
                    44.783333333
                ]
            },
            "properties": {
                "name": "Ada Međica",
                "article": "https://en.wikipedia.org/wiki/Ada_Me%C4%91ica"
            }
        },
        {
            "type": "Feature",
            "geometry": {
                "type": "Point",
                "coordinates": [
                    20.38694,
                    44.79139
                ]
            },
            "properties": {
                "name": "Ada Međica",
                "article": "https://en.wikipedia.org/wiki/Ada_Me%C4%91ica"
            }
        },
        {
            "type": "Feature",
            "geometry": {
                "type": "Point",
                "coordinates": [
                    20.45222,
                    44.7025
                ]
            },
            "properties": {
                "name": "Q2832599",
                "article": null
            }
        },
        {
            "type": "Feature",
            "geometry": {
                "type": "Point",
                "coordinates": [
                    20.428289,
                    44.815553
                ]
            },
            "properties": {
                "name": "Q2853209",
                "article": null
            }
        },
        {
            "type": "Feature",
            "geometry": {
                "type": "Point",
                "coordinates": [
                    20.3786325,
                    44.8541136
                ]
            },
            "properties": {
                "name": "Q2881903",
                "article": null
            }
        },
        {
            "type": "Feature",
            "geometry": {
                "type": "Point",
                "coordinates": [
                    20.457706,
                    44.817174
                ]
            },
            "properties": {
                "name": "Q2882978",
                "article": null
            }
        },
        {
            "type": "Feature",
            "geometry": {
                "type": "Point",
                "coordinates": [
                    19.97898673,
                    44.97083239
                ]
            },
            "properties": {
                "name": "Bassianae",
                "article": "https://en.wikipedia.org/wiki/Bassianae"
            }
        },
        {
            "type": "Feature",
            "geometry": {
                "type": "Point",
                "coordinates": [
                    20.3614,
                    44.8734
                ]
            },
            "properties": {
                "name": "Q2891021",
                "article": null
            }
        },
        {
            "type": "Feature",
            "geometry": {
                "type": "Point",
                "coordinates": [
                    21.69972222,
                    44.11138889
                ]
            },
            "properties": {
                "name": "Beljanica",
                "article": "https://en.wikipedia.org/wiki/Beljanica"
            }
        },
        {
            "type": "Feature",
            "geometry": {
                "type": "Point",
                "coordinates": [
                    21.709167,
                    44.1185
                ]
            },
            "properties": {
                "name": "Beljanica",
                "article": "https://en.wikipedia.org/wiki/Beljanica"
            }
        },
        {
            "type": "Feature",
            "geometry": {
                "type": "Point",
                "coordinates": [
                    20.46778611,
                    44.80382778
                ]
            },
            "properties": {
                "name": "Beogradska",
                "article": null
            }
        },
        {
            "type": "Feature",
            "geometry": {
                "type": "Point",
                "coordinates": [
                    20.408655,
                    44.844691
                ]
            },
            "properties": {
                "name": "Bežanijska Street in Zemun",
                "article": null
            }
        },
        {
            "type": "Feature",
            "geometry": {
                "type": "Point",
                "coordinates": [
                    19.17972,
                    44.35778
                ]
            },
            "properties": {
                "name": "Boranja",
                "article": "https://en.wikipedia.org/wiki/Boranja"
            }
        },
        {
            "type": "Feature",
            "geometry": {
                "type": "Point",
                "coordinates": [
                    19.501389,
                    43.898333
                ]
            },
            "properties": {
                "name": "Q2911087",
                "article": null
            }
        },
        {
            "type": "Feature",
            "geometry": {
                "type": "Point",
                "coordinates": [
                    19.839167,
                    43.635833
                ]
            },
            "properties": {
                "name": "Q2911099",
                "article": null
            }
        },
        {
            "type": "Feature",
            "geometry": {
                "type": "Point",
                "coordinates": [
                    19.588889,
                    43.869167
                ]
            },
            "properties": {
                "name": "Q2911284",
                "article": null
            }
        },
        {
            "type": "Feature",
            "geometry": {
                "type": "Point",
                "coordinates": [
                    19.7925,
                    43.58972222
                ]
            },
            "properties": {
                "name": "Brijač",
                "article": null
            }
        },
        {
            "type": "Feature",
            "geometry": {
                "type": "Point",
                "coordinates": [
                    19.7925,
                    43.589722222
                ]
            },
            "properties": {
                "name": "Brijač",
                "article": null
            }
        },
        {
            "type": "Feature",
            "geometry": {
                "type": "Point",
                "coordinates": [
                    19.270556,
                    43.951667
                ]
            },
            "properties": {
                "name": "Q2927061",
                "article": null
            }
        },
        {
            "type": "Feature",
            "geometry": {
                "type": "Point",
                "coordinates": [
                    19.470833,
                    43.898056
                ]
            },
            "properties": {
                "name": "Q2927817",
                "article": null
            }
        },
        {
            "type": "Feature",
            "geometry": {
                "type": "Point",
                "coordinates": [
                    20.413499,
                    44.817859
                ]
            },
            "properties": {
                "name": "Q2927939",
                "article": null
            }
        },
        {
            "type": "Feature",
            "geometry": {
                "type": "Point",
                "coordinates": [
                    20.4703,
                    44.8125
                ]
            },
            "properties": {
                "name": "Q2929267",
                "article": null
            }
        },
        {
            "type": "Feature",
            "geometry": {
                "type": "Point",
                "coordinates": [
                    20.4652,
                    44.8076
                ]
            },
            "properties": {
                "name": "Serbian Journalists’ Association Building",
                "article": "https://en.wikipedia.org/wiki/Serbian_Journalists%27_Association_building"
            }
        },
        {
            "type": "Feature",
            "geometry": {
                "type": "Point",
                "coordinates": [
                    20.4558,
                    44.8201
                ]
            },
            "properties": {
                "name": "Zgrada Aero kluba",
                "article": null
            }
        },
        {
            "type": "Feature",
            "geometry": {
                "type": "Point",
                "coordinates": [
                    20.4577,
                    44.8249
                ]
            },
            "properties": {
                "name": "Zgrada Društva svetog Save",
                "article": null
            }
        },
        {
            "type": "Feature",
            "geometry": {
                "type": "Point",
                "coordinates": [
                    20.4559,
                    44.8198
                ]
            },
            "properties": {
                "name": "Belgrade Town Hall Building",
                "article": "https://en.wikipedia.org/wiki/Belgrade_Town_Hall_Building"
            }
        },
        {
            "type": "Feature",
            "geometry": {
                "type": "Point",
                "coordinates": [
                    20.4585,
                    44.8212
                ]
            },
            "properties": {
                "name": "Great School Building, Belgrade",
                "article": "https://en.wikipedia.org/wiki/Great_School_Building,_Belgrade"
            }
        },
        {
            "type": "Feature",
            "geometry": {
                "type": "Point",
                "coordinates": [
                    20.4658,
                    44.8165
                ]
            },
            "properties": {
                "name": "Q2929276",
                "article": null
            }
        },
        {
            "type": "Feature",
            "geometry": {
                "type": "Point",
                "coordinates": [
                    20.4619,
                    44.8184
                ]
            },
            "properties": {
                "name": "Q2929277",
                "article": null
            }
        },
        {
            "type": "Feature",
            "geometry": {
                "type": "Point",
                "coordinates": [
                    20.4124,
                    44.8429
                ]
            },
            "properties": {
                "name": "Karamata Print-shop",
                "article": null
            }
        },
        {
            "type": "Feature",
            "geometry": {
                "type": "Point",
                "coordinates": [
                    20.4668,
                    44.8052
                ]
            },
            "properties": {
                "name": "Building of the Third Belgrade Gymnasium",
                "article": "https://en.wikipedia.org/wiki/Third_Belgrade_Gymnasium"
            }
        },
        {
            "type": "Feature",
            "geometry": {
                "type": "Point",
                "coordinates": [
                    20.4142,
                    44.8465
                ]
            },
            "properties": {
                "name": "Customs Office building, Zemun",
                "article": "https://en.wikipedia.org/wiki/Customs_Office_Building,_Zemun"
            }
        },
        {
            "type": "Feature",
            "geometry": {
                "type": "Point",
                "coordinates": [
                    20.4132,
                    44.8415
                ]
            },
            "properties": {
                "name": "Air force command building",
                "article": "https://en.wikipedia.org/wiki/Air_Force_Command_Building,_Belgrade"
            }
        },
        {
            "type": "Feature",
            "geometry": {
                "type": "Point",
                "coordinates": [
                    19.84116667,
                    45.242
                ]
            },
            "properties": {
                "name": "NIS building",
                "article": "https://en.wikipedia.org/wiki/NIS_building"
            }
        },
        {
            "type": "Feature",
            "geometry": {
                "type": "Point",
                "coordinates": [
                    20.4559,
                    44.8165
                ]
            },
            "properties": {
                "name": "PRIZAD building",
                "article": "https://en.wikipedia.org/wiki/PRIZAD_building"
            }
        },
        {
            "type": "Feature",
            "geometry": {
                "type": "Point",
                "coordinates": [
                    20.4566,
                    44.8032
                ]
            },
            "properties": {
                "name": "Ministry of Forestry and Mining and Ministry of Agriculture and Waterworks Building, Belgrade",
                "article": "https://en.wikipedia.org/wiki/Ministry_of_Foreign_Affairs_Building,_Belgrade"
            }
        },
        {
            "type": "Feature",
            "geometry": {
                "type": "Point",
                "coordinates": [
                    20.4626,
                    44.8165
                ]
            },
            "properties": {
                "name": "Q2929300",
                "article": null
            }
        },
        {
            "type": "Feature",
            "geometry": {
                "type": "Point",
                "coordinates": [
                    20.4618,
                    44.8123
                ]
            },
            "properties": {
                "name": "Pension Fund Building",
                "article": "https://en.wikipedia.org/wiki/Pension_Fund_Building"
            }
        },
        {
            "type": "Feature",
            "geometry": {
                "type": "Point",
                "coordinates": [
                    20.4602,
                    44.8064
                ]
            },
            "properties": {
                "name": "Building of the Ministry of Finance of the Kingdom of Yugoslavia",
                "article": "https://en.wikipedia.org/wiki/Government_Building,_Belgrade"
            }
        },
        {
            "type": "Feature",
            "geometry": {
                "type": "Point",
                "coordinates": [
                    20.4678,
                    44.8125
                ]
            },
            "properties": {
                "name": "Zgrada Ministarstva pošta",
                "article": null
            }
        },
        {
            "type": "Feature",
            "geometry": {
                "type": "Point",
                "coordinates": [
                    20.4642,
                    44.8062
                ]
            },
            "properties": {
                "name": "Q2929308",
                "article": null
            }
        },
        {
            "type": "Feature",
            "geometry": {
                "type": "Point",
                "coordinates": [
                    20.4037,
                    44.8487
                ]
            },
            "properties": {
                "name": "Q2937755",
                "article": null
            }
        },
        {
            "type": "Feature",
            "geometry": {
                "type": "Point",
                "coordinates": [
                    20.4653,
                    44.821
                ]
            },
            "properties": {
                "name": "Cara Dušana (Stari Grad)",
                "article": null
            }
        },
        {
            "type": "Feature",
            "geometry": {
                "type": "Point",
                "coordinates": [
                    19.46778,
                    43.88278
                ]
            },
            "properties": {
                "name": "Carevića Vis",
                "article": null
            }
        },
        {
            "type": "Feature",
            "geometry": {
                "type": "Point",
                "coordinates": [
                    19.4678,
                    43.8828
                ]
            },
            "properties": {
                "name": "Carevića Vis",
                "article": null
            }
        },
        {
            "type": "Feature",
            "geometry": {
                "type": "Point",
                "coordinates": [
                    20.399,
                    45.263
                ]
            },
            "properties": {
                "name": "Carska Bara",
                "article": "https://en.wikipedia.org/wiki/Carska_Bara"
            }
        },
        {
            "type": "Feature",
            "geometry": {
                "type": "Point",
                "coordinates": [
                    20.475277777,
                    44.690555555
                ]
            },
            "properties": {
                "name": "Pinosava",
                "article": "https://en.wikipedia.org/wiki/Pinosava"
            }
        },
        {
            "type": "Feature",
            "geometry": {
                "type": "Point",
                "coordinates": [
                    20.4638,
                    44.8066
                ]
            },
            "properties": {
                "name": "Oficirska zadruga",
                "article": null
            }
        },
        {
            "type": "Feature",
            "geometry": {
                "type": "Point",
                "coordinates": [
                    19.3447,
                    43.9192
                ]
            },
            "properties": {
                "name": "Q3003079",
                "article": null
            }
        },
        {
            "type": "Feature",
            "geometry": {
                "type": "Point",
                "coordinates": [
                    19.7372,
                    43.7303
                ]
            },
            "properties": {
                "name": "Q3003084",
                "article": null
            }
        },
        {
            "type": "Feature",
            "geometry": {
                "type": "Point",
                "coordinates": [
                    19.9164,
                    43.9673
                ]
            },
            "properties": {
                "name": "Crnokosa",
                "article": "https://en.wikipedia.org/wiki/Crnokosa"
            }
        },
        {
            "type": "Feature",
            "geometry": {
                "type": "Point",
                "coordinates": [
                    20.46222222,
                    44.7994
                ]
            },
            "properties": {
                "name": "Q3021657",
                "article": null
            }
        },
        {
            "type": "Feature",
            "geometry": {
                "type": "Point",
                "coordinates": [
                    21.93333,
                    43.59389
                ]
            },
            "properties": {
                "name": "Devica",
                "article": "https://en.wikipedia.org/wiki/Devica"
            }
        },
        {
            "type": "Feature",
            "geometry": {
                "type": "Point",
                "coordinates": [
                    20.473,
                    43.475
                ]
            },
            "properties": {
                "name": "Radočelo",
                "article": "https://en.wikipedia.org/wiki/Rado%C4%8Delo"
            }
        },
        {
            "type": "Feature",
            "geometry": {
                "type": "Point",
                "coordinates": [
                    20.84555556,
                    43.53638889
                ]
            },
            "properties": {
                "name": "Goč",
                "article": "https://en.wikipedia.org/wiki/Go%C4%8D"
            }
        },
        {
            "type": "Feature",
            "geometry": {
                "type": "Point",
                "coordinates": [
                    20.4975,
                    43.559
                ]
            },
            "properties": {
                "name": "Čemerno",
                "article": "https://en.wikipedia.org/wiki/%C4%8Cemerno"
            }
        },
        {
            "type": "Feature",
            "geometry": {
                "type": "Point",
                "coordinates": [
                    19.748888888,
                    44.132777777
                ]
            },
            "properties": {
                "name": "Povlen",
                "article": "https://en.wikipedia.org/wiki/Povlen"
            }
        },
        {
            "type": "Feature",
            "geometry": {
                "type": "Point",
                "coordinates": [
                    19.63972,
                    44.20917
                ]
            },
            "properties": {
                "name": "Medvednik",
                "article": "https://en.wikipedia.org/wiki/Medvednik"
            }
        },
        {
            "type": "Feature",
            "geometry": {
                "type": "Point",
                "coordinates": [
                    20.18167,
                    44.12139
                ]
            },
            "properties": {
                "name": "Suvobor",
                "article": "https://en.wikipedia.org/wiki/Suvobor"
            }
        },
        {
            "type": "Feature",
            "geometry": {
                "type": "Point",
                "coordinates": [
                    21.55583,
                    43.14215
                ]
            },
            "properties": {
                "name": "Vidojevica",
                "article": "https://en.wikipedia.org/wiki/Vidojevica"
            }
        },
        {
            "type": "Feature",
            "geometry": {
                "type": "Point",
                "coordinates": [
                    22.37222222,
                    42.7925
                ]
            },
            "properties": {
                "name": "Gramada",
                "article": "https://en.wikipedia.org/wiki/Gramada_(mountain)"
            }
        },
        {
            "type": "Feature",
            "geometry": {
                "type": "Point",
                "coordinates": [
                    22.35005,
                    42.43356
                ]
            },
            "properties": {
                "name": "Dukat",
                "article": "https://en.wikipedia.org/wiki/Dukat_(mountain)"
            }
        },
        {
            "type": "Feature",
            "geometry": {
                "type": "Point",
                "coordinates": [
                    22.39055556,
                    42.42527778
                ]
            },
            "properties": {
                "name": "Dukat",
                "article": "https://en.wikipedia.org/wiki/Dukat_(mountain)"
            }
        },
        {
            "type": "Feature",
            "geometry": {
                "type": "Point",
                "coordinates": [
                    20.3634,
                    44.8468
                ]
            },
            "properties": {
                "name": "Q3033266",
                "article": null
            }
        },
        {
            "type": "Feature",
            "geometry": {
                "type": "Point",
                "coordinates": [
                    20.396168,
                    44.850119
                ]
            },
            "properties": {
                "name": "Q3033264",
                "article": null
            }
        },
        {
            "type": "Feature",
            "geometry": {
                "type": "Point",
                "coordinates": [
                    21.84472222,
                    43.58388889
                ]
            },
            "properties": {
                "name": "Ozren",
                "article": "https://en.wikipedia.org/wiki/Ozren_(Sokobanja)"
            }
        },
        {
            "type": "Feature",
            "geometry": {
                "type": "Point",
                "coordinates": [
                    20.3706,
                    44.7986
                ]
            },
            "properties": {
                "name": "Q3038443",
                "article": null
            }
        },
        {
            "type": "Feature",
            "geometry": {
                "type": "Point",
                "coordinates": [
                    20.411332,
                    44.844205
                ]
            },
            "properties": {
                "name": "Q3040639",
                "article": null
            }
        },
        {
            "type": "Feature",
            "geometry": {
                "type": "Point",
                "coordinates": [
                    20.027222222,
                    44.116944444
                ]
            },
            "properties": {
                "name": "Maljen",
                "article": "https://en.wikipedia.org/wiki/Maljen"
            }
        },
        {
            "type": "Feature",
            "geometry": {
                "type": "Point",
                "coordinates": [
                    20.96784,
                    42.82211
                ]
            },
            "properties": {
                "name": "Vushtrri Castle",
                "article": "https://en.wikipedia.org/wiki/Vushtrri_Castle"
            }
        },
        {
            "type": "Feature",
            "geometry": {
                "type": "Point",
                "coordinates": [
                    21.94222,
                    43.36603
                ]
            },
            "properties": {
                "name": "Čegar",
                "article": "https://en.wikipedia.org/wiki/%C4%8Cegar"
            }
        },
        {
            "type": "Feature",
            "geometry": {
                "type": "Point",
                "coordinates": [
                    21.94219,
                    43.36607
                ]
            },
            "properties": {
                "name": "Čegar",
                "article": "https://en.wikipedia.org/wiki/%C4%8Cegar"
            }
        },
        {
            "type": "Feature",
            "geometry": {
                "type": "Point",
                "coordinates": [
                    20.457,
                    44.8176
                ]
            },
            "properties": {
                "name": "Nikola Spasić Endowment Building in Belgrade",
                "article": "https://en.wikipedia.org/wiki/Nikola_Spasi%C4%87_Endowment_Building_in_Belgrade"
            }
        },
        {
            "type": "Feature",
            "geometry": {
                "type": "Point",
                "coordinates": [
                    20.4113,
                    44.8463
                ]
            },
            "properties": {
                "name": "Livnica Pantelić",
                "article": null
            }
        },
        {
            "type": "Feature",
            "geometry": {
                "type": "Point",
                "coordinates": [
                    20.74558,
                    42.20942
                ]
            },
            "properties": {
                "name": "Fortress of Prizren",
                "article": "https://en.wikipedia.org/wiki/Prizren_Fortress"
            }
        },
        {
            "type": "Feature",
            "geometry": {
                "type": "Point",
                "coordinates": [
                    20.4653134,
                    44.8194578
                ]
            },
            "properties": {
                "name": "Francuska",
                "article": null
            }
        },
        {
            "type": "Feature",
            "geometry": {
                "type": "Point",
                "coordinates": [
                    20.385046,
                    44.807371
                ]
            },
            "properties": {
                "name": "Q3095094",
                "article": null
            }
        },
        {
            "type": "Feature",
            "geometry": {
                "type": "Point",
                "coordinates": [
                    20.2733,
                    44.8975
                ]
            },
            "properties": {
                "name": "Batajnica railway station",
                "article": "https://en.wikipedia.org/wiki/Batajnica_railway_station"
            }
        },
        {
            "type": "Feature",
            "geometry": {
                "type": "Point",
                "coordinates": [
                    20.437113,
                    44.723286
                ]
            },
            "properties": {
                "name": "Kijevo railway station",
                "article": null
            }
        },
        {
            "type": "Feature",
            "geometry": {
                "type": "Point",
                "coordinates": [
                    20.4315,
                    44.7312
                ]
            },
            "properties": {
                "name": "Kneževac railway station",
                "article": null
            }
        },
        {
            "type": "Feature",
            "geometry": {
                "type": "Point",
                "coordinates": [
                    20.4895,
                    44.8195
                ]
            },
            "properties": {
                "name": "Pančevački most railway station",
                "article": null
            }
        },