{
    "type": "FeatureCollection",
    "features": [
        {
            "type": "Feature",
            "geometry": {
                "type": "Point",
                "coordinates": [
                    103.833,
                    1.30361
                ]
            },
            "properties": {
                "name": "Wisma Atria",
                "article": "https://en.wikipedia.org/wiki/Wisma_Atria"
            }
        },
        {
            "type": "Feature",
            "geometry": {
                "type": "Point",
                "coordinates": [
                    103.886944444,
                    1.320555555
                ]
            },
            "properties": {
                "name": "Geylang",
                "article": "https://en.wikipedia.org/wiki/Geylang"
            }
        },
        {
            "type": "Feature",
            "geometry": {
                "type": "Point",
                "coordinates": [
                    103.854027777,
                    1.312313888
                ]
            },
            "properties": {
                "name": "Farrer Park MRT station",
                "article": "https://en.wikipedia.org/wiki/Farrer_Park_MRT_station"
            }
        },
        {
            "type": "Feature",
            "geometry": {
                "type": "Point",
                "coordinates": [
                    103.724722222,
                    1.186127777
                ]
            },
            "properties": {
                "name": "Pulau Pawai",
                "article": "https://en.wikipedia.org/wiki/Pulau_Pawai"
            }
        },
        {
            "type": "Feature",
            "geometry": {
                "type": "Point",
                "coordinates": [
                    103.84029722,
                    1.27956944
                ]
            },
            "properties": {
                "name": "Ee Hoe Hean Club",
                "article": "https://en.wikipedia.org/wiki/Ee_Hoe_Hean_Club"
            }
        },
        {
            "type": "Feature",
            "geometry": {
                "type": "Point",
                "coordinates": [
                    103.83333333,
                    1.215
                ]
            },
            "properties": {
                "name": "Sisters' Islands",
                "article": "https://en.wikipedia.org/wiki/Sisters%27_Islands"
            }
        },
        {
            "type": "Feature",
            "geometry": {
                "type": "Point",
                "coordinates": [
                    103.83,
                    1.248
                ]
            },
            "properties": {
                "name": "Sentosa",
                "article": "https://en.wikipedia.org/wiki/Sentosa"
            }
        },
        {
            "type": "Feature",
            "geometry": {
                "type": "Point",
                "coordinates": [
                    103.8129,
                    1.3228
                ]
            },
            "properties": {
                "name": "Bukit Timah Road",
                "article": "https://en.wikipedia.org/wiki/Bukit_Timah_Road"
            }
        },
        {
            "type": "Feature",
            "geometry": {
                "type": "Point",
                "coordinates": [
                    103.8,
                    1.383333333
                ]
            },
            "properties": {
                "name": "Singapore Island",
                "article": "https://en.wikipedia.org/wiki/Singapore_Island"
            }
        },
        {
            "type": "Feature",
            "geometry": {
                "type": "Point",
                "coordinates": [
                    103.75,
                    1.383333333
                ]
            },
            "properties": {
                "name": "Choa Chu Kang",
                "article": "https://en.wikipedia.org/wiki/Choa_Chu_Kang"
            }
        },
        {
            "type": "Feature",
            "geometry": {
                "type": "Point",
                "coordinates": [
                    103.9225,
                    1.40888889
                ]
            },
            "properties": {
                "name": "Pulau Serangoon",
                "article": "https://en.wikipedia.org/wiki/Coney_Island,_Singapore"
            }
        },
        {
            "type": "Feature",
            "geometry": {
                "type": "Point",
                "coordinates": [
                    103.721388888,
                    1.208333333
                ]
            },
            "properties": {
                "name": "Pulau Sudong",
                "article": "https://en.wikipedia.org/wiki/Pulau_Sudong"
            }
        },
        {
            "type": "Feature",
            "geometry": {
                "type": "Point",
                "coordinates": [
                    103.764444444,
                    1.233333333
                ]
            },
            "properties": {
                "name": "Bukom Island",
                "article": "https://en.wikipedia.org/wiki/Pulau_Bukom"
            }
        },
        {
            "type": "Feature",
            "geometry": {
                "type": "Point",
                "coordinates": [
                    103.736111111,
                    1.170555555
                ]
            },
            "properties": {
                "name": "Pulau Senang",
                "article": "https://en.wikipedia.org/wiki/Pulau_Senang"
            }
        },
        {
            "type": "Feature",
            "geometry": {
                "type": "Point",
                "coordinates": [
                    103.754722222,
                    1.231666666
                ]
            },
            "properties": {
                "name": "Pulau Busing",
                "article": "https://en.wikipedia.org/wiki/Pulau_Busing"
            }
        },
        {
            "type": "Feature",
            "geometry": {
                "type": "Point",
                "coordinates": [
                    104.405883,
                    1.330368
                ]
            },
            "properties": {
                "name": "Pedra Branca",
                "article": "https://en.wikipedia.org/wiki/Pedra_Branca,_Singapore"
            }
        },
        {
            "type": "Feature",
            "geometry": {
                "type": "Point",
                "coordinates": [
                    103.815280555,
                    1.250130555
                ]
            },
            "properties": {
                "name": "Pulau Palawan",
                "article": "https://en.wikipedia.org/wiki/Pulau_Palawan"
            }
        },
        {
            "type": "Feature",
            "geometry": {
                "type": "Point",
                "coordinates": [
                    103.837777777,
                    1.230833333
                ]
            },
            "properties": {
                "name": "Pulau Tekukor",
                "article": "https://en.wikipedia.org/wiki/Pulau_Tekukor"
            }
        },
        {
            "type": "Feature",
            "geometry": {
                "type": "Point",
                "coordinates": [
                    103.86,
                    1.302777777
                ]
            },
            "properties": {
                "name": "Istana Kampong Glam",
                "article": "https://en.wikipedia.org/wiki/Istana_Kampong_Glam"
            }
        },
        {
            "type": "Feature",
            "geometry": {
                "type": "Point",
                "coordinates": [
                    103.739947222,
                    1.328883333
                ]
            },
            "properties": {
                "name": "Jurong East",
                "article": "https://en.wikipedia.org/wiki/Jurong_East"
            }
        },
        {
            "type": "Feature",
            "geometry": {
                "type": "Point",
                "coordinates": [
                    103.861111111,
                    1.222777777
                ]
            },
            "properties": {
                "name": "Kusu Island",
                "article": "https://en.wikipedia.org/wiki/Kusu_Island"
            }
        },
        {
            "type": "Feature",
            "geometry": {
                "type": "Point",
                "coordinates": [
                    103.852219444,
                    1.293238888
                ]
            },
            "properties": {
                "name": "City Hall MRT station",
                "article": "https://en.wikipedia.org/wiki/City_Hall_MRT_station"
            }
        },
        {
            "type": "Feature",
            "geometry": {
                "type": "Point",
                "coordinates": [
                    103.76368,
                    1.35903
                ]
            },
            "properties": {
                "name": "Bukit Batok",
                "article": "https://en.wikipedia.org/wiki/Bukit_Batok"
            }
        },
        {
            "type": "Feature",
            "geometry": {
                "type": "Point",
                "coordinates": [
                    103.96,
                    1.409444444
                ]
            },
            "properties": {
                "name": "Pulau Ubin",
                "article": "https://en.wikipedia.org/wiki/Pulau_Ubin"
            }
        },
        {
            "type": "Feature",
            "geometry": {
                "type": "Point",
                "coordinates": [
                    103.963888888,
                    1.411944444
                ]
            },
            "properties": {
                "name": "Pulau Ubin",
                "article": "https://en.wikipedia.org/wiki/Pulau_Ubin"
            }
        },
        {
            "type": "Feature",
            "geometry": {
                "type": "Point",
                "coordinates": [
                    103.892161111,
                    1.371291666
                ]
            },
            "properties": {
                "name": "Hougang MRT station",
                "article": "https://en.wikipedia.org/wiki/Hougang_MRT_station"
            }
        },
        {
            "type": "Feature",
            "geometry": {
                "type": "Point",
                "coordinates": [
                    103.7625,
                    1.380833333
                ]
            },
            "properties": {
                "name": "Bukit Panjang",
                "article": "https://en.wikipedia.org/wiki/Bukit_Panjang"
            }
        },
        {
            "type": "Feature",
            "geometry": {
                "type": "Point",
                "coordinates": [
                    103.854675,
                    1.276097222
                ]
            },
            "properties": {
                "name": "Marina Bay MRT station",
                "article": "https://en.wikipedia.org/wiki/Marina_Bay_MRT_station"
            }
        },
        {
            "type": "Feature",
            "geometry": {
                "type": "Point",
                "coordinates": [
                    103.695833333,
                    1.266666666
                ]
            },
            "properties": {
                "name": "Jurong Island",
                "article": "https://en.wikipedia.org/wiki/Jurong_Island"
            }
        },
        {
            "type": "Feature",
            "geometry": {
                "type": "Point",
                "coordinates": [
                    103.84,
                    1.280555555
                ]
            },
            "properties": {
                "name": "Outram Park MRT station",
                "article": "https://en.wikipedia.org/wiki/Outram_Park_MRT_station"
            }
        },
        {
            "type": "Feature",
            "geometry": {
                "type": "Point",
                "coordinates": [
                    103.848,
                    1.28247
                ]
            },
            "properties": {
                "name": "Ying Fo Fui Kun",
                "article": "https://en.wikipedia.org/wiki/Ying_Fo_Fui_Kun"
            }
        },
        {
            "type": "Feature",
            "geometry": {
                "type": "Point",
                "coordinates": [
                    104.055833333,
                    1.408055555
                ]
            },
            "properties": {
                "name": "Pulau Tekong",
                "article": "https://en.wikipedia.org/wiki/Pulau_Tekong"
            }
        },
        {
            "type": "Feature",
            "geometry": {
                "type": "Point",
                "coordinates": [
                    104.055833333,
                    1.416666666
                ]
            },
            "properties": {
                "name": "Pulau Tekong",
                "article": "https://en.wikipedia.org/wiki/Pulau_Tekong"
            }
        },
        {
            "type": "Feature",
            "geometry": {
                "type": "Point",
                "coordinates": [
                    103.8475,
                    1.332777777
                ]
            },
            "properties": {
                "name": "Toa Payoh MRT station",
                "article": "https://en.wikipedia.org/wiki/Toa_Payoh_MRT_station"
            }
        },
        {
            "type": "Feature",
            "geometry": {
                "type": "Point",
                "coordinates": [
                    103.85,
                    1.335
                ]
            },
            "properties": {
                "name": "Toa Payoh",
                "article": "https://en.wikipedia.org/wiki/Toa_Payoh"
            }
        },
        {
            "type": "Feature",
            "geometry": {
                "type": "Point",
                "coordinates": [
                    103.835238888,
                    1.429463888
                ]
            },
            "properties": {
                "name": "Yishun MRT station",
                "article": "https://en.wikipedia.org/wiki/Yishun_MRT_station"
            }
        },
        {
            "type": "Feature",
            "geometry": {
                "type": "Point",
                "coordinates": [
                    103.851,
                    1.28389
                ]
            },
            "properties": {
                "name": "Raffles Place",
                "article": "https://en.wikipedia.org/wiki/Raffles_Place"
            }
        },
        {
            "type": "Feature",
            "geometry": {
                "type": "Point",
                "coordinates": [
                    103.895133333,
                    1.391652777
                ]
            },
            "properties": {
                "name": "Sengkang MRT/LRT station",
                "article": "https://en.wikipedia.org/wiki/Sengkang_MRT/LRT_station"
            }
        },
        {
            "type": "Feature",
            "geometry": {
                "type": "Point",
                "coordinates": [
                    103.851,
                    1.35083
                ]
            },
            "properties": {
                "name": "Bishan",
                "article": "https://en.wikipedia.org/wiki/Bishan,_Singapore"
            }
        },
        {
            "type": "Feature",
            "geometry": {
                "type": "Point",
                "coordinates": [
                    103.863008333,
                    1.307166666
                ]
            },
            "properties": {
                "name": "Lavender MRT station",
                "article": "https://en.wikipedia.org/wiki/Lavender_MRT_station"
            }
        },
        {
            "type": "Feature",
            "geometry": {
                "type": "Point",
                "coordinates": [
                    103.798225,
                    1.302558333
                ]
            },
            "properties": {
                "name": "Commonwealth MRT station",
                "article": "https://en.wikipedia.org/wiki/Commonwealth_MRT_station"
            }
        },
        {
            "type": "Feature",
            "geometry": {
                "type": "Point",
                "coordinates": [
                    103.8484,
                    1.2765
                ]
            },
            "properties": {
                "name": "Shenton Way",
                "article": "https://en.wikipedia.org/wiki/Shenton_Way"
            }
        },
        {
            "type": "Feature",
            "geometry": {
                "type": "Point",
                "coordinates": [
                    103.848055555,
                    1.218888888
                ]
            },
            "properties": {
                "name": "Saint John's Island",
                "article": "https://en.wikipedia.org/wiki/Saint_John%27s_Island"
            }
        },
        {
            "type": "Feature",
            "geometry": {
                "type": "Point",
                "coordinates": [
                    103.760277777,
                    1.206666666
                ]
            },
            "properties": {
                "name": "Pulau Semakau",
                "article": "https://en.wikipedia.org/wiki/Pulau_Semakau"
            }
        },
        {
            "type": "Feature",
            "geometry": {
                "type": "Point",
                "coordinates": [
                    103.761944444,
                    1.206111111
                ]
            },
            "properties": {
                "name": "Pulau Semakau",
                "article": "https://en.wikipedia.org/wiki/Pulau_Semakau"
            }
        },
        {
            "type": "Feature",
            "geometry": {
                "type": "Point",
                "coordinates": [
                    103.8325,
                    1.25944
                ]
            },
            "properties": {
                "name": "Brani Island",
                "article": "https://en.wikipedia.org/wiki/Pulau_Brani"
            }
        },
        {
            "type": "Feature",
            "geometry": {
                "type": "Point",
                "coordinates": [
                    103.833333333,
                    1.26
                ]
            },
            "properties": {
                "name": "Brani Island",
                "article": "https://en.wikipedia.org/wiki/Pulau_Brani"
            }
        },
        {
            "type": "Feature",
            "geometry": {
                "type": "Point",
                "coordinates": [
                    103.852794444,
                    1.281102777
                ]
            },
            "properties": {
                "name": "The Sail @ Marina Bay",
                "article": "https://en.wikipedia.org/wiki/The_Sail_@_Marina_Bay"
            }
        },
        {
            "type": "Feature",
            "geometry": {
                "type": "Point",
                "coordinates": [
                    103.770138888,
                    1.225
                ]
            },
            "properties": {
                "name": "Pulau Anak Bukom",
                "article": "https://en.wikipedia.org/wiki/Pulau_Anak_Bukom"
            }
        },
        {
            "type": "Feature",
            "geometry": {
                "type": "Point",
                "coordinates": [
                    103.748501977,
                    1.224300587
                ]
            },
            "properties": {
                "name": "Pulau Hantu",
                "article": "https://en.wikipedia.org/wiki/Pulau_Hantu"
            }
        },
        {
            "type": "Feature",
            "geometry": {
                "type": "Point",
                "coordinates": [
                    103.748611111,
                    1.224722222
                ]
            },
            "properties": {
                "name": "Pulau Hantu",
                "article": "https://en.wikipedia.org/wiki/Pulau_Hantu"
            }
        },
        {
            "type": "Feature",
            "geometry": {
                "type": "Point",
                "coordinates": [
                    103.75,
                    1.226111111
                ]
            },
            "properties": {
                "name": "Pulau Hantu",
                "article": "https://en.wikipedia.org/wiki/Pulau_Hantu"
            }
        },
        {
            "type": "Feature",
            "geometry": {
                "type": "Point",
                "coordinates": [
                    103.74222222,
                    1.164
                ]
            },
            "properties": {
                "name": "Biola",
                "article": "https://en.wikipedia.org/wiki/Pulau_Biola"
            }
        },
        {
            "type": "Feature",
            "geometry": {
                "type": "Point",
                "coordinates": [
                    103.742222222,
                    1.164444444
                ]
            },
            "properties": {
                "name": "Biola",
                "article": "https://en.wikipedia.org/wiki/Pulau_Biola"
            }
        },
        {
            "type": "Feature",
            "geometry": {
                "type": "Point",
                "coordinates": [
                    103.740833333,
                    1.159166666
                ]
            },
            "properties": {
                "name": "Pulau Satumu",
                "article": "https://en.wikipedia.org/wiki/Pulau_Satumu"
            }
        },
        {
            "type": "Feature",
            "geometry": {
                "type": "Point",
                "coordinates": [
                    103.8470785,
                    1.2811079
                ]
            },
            "properties": {
                "name": "Amoy Street",
                "article": "https://en.wikipedia.org/wiki/Amoy_Street,_Singapore"
            }
        },
        {
            "type": "Feature",
            "geometry": {
                "type": "Point",
                "coordinates": [
                    103.8,
                    1.3
                ]
            },
            "properties": {
                "name": "Singapore",
                "article": "https://en.wikipedia.org/wiki/Singapore"
            }
        },
        {
            "type": "Feature",
            "geometry": {
                "type": "Point",
                "coordinates": [
                    103.847,
                    1.28028
                ]
            },
            "properties": {
                "name": "Masjid Al-Abrar",
                "article": "https://en.wikipedia.org/wiki/Masjid_Al-Abrar"
            }
        },
        {
            "type": "Feature",
            "geometry": {
                "type": "Point",
                "coordinates": [
                    103.849,
                    1.29417
                ]
            },
            "properties": {
                "name": "Armenian Street",
                "article": "https://en.wikipedia.org/wiki/Armenian_Street,_Singapore"
            }
        },
        {
            "type": "Feature",
            "geometry": {
                "type": "Point",
                "coordinates": [
                    103.7504,
                    1.4228
                ]
            },
            "properties": {
                "name": "Kranji",
                "article": "https://en.wikipedia.org/wiki/Kranji"
            }
        },
        {
            "type": "Feature",
            "geometry": {
                "type": "Point",
                "coordinates": [
                    103.865637,
                    1.31078
                ]
            },
            "properties": {
                "name": "Kallang",
                "article": "https://en.wikipedia.org/wiki/Kallang"
            }
        },
        {
            "type": "Feature",
            "geometry": {
                "type": "Point",
                "coordinates": [
                    103.863611111,
                    1.299697222
                ]
            },
            "properties": {
                "name": "Nicoll Highway MRT station",
                "article": "https://en.wikipedia.org/wiki/Nicoll_Highway_MRT_station"
            }
        },
        {
            "type": "Feature",
            "geometry": {
                "type": "Point",
                "coordinates": [
                    103.764938888,
                    1.316180555
                ]
            },
            "properties": {
                "name": "Clementi",
                "article": "https://en.wikipedia.org/wiki/Clementi,_Singapore"
            }
        },
        {
            "type": "Feature",
            "geometry": {
                "type": "Point",
                "coordinates": [
                    103.760094,
                    1.380289
                ]
            },
            "properties": {
                "name": "Ten Mile Junction LRT station",
                "article": "https://en.wikipedia.org/wiki/Ten_Mile_Junction_LRT_station"
            }
        },
        {
            "type": "Feature",
            "geometry": {
                "type": "Point",
                "coordinates": [
                    103.761766666,
                    1.378436111
                ]
            },
            "properties": {
                "name": "Bukit Panjang MRT/LRT station",
                "article": "https://en.wikipedia.org/wiki/Bukit_Panjang_MRT/LRT_station"
            }
        },
        {
            "type": "Feature",
            "geometry": {
                "type": "Point",
                "coordinates": [
                    103.906736111,
                    1.306875
                ]
            },
            "properties": {
                "name": "Church of the Holy Family",
                "article": "https://en.wikipedia.org/wiki/Church_of_the_Holy_Family,_Singapore"
            }
        },
        {
            "type": "Feature",
            "geometry": {
                "type": "Point",
                "coordinates": [
                    103.773,
                    1.29386
                ]
            },
            "properties": {
                "name": "Adam Park Guild House",
                "article": "https://en.wikipedia.org/wiki/Adam_Park_Guild_House"
            }
        },
        {
            "type": "Feature",
            "geometry": {
                "type": "Point",
                "coordinates": [
                    103.85822222,
                    1.30225
                ]
            },
            "properties": {
                "name": "Arab Street",
                "article": "https://en.wikipedia.org/wiki/Arab_Street"
            }
        },
        {
            "type": "Feature",
            "geometry": {
                "type": "Point",
                "coordinates": [
                    103.858222222,
                    1.30225
                ]
            },
            "properties": {
                "name": "Arab Street",
                "article": "https://en.wikipedia.org/wiki/Arab_Street"
            }
        },
        {
            "type": "Feature",
            "geometry": {
                "type": "Point",
                "coordinates": [
                    103.905266666,
                    1.387852777
                ]
            },
            "properties": {
                "name": "Bakau LRT station",
                "article": "https://en.wikipedia.org/wiki/Bakau_LRT_station"
            }
        },
        {
            "type": "Feature",
            "geometry": {
                "type": "Point",
                "coordinates": [
                    103.8436001,
                    1.2811542
                ]
            },
            "properties": {
                "name": "Banda Street",
                "article": null
            }
        },
        {
            "type": "Feature",
            "geometry": {
                "type": "Point",
                "coordinates": [
                    103.9273,
                    1.3236
                ]
            },
            "properties": {
                "name": "Bedok",
                "article": "https://en.wikipedia.org/wiki/Bedok"
            }
        },
        {
            "type": "Feature",
            "geometry": {
                "type": "Point",
                "coordinates": [
                    103.851666666,
                    1.300555555
                ]
            },
            "properties": {
                "name": "Bencoolen Street",
                "article": "https://en.wikipedia.org/wiki/Bencoolen_Street"
            }
        },
        {
            "type": "Feature",
            "geometry": {
                "type": "Point",
                "coordinates": [
                    103.850392,
                    1.298888
                ]
            },
            "properties": {
                "name": "Bencoolen MRT station",
                "article": "https://en.wikipedia.org/wiki/Bencoolen_MRT_station"
            }
        },
        {
            "type": "Feature",
            "geometry": {
                "type": "Point",
                "coordinates": [
                    103.85083333,
                    1.29666667
                ]
            },
            "properties": {
                "name": "Bras Basah Road",
                "article": "https://en.wikipedia.org/wiki/Bras_Basah_Road"
            }
        },
        {
            "type": "Feature",
            "geometry": {
                "type": "Point",
                "coordinates": [
                    103.823919444,
                    1.281905555
                ]
            },
            "properties": {
                "name": "Bukit Merah",
                "article": "https://en.wikipedia.org/wiki/Bukit_Merah"
            }
        },
        {
            "type": "Feature",
            "geometry": {
                "type": "Point",
                "coordinates": [
                    103.852,
                    1.29356
                ]
            },
            "properties": {
                "name": "Capitol Building",
                "article": "https://en.wikipedia.org/wiki/Capitol_Building,_Singapore"
            }
        },
        {
            "type": "Feature",
            "geometry": {
                "type": "Point",
                "coordinates": [
                    103.893713,
                    1.39631
                ]
            },
            "properties": {
                "name": "Cheng Lim LRT station",
                "article": "https://en.wikipedia.org/wiki/Cheng_Lim_LRT_station"
            }
        },
        {
            "type": "Feature",
            "geometry": {
                "type": "Point",
                "coordinates": [
                    103.846,
                    1.2822
                ]
            },
            "properties": {
                "name": "Club Street",
                "article": "https://en.wikipedia.org/wiki/Club_Street"
            }
        },
        {
            "type": "Feature",
            "geometry": {
                "type": "Point",
                "coordinates": [
                    103.900156,
                    1.394564
                ]
            },
            "properties": {
                "name": "Compassvale LRT station",
                "article": "https://en.wikipedia.org/wiki/Compassvale_LRT_station"
            }
        },
        {
            "type": "Feature",
            "geometry": {
                "type": "Point",
                "coordinates": [
                    103.853561111,
                    1.290169444
                ]
            },
            "properties": {
                "name": "Connaught Drive",
                "article": "https://en.wikipedia.org/wiki/Connaught_Drive"
            }
        },
        {
            "type": "Feature",
            "geometry": {
                "type": "Point",
                "coordinates": [
                    103.90581,
                    1.39949
                ]
            },
            "properties": {
                "name": "Cove LRT station",
                "article": "https://en.wikipedia.org/wiki/Cove_LRT_station"
            }
        },
        {
            "type": "Feature",
            "geometry": {
                "type": "Point",
                "coordinates": [
                    103.908875,
                    1.404814
                ]
            },
            "properties": {
                "name": "Damai LRT Station, Singapore",
                "article": "https://en.wikipedia.org/wiki/Damai_LRT_station_(Singapore)"
            }
        },
        {
            "type": "Feature",
            "geometry": {
                "type": "Point",
                "coordinates": [
                    103.786705555,
                    1.436269444
                ]
            },
            "properties": {
                "name": "Woodlands",
                "article": "https://en.wikipedia.org/wiki/Woodlands,_Singapore"
            }
        },
        {
            "type": "Feature",
            "geometry": {
                "type": "Point",
                "coordinates": [
                    103.84344444,
                    1.28066667
                ]
            },
            "properties": {
                "name": "Dickenson Hill Road",
                "article": "https://en.wikipedia.org/wiki/Dickenson_Hill_Road"
            }
        },
        {
            "type": "Feature",
            "geometry": {
                "type": "Point",
                "coordinates": [
                    103.84283333,
                    1.27877778
                ]
            },
            "properties": {
                "name": "Duxton Hill",
                "article": "https://en.wikipedia.org/wiki/Duxton_Hill"
            }
        },
        {
            "type": "Feature",
            "geometry": {
                "type": "Point",
                "coordinates": [
                    103.849388888,
                    1.331666666
                ]
            },
            "properties": {
                "name": "ERA APAC Centre",
                "article": "https://en.wikipedia.org/wiki/ERA_APAC_Centre"
            }
        },
        {
            "type": "Feature",
            "geometry": {
                "type": "Point",
                "coordinates": [
                    103.853055555,
                    1.293611111
                ]
            },
            "properties": {
                "name": "Raffles City",
                "article": "https://en.wikipedia.org/wiki/Raffles_City_Singapore"
            }
        },
        {
            "type": "Feature",
            "geometry": {
                "type": "Point",
                "coordinates": [
                    103.852,
                    1.28722
                ]
            },
            "properties": {
                "name": "Empress Place Building",
                "article": "https://en.wikipedia.org/wiki/Empress_Place_Building"
            }
        },
        {
            "type": "Feature",
            "geometry": {
                "type": "Point",
                "coordinates": [
                    103.8452,
                    1.2809
                ]
            },
            "properties": {
                "name": "Erskine Road",
                "article": "https://en.wikipedia.org/wiki/Erskine_Road"
            }
        },
        {
            "type": "Feature",
            "geometry": {
                "type": "Point",
                "coordinates": [
                    103.842839097,
                    1.283748772
                ]
            },
            "properties": {
                "name": "Eu Tong Sen Street",
                "article": "https://en.wikipedia.org/wiki/Eu_Tong_Sen_Street"
            }
        },
        {
            "type": "Feature",
            "geometry": {
                "type": "Point",
                "coordinates": [
                    103.888911,
                    1.398978
                ]
            },
            "properties": {
                "name": "Farmway LRT station",
                "article": "https://en.wikipedia.org/wiki/Farmway_LRT_station"
            }
        },
        {
            "type": "Feature",
            "geometry": {
                "type": "Point",
                "coordinates": [
                    103.876303,
                    1.393208
                ]
            },
            "properties": {
                "name": "Fernvale LRT station",
                "article": "https://en.wikipedia.org/wiki/Fernvale_LRT_station"
            }
        },
        {
            "type": "Feature",
            "geometry": {
                "type": "Point",
                "coordinates": [
                    103.86,
                    1.30219444
                ]
            },
            "properties": {
                "name": "Gedung Kuning",
                "article": "https://en.wikipedia.org/wiki/Gedung_Kuning"
            }
        },
        {
            "type": "Feature",
            "geometry": {
                "type": "Point",
                "coordinates": [
                    103.88,
                    1.31278
                ]
            },
            "properties": {
                "name": "Geylang Road",
                "article": "https://en.wikipedia.org/wiki/Geylang_Road"
            }
        },
        {
            "type": "Feature",
            "geometry": {
                "type": "Point",
                "coordinates": [
                    103.843,
                    1.29861
                ]
            },
            "properties": {
                "name": "House of Tan Yeok Nee",
                "article": "https://en.wikipedia.org/wiki/House_of_Tan_Yeok_Nee"
            }
        },
        {
            "type": "Feature",
            "geometry": {
                "type": "Point",
                "coordinates": [
                    103.769167,
                    1.443889
                ]
            },
            "properties": {
                "name": "Woodlands Train Checkpoint",
                "article": "https://en.wikipedia.org/wiki/Woodlands_Train_Checkpoint"
            }
        },
        {
            "type": "Feature",
            "geometry": {
                "type": "Point",
                "coordinates": [
                    103.706816666,
                    1.3445
                ]
            },
            "properties": {
                "name": "Jurong West",
                "article": "https://en.wikipedia.org/wiki/Jurong_West"
            }
        },
        {
            "type": "Feature",
            "geometry": {
                "type": "Point",
                "coordinates": [
                    103.916353,
                    1.399686
                ]
            },
            "properties": {
                "name": "Kadaloor LRT station",
                "article": "https://en.wikipedia.org/wiki/Kadaloor_LRT_station"
            }
        },
        {
            "type": "Feature",
            "geometry": {
                "type": "Point",
                "coordinates": [
                    103.902194,
                    1.383739
                ]
            },
            "properties": {
                "name": "Kangkar LRT station",
                "article": "https://en.wikipedia.org/wiki/Kangkar_LRT_station"
            }
        },
        {
            "type": "Feature",
            "geometry": {
                "type": "Point",
                "coordinates": [
                    103.903349,
                    1.304704
                ]
            },
            "properties": {
                "name": "Katong",
                "article": "https://en.wikipedia.org/wiki/Katong"
            }
        },
        {
            "type": "Feature",
            "geometry": {
                "type": "Point",
                "coordinates": [
                    103.881319,
                    1.399228
                ]
            },
            "properties": {
                "name": "Kupang LRT station",
                "article": "https://en.wikipedia.org/wiki/Kupang_LRT_station"
            }
        },
        {
            "type": "Feature",
            "geometry": {
                "type": "Point",
                "coordinates": [
                    103.879753,
                    1.394025
                ]
            },
            "properties": {
                "name": "Layar LRT station",
                "article": "https://en.wikipedia.org/wiki/Layar_LRT_station"
            }
        },
        {
            "type": "Feature",
            "geometry": {
                "type": "Point",
                "coordinates": [
                    103.856,
                    1.28969
                ]
            },
            "properties": {
                "name": "Library@Esplanade",
                "article": "https://en.wikipedia.org/wiki/Library@esplanade"
            }
        },
        {
            "type": "Feature",
            "geometry": {
                "type": "Point",
                "coordinates": [
                    103.907777777,
                    1.303055555
                ]
            },
            "properties": {
                "name": "Marine Parade",
                "article": "https://en.wikipedia.org/wiki/Marine_Parade"
            }
        },
        {
            "type": "Feature",
            "geometry": {
                "type": "Point",
                "coordinates": [
                    103.908592,
                    1.397364
                ]
            },
            "properties": {
                "name": "Meridian LRT station",
                "article": "https://en.wikipedia.org/wiki/Meridian_LRT_station"
            }
        },
        {
            "type": "Feature",
            "geometry": {
                "type": "Point",
                "coordinates": [
                    103.912422,
                    1.402369
                ]
            },
            "properties": {
                "name": "Oasis LRT station",
                "article": "https://en.wikipedia.org/wiki/Oasis_LRT_station"
            }
        },
        {
            "type": "Feature",
            "geometry": {
                "type": "Point",
                "coordinates": [
                    103.822305,
                    1.4474788
                ]
            },
            "properties": {
                "name": "Canberra House",
                "article": "https://en.wikipedia.org/wiki/Former_Admiralty_House"
            }
        },
        {
            "type": "Feature",
            "geometry": {
                "type": "Point",
                "coordinates": [
                    103.844,
                    1.28703
                ]
            },
            "properties": {
                "name": "Old Ministry of Labour Building",
                "article": "https://en.wikipedia.org/wiki/Old_Ministry_of_Labour_Building"
            }
        },
        {
            "type": "Feature",
            "geometry": {
                "type": "Point",
                "coordinates": [
                    103.851,
                    1.28972
                ]
            },
            "properties": {
                "name": "Old Supreme Court Building, Singapore",
                "article": "https://en.wikipedia.org/wiki/Former_Supreme_Court,_Singapore"
            }
        },
        {
            "type": "Feature",
            "geometry": {
                "type": "Point",
                "coordinates": [
                    103.849,
                    1.29422
                ]
            },
            "properties": {
                "name": "Old Tao Nan School",
                "article": "https://en.wikipedia.org/wiki/Old_Tao_Nan_School"
            }
        },
        {
            "type": "Feature",
            "geometry": {
                "type": "Point",
                "coordinates": [
                    103.8558378,
                    1.2924958
                ]
            },
            "properties": {
                "name": "One Raffles Link",
                "article": "https://en.wikipedia.org/wiki/One_Raffles_Link"
            }
        },
        {
            "type": "Feature",
            "geometry": {
                "type": "Point",
                "coordinates": [
                    103.649166666,
                    1.364722222
                ]
            },
            "properties": {
                "name": "Pulau Bajau",
                "article": "https://en.wikipedia.org/wiki/Pulau_Bajau"
            }
        },
        {
            "type": "Feature",
            "geometry": {
                "type": "Point",
                "coordinates": [
                    103.7,
                    1.3
                ]
            },
            "properties": {
                "name": "Pulau Samulun",
                "article": "https://en.wikipedia.org/wiki/Pulau_Samulun"
            }
        },
        {
            "type": "Feature",
            "geometry": {
                "type": "Point",
                "coordinates": [
                    104.022222222,
                    1.416666666
                ]
            },
            "properties": {
                "name": "Pulau Tekong Kechil",
                "article": "https://en.wikipedia.org/wiki/Pulau_Tekong_Kechil"
            }
        },
        {
            "type": "Feature",
            "geometry": {
                "type": "Point",
                "coordinates": [
                    103.908972222,
                    1.398277777
                ]
            },
            "properties": {
                "name": "Punggol",
                "article": "https://en.wikipedia.org/wiki/Punggol"
            }
        },
        {
            "type": "Feature",
            "geometry": {
                "type": "Point",
                "coordinates": [
                    103.897736,
                    1.383619
                ]
            },
            "properties": {
                "name": "Ranggung LRT station",
                "article": "https://en.wikipedia.org/wiki/Ranggung_LRT_station"
            }
        },
        {
            "type": "Feature",
            "geometry": {
                "type": "Point",
                "coordinates": [
                    103.890425,
                    1.386614
                ]
            },
            "properties": {
                "name": "Renjong LRT station",
                "article": "https://en.wikipedia.org/wiki/Renjong_LRT_station"
            }
        },
        {
            "type": "Feature",
            "geometry": {
                "type": "Point",
                "coordinates": [
                    103.815,
                    1.31417
                ]
            },
            "properties": {
                "name": "Symphony Lake",
                "article": "https://en.wikipedia.org/wiki/Symphony_Lake_(Singapore)"
            }
        },
        {
            "type": "Feature",
            "geometry": {
                "type": "Point",
                "coordinates": [
                    103.916772,
                    1.394439
                ]
            },
            "properties": {
                "name": "Riviera LRT station",
                "article": "https://en.wikipedia.org/wiki/Riviera_MRT/LRT_station"
            }
        },
        {
            "type": "Feature",
            "geometry": {
                "type": "Point",
                "coordinates": [
                    103.906306,
                    1.391094
                ]
            },
            "properties": {
                "name": "Rumbia LRT station",
                "article": "https://en.wikipedia.org/wiki/Rumbia_LRT_station"
            }
        },
        {
            "type": "Feature",
            "geometry": {
                "type": "Point",
                "coordinates": [
                    103.8663,
                    1.4052
                ]
            },
            "properties": {
                "name": "Seletar",
                "article": "https://en.wikipedia.org/wiki/Seletar"
            }
        },
        {
            "type": "Feature",
            "geometry": {
                "type": "Point",
                "coordinates": [
                    103.818494444,
                    1.449111111
                ]
            },
            "properties": {
                "name": "Sembawang",
                "article": "https://en.wikipedia.org/wiki/Sembawang"
            }
        },
        {
            "type": "Feature",
            "geometry": {
                "type": "Point",
                "coordinates": [
                    103.762292,
                    1.382675
                ]
            },
            "properties": {
                "name": "Senja LRT station",
                "article": "https://en.wikipedia.org/wiki/Senja_LRT_station"
            }
        },
        {
            "type": "Feature",
            "geometry": {
                "type": "Point",
                "coordinates": [
                    103.954166666,
                    1.343333333
                ]
            },
            "properties": {
                "name": "Simei",
                "article": "https://en.wikipedia.org/wiki/Simei"
            }
        },
        {
            "type": "Feature",
            "geometry": {
                "type": "Point",
                "coordinates": [
                    103.843055555,
                    1.303888888
                ]
            },
            "properties": {
                "name": "Sri Temasek",
                "article": "https://en.wikipedia.org/wiki/Sri_Temasek"
            }
        },
        {
            "type": "Feature",
            "geometry": {
                "type": "Point",
                "coordinates": [
                    103.851111111,
                    1.294166666
                ]
            },
            "properties": {
                "name": "Stamford Road",
                "article": "https://en.wikipedia.org/wiki/Stamford_Road"
            }
        },
        {
            "type": "Feature",
            "geometry": {
                "type": "Point",
                "coordinates": [
                    103.898527,
                    1.408057
                ]
            },
            "properties": {
                "name": "Sumang LRT station",
                "article": "https://en.wikipedia.org/wiki/Sumang_LRT_station"
            }
        },
        {
            "type": "Feature",
            "geometry": {
                "type": "Point",
                "coordinates": [
                    103.8189,
                    1.3069
                ]
            },
            "properties": {
                "name": "Tanglin",
                "article": "https://en.wikipedia.org/wiki/Tanglin"
            }
        },
        {
            "type": "Feature",
            "geometry": {
                "type": "Point",
                "coordinates": [
                    103.731853,
                    1.362434
                ]
            },
            "properties": {
                "name": "Tengah",
                "article": "https://en.wikipedia.org/wiki/Tengah,_Singapore"
            }
        },
        {
            "type": "Feature",
            "geometry": {
                "type": "Point",
                "coordinates": [
                    103.874794,
                    1.399356
                ]
            },
            "properties": {
                "name": "Thanggam LRT station",
                "article": "https://en.wikipedia.org/wiki/Thanggam_LRT_station"
            }
        },
        {
            "type": "Feature",
            "geometry": {
                "type": "Point",
                "coordinates": [
                    103.85861,
                    1.29201
                ]
            },
            "properties": {
                "name": "The Pan Pacific Singapore",
                "article": "https://en.wikipedia.org/wiki/Pan_Pacific_Singapore_Hotel"
            }
        },
        {
            "type": "Feature",
            "geometry": {
                "type": "Point",
                "coordinates": [
                    103.85879,
                    1.29225
                ]
            },
            "properties": {
                "name": "The Pan Pacific Singapore",
                "article": "https://en.wikipedia.org/wiki/Pan_Pacific_Singapore_Hotel"
            }
        },
        {
            "type": "Feature",
            "geometry": {
                "type": "Point",
                "coordinates": [
                    103.81777778,
                    1.255
                ]
            },
            "properties": {
                "name": "Tiger Sky Tower",
                "article": "https://en.wikipedia.org/wiki/Tiger_Sky_Tower"
            }
        },
        {
            "type": "Feature",
            "geometry": {
                "type": "Point",
                "coordinates": [
                    103.885772,
                    1.391078
                ]
            },
            "properties": {
                "name": "Tongkang LRT station",
                "article": "https://en.wikipedia.org/wiki/Tongkang_LRT_station"
            }
        },
        {
            "type": "Feature",
            "geometry": {
                "type": "Point",
                "coordinates": [
                    103.65,
                    1.316666666
                ]
            },
            "properties": {
                "name": "Tuas",
                "article": "https://en.wikipedia.org/wiki/Tuas"
            }
        },
        {
            "type": "Feature",
            "geometry": {
                "type": "Point",
                "coordinates": [
                    103.854166666,
                    1.298611111
                ]
            },
            "properties": {
                "name": "Victoria Street, Singapore",
                "article": "https://en.wikipedia.org/wiki/Victoria_Street,_Singapore"
            }
        },
        {
            "type": "Feature",
            "geometry": {
                "type": "Point",
                "coordinates": [
                    103.692,
                    1.387
                ]
            },
            "properties": {
                "name": "Western Water Catchment",
                "article": "https://en.wikipedia.org/wiki/Western_Water_Catchment"
            }
        },
        {
            "type": "Feature",
            "geometry": {
                "type": "Point",
                "coordinates": [
                    103.831,
                    1.30453
                ]
            },
            "properties": {
                "name": "Wheelock Place",
                "article": "https://en.wikipedia.org/wiki/Wheelock_Place"
            }
        },
        {
            "type": "Feature",
            "geometry": {
                "type": "Point",
                "coordinates": [
                    103.786111111,
                    1.294166666
                ]
            },
            "properties": {
                "name": "Queenstown",
                "article": "https://en.wikipedia.org/wiki/Queenstown,_Singapore"
            }
        },
        {
            "type": "Feature",
            "geometry": {
                "type": "Point",
                "coordinates": [
                    103.8925,
                    1.371388888
                ]
            },
            "properties": {
                "name": "Hougang",
                "article": "https://en.wikipedia.org/wiki/Hougang"
            }
        },
        {
            "type": "Feature",
            "geometry": {
                "type": "Point",
                "coordinates": [
                    103.895638888,
                    1.390666666
                ]
            },
            "properties": {
                "name": "Sengkang",
                "article": "https://en.wikipedia.org/wiki/Sengkang"
            }
        },
        {
            "type": "Feature",
            "geometry": {
                "type": "Point",
                "coordinates": [
                    103.849,
                    1.29739
                ]
            },
            "properties": {
                "name": "Kempeitai East District Branch",
                "article": "https://en.wikipedia.org/wiki/Kenpeitai_East_District_Branch"
            }
        },
        {
            "type": "Feature",
            "geometry": {
                "type": "Point",
                "coordinates": [
                    103.8512,
                    1.2853
                ]
            },
            "properties": {
                "name": "UOB Plaza Two",
                "article": null
            }
        },
        {
            "type": "Feature",
            "geometry": {
                "type": "Point",
                "coordinates": [
                    103.723861111,
                    1.323416666
                ]
            },
            "properties": {
                "name": "Jurong railway station",
                "article": "https://en.wikipedia.org/wiki/Jurong_railway_station"
            }
        },
        {
            "type": "Feature",
            "geometry": {
                "type": "Point",
                "coordinates": [
                    103.812,
                    1.26359
                ]
            },
            "properties": {
                "name": "Pulau Keppel",
                "article": "https://en.wikipedia.org/wiki/Keppel_Island,_Singapore"
            }
        },
        {
            "type": "Feature",
            "geometry": {
                "type": "Point",
                "coordinates": [
                    103.811944444,
                    1.263888888
                ]
            },
            "properties": {
                "name": "Pulau Keppel",
                "article": "https://en.wikipedia.org/wiki/Keppel_Island,_Singapore"
            }
        },
        {
            "type": "Feature",
            "geometry": {
                "type": "Point",
                "coordinates": [
                    103.78673333,
                    1.29676667
                ]
            },
            "properties": {
                "name": "Blk71",
                "article": "https://en.wikipedia.org/wiki/Blk71"
            }
        },
        {
            "type": "Feature",
            "geometry": {
                "type": "Point",
                "coordinates": [
                    103.854166666,
                    1.230277777
                ]
            },
            "properties": {
                "name": "Pulau Seringat",
                "article": "https://en.wikipedia.org/wiki/Pulau_Seringat"
            }
        },
        {
            "type": "Feature",
            "geometry": {
                "type": "Point",
                "coordinates": [
                    103.853066666,
                    1.298933333
                ]
            },
            "properties": {
                "name": "National Design Centre",
                "article": "https://en.wikipedia.org/wiki/National_Design_Centre"
            }
        },
        {
            "type": "Feature",
            "geometry": {
                "type": "Point",
                "coordinates": [
                    103.81,
                    1.41386
                ]
            },
            "properties": {
                "name": "Mandai Crematorium and Columbarium",
                "article": "https://en.wikipedia.org/wiki/Mandai_Crematorium_and_Columbarium"
            }
        },
        {
            "type": "Feature",
            "geometry": {
                "type": "Point",
                "coordinates": [
                    103.776375,
                    1.35468056
                ]
            },
            "properties": {
                "name": "Bukit Timah",
                "article": "https://en.wikipedia.org/wiki/Bukit_Timah"
            }
        },
        {
            "type": "Feature",
            "geometry": {
                "type": "Point",
                "coordinates": [
                    103.80324,
                    1.28259
                ]
            },
            "properties": {
                "name": "The Interlace",
                "article": "https://en.wikipedia.org/wiki/The_Interlace"
            }
        },
        {
            "type": "Feature",
            "geometry": {
                "type": "Point",
                "coordinates": [
                    103.8438,
                    1.3303
                ]
            },
            "properties": {
                "name": "Q24036151",
                "article": null
            }
        },
        {
            "type": "Feature",
            "geometry": {
                "type": "Point",
                "coordinates": [
                    103.685,
                    1.434166666
                ]
            },
            "properties": {
                "name": "Pulau Sarimbun",
                "article": "https://en.wikipedia.org/wiki/Pulau_Sarimbun"
            }
        },
        {
            "type": "Feature",
            "geometry": {
                "type": "Point",
                "coordinates": [
                    103.685,
                    1.43422
                ]
            },
            "properties": {
                "name": "Pulau Sarimbun",
                "article": "https://en.wikipedia.org/wiki/Pulau_Sarimbun"
            }
        },
        {
            "type": "Feature",
            "geometry": {
                "type": "Point",
                "coordinates": [
                    103.85536,
                    1.22225983
                ]
            },
            "properties": {
                "name": "Lazarus Island",
                "article": "https://en.wikipedia.org/wiki/Lazarus_Island"
            }
        },
        {
            "type": "Feature",
            "geometry": {
                "type": "Point",
                "coordinates": [
                    103.8725,
                    1.3375
                ]
            },
            "properties": {
                "name": "Bidadari",
                "article": "https://en.wikipedia.org/wiki/Bidadari,_Singapore"
            }
        },
        {
            "type": "Feature",
            "geometry": {
                "type": "Point",
                "coordinates": [
                    103.8622,
                    1.4433
                ]
            },
            "properties": {
                "name": "Pulau Seletar",
                "article": "https://en.wikipedia.org/wiki/Pulau_Seletar"
            }
        },
        {
            "type": "Feature",
            "geometry": {
                "type": "Point",
                "coordinates": [
                    103.841666666,
                    1.289722222
                ]
            },
            "properties": {
                "name": "Pulau Saigon",
                "article": "https://en.wikipedia.org/wiki/Pulau_Saigon"
            }
        },
        {
            "type": "Feature",
            "geometry": {
                "type": "Point",
                "coordinates": [
                    103.8411,
                    1.289922
                ]
            },
            "properties": {
                "name": "Pulau Saigon",
                "article": "https://en.wikipedia.org/wiki/Pulau_Saigon"
            }
        },
        {
            "type": "Feature",
            "geometry": {
                "type": "Point",
                "coordinates": [
                    103.81324,
                    1.2789
                ]
            },
            "properties": {
                "name": "Alkaff Mansion",
                "article": "https://en.wikipedia.org/wiki/Alkaff_Mansion"
            }
        },
        {
            "type": "Feature",
            "geometry": {
                "type": "Point",
                "coordinates": [
                    103.8442,
                    1.2826
                ]
            },
            "properties": {
                "name": "Lai Chun Yuen Opera House",
                "article": "https://en.wikipedia.org/wiki/Lai_Chun_Yuen_Opera_House"
            }
        },
        {
            "type": "Feature",
            "geometry": {
                "type": "Point",
                "coordinates": [
                    103.852322,
                    1.3428081
                ]
            },
            "properties": {
                "name": "Singapore Islamic Hub",
                "article": "https://en.wikipedia.org/wiki/Singapore_Islamic_Hub"
            }
        },
        {
            "type": "Feature",
            "geometry": {
                "type": "Point",
                "coordinates": [
                    103.8513587,
                    1.2934872
                ]
            },
            "properties": {
                "name": "Capitol Theatre",
                "article": "https://en.wikipedia.org/wiki/Capitol_Theatre,_Singapore"
            }
        },
        {
            "type": "Feature",
            "geometry": {
                "type": "Point",
                "coordinates": [
                    103.72528,
                    1.45056
                ]
            },
            "properties": {
                "name": "Q41749069",
                "article": null
            }
        },
        {
            "type": "Feature",
            "geometry": {
                "type": "Point",
                "coordinates": [
                    103.81472,
                    1.26028
                ]
            },
            "properties": {
                "name": "Q41794986",
                "article": null
            }
        },
        {
            "type": "Feature",
            "geometry": {
                "type": "Point",
                "coordinates": [
                    104.05583,
                    1.43306
                ]
            },
            "properties": {
                "name": "Q41794984",
                "article": null
            }
        },
        {
            "type": "Feature",
            "geometry": {
                "type": "Point",
                "coordinates": [
                    103.70389,
                    1.28444
                ]
            },
            "properties": {
                "name": "Q42112769",
                "article": null
            }
        },
        {
            "type": "Feature",
            "geometry": {
                "type": "Point",
                "coordinates": [
                    103.78306,
                    1.29333
                ]
            },
            "properties": {
                "name": "Kent Ridge",
                "article": "https://en.wikipedia.org/wiki/Kent_Ridge"
            }
        },
        {
            "type": "Feature",
            "geometry": {
                "type": "Point",
                "coordinates": [
                    103.8917016,
                    1.3725026
                ]
            },
            "properties": {
                "name": "Cheng San Public Library",
                "article": "https://en.wikipedia.org/wiki/Cheng_San_Public_Library"
            }
        },
        {
            "type": "Feature",
            "geometry": {
                "type": "Point",
                "coordinates": [
                    103.70694,
                    1.21639
                ]
            },
            "properties": {
                "name": "Q45767910",
                "article": null
            }
        },
        {
            "type": "Feature",
            "geometry": {
                "type": "Point",
                "coordinates": [
                    103.81055556,
                    1.31111111
                ]
            },
            "properties": {
                "name": "Istana Tyersall",
                "article": "https://en.wikipedia.org/wiki/Istana_Tyersall"
            }
        },
        {
            "type": "Feature",
            "geometry": {
                "type": "Point",
                "coordinates": [
                    103.85097222,
                    1.334
                ]
            },
            "properties": {
                "name": "600 @ Toa Payoh",
                "article": "https://en.wikipedia.org/wiki/600_@_Toa_Payoh"
            }
        },
        {
            "type": "Feature",
            "geometry": {
                "type": "Point",
                "coordinates": [
                    103.81222222,
                    1.30875
                ]
            },
            "properties": {
                "name": "Istana Woodneuk",
                "article": "https://en.wikipedia.org/wiki/Istana_Woodneuk"
            }
        },
        {
            "type": "Feature",
            "geometry": {
                "type": "Point",
                "coordinates": [
                    103.84736111,
                    1.29194444
                ]
            },
            "properties": {
                "name": "Raffles House",
                "article": "https://en.wikipedia.org/wiki/Raffles_House"
            }
        },
        {
            "type": "Feature",
            "geometry": {
                "type": "Point",
                "coordinates": [
                    103.852,
                    1.29555556
                ]
            },
            "properties": {
                "name": "Caldwell House, Singapore",
                "article": "https://en.wikipedia.org/wiki/Caldwell_House,_Singapore"
            }
        },
        {
            "type": "Feature",
            "geometry": {
                "type": "Point",
                "coordinates": [
                    103.70988889,
                    1.44769444
                ]
            },
            "properties": {
                "name": "Cashin House",
                "article": "https://en.wikipedia.org/wiki/Cashin_House"
            }
        },
        {
            "type": "Feature",
            "geometry": {
                "type": "Point",
                "coordinates": [
                    103.85005556,
                    1.29188889
                ]
            },
            "properties": {
                "name": "Coleman House",
                "article": "https://en.wikipedia.org/wiki/Coleman_House,_Singapore"
            }
        },
        {
            "type": "Feature",
            "geometry": {
                "type": "Point",
                "coordinates": [
                    103.8535,
                    1.28711111
                ]
            },
            "properties": {
                "name": "The Fullerton Waterboat House",
                "article": "https://en.wikipedia.org/wiki/The_Fullerton_Waterboat_House"
            }
        },
        {
            "type": "Feature",
            "geometry": {
                "type": "Point",
                "coordinates": [
                    103.71556,
                    1.30306
                ]
            },
            "properties": {
                "name": "Pulau Damar Laut",
                "article": null
            }
        },
        {
            "type": "Feature",
            "geometry": {
                "type": "Point",
                "coordinates": [
                    103.69417,
                    1.28833
                ]
            },
            "properties": {
                "name": "Anak Pulau",
                "article": null
            }
        },
        {
            "type": "Feature",
            "geometry": {
                "type": "Point",
                "coordinates": [
                    103.844722222,
                    1.2475
                ]
            },
            "properties": {
                "name": "Duran Darat",
                "article": null
            }
        },
        {
            "type": "Feature",
            "geometry": {
                "type": "Point",
                "coordinates": [
                    103.71639,
                    1.26778
                ]
            },
            "properties": {
                "name": "Q49670766",
                "article": null
            }
        },
        {
            "type": "Feature",
            "geometry": {
                "type": "Point",
                "coordinates": [
                    103.70056,
                    1.27694
                ]
            },
            "properties": {
                "name": "Q49670765",
                "article": null
            }
        },
        {
            "type": "Feature",
            "geometry": {
                "type": "Point",
                "coordinates": [
                    103.73694,
                    1.18944
                ]
            },
            "properties": {
                "name": "Q49670953",
                "article": null
            }
        },
        {
            "type": "Feature",
            "geometry": {
                "type": "Point",
                "coordinates": [
                    103.765277777,
                    1.2275
                ]
            },
            "properties": {
                "name": "Pulau Bukum Kechil",
                "article": null
            }
        },
        {
            "type": "Feature",
            "geometry": {
                "type": "Point",
                "coordinates": [
                    103.84667,
                    1.23889
                ]
            },
            "properties": {
                "name": "Q49671087",
                "article": null
            }
        },
        {
            "type": "Feature",
            "geometry": {
                "type": "Point",
                "coordinates": [
                    104.06694,
                    1.43611
                ]
            },
            "properties": {
                "name": "Q49671254",
                "article": null
            }
        },
        {
            "type": "Feature",
            "geometry": {
                "type": "Point",
                "coordinates": [
                    103.786666666,
                    1.215277777
                ]
            },
            "properties": {
                "name": "Pulau Jong",
                "article": null
            }
        },
        {
            "type": "Feature",
            "geometry": {
                "type": "Point",
                "coordinates": [
                    103.949166666,
                    1.403611111
                ]
            },
            "properties": {
                "name": "Pulau Ketam",
                "article": null
            }
        },
        {
            "type": "Feature",
            "geometry": {
                "type": "Point",
                "coordinates": [
                    103.633333333,
                    1.333333333
                ]
            },
            "properties": {
                "name": "Pulau Merawang",
                "article": null
            }
        },
        {
            "type": "Feature",
            "geometry": {
                "type": "Point",
                "coordinates": [
                    103.71222,
                    1.28639
                ]
            },
            "properties": {
                "name": "Q49672206",
                "article": null
            }
        },
        {
            "type": "Feature",
            "geometry": {
                "type": "Point",
                "coordinates": [
                    103.72194,
                    1.285
                ]
            },
            "properties": {
                "name": "Q49672219",
                "article": null
            }
        },
        {
            "type": "Feature",
            "geometry": {
                "type": "Point",
                "coordinates": [
                    103.72278,
                    1.28833
                ]
            },
            "properties": {
                "name": "Q49672223",
                "article": null
            }
        },
        {
            "type": "Feature",
            "geometry": {
                "type": "Point",
                "coordinates": [
                    103.71667,
                    1.28
                ]
            },
            "properties": {
                "name": "Pulau Meskol",
                "article": null
            }
        },
        {
            "type": "Feature",
            "geometry": {
                "type": "Point",
                "coordinates": [
                    103.66139,
                    1.39806
                ]
            },
            "properties": {
                "name": "Q49672516",
                "article": null
            }
        },
        {
            "type": "Feature",
            "geometry": {
                "type": "Point",
                "coordinates": [
                    103.681388888,
                    1.2775
                ]
            },
            "properties": {
                "name": "Pulau Pesek Kecil",
                "article": null
            }
        },
        {
            "type": "Feature",
            "geometry": {
                "type": "Point",
                "coordinates": [
                    103.68833,
                    1.28528
                ]
            },
            "properties": {
                "name": "Q49672541",
                "article": null
            }
        },
        {
            "type": "Feature",
            "geometry": {
                "type": "Point",
                "coordinates": [
                    103.762777777,
                    1.281944444
                ]
            },
            "properties": {
                "name": "Pulau Retan Laut",
                "article": null
            }
        },
        {
            "type": "Feature",
            "geometry": {
                "type": "Point",
                "coordinates": [
                    103.778055555,
                    1.207222222
                ]
            },
            "properties": {
                "name": "Pulau Sakeng",
                "article": null
            }
        },
        {
            "type": "Feature",
            "geometry": {
                "type": "Point",
                "coordinates": [
                    104.066388888,
                    1.395
                ]
            },
            "properties": {
                "name": "Pulau Sanyongkong",
                "article": null
            }
        },
        {
            "type": "Feature",
            "geometry": {
                "type": "Point",
                "coordinates": [
                    103.795,
                    1.20583
                ]
            },
            "properties": {
                "name": "Sebarok Island",
                "article": null
            }
        },
        {
            "type": "Feature",
            "geometry": {
                "type": "Point",
                "coordinates": [
                    103.733333333,
                    1.283333333
                ]
            },
            "properties": {
                "name": "Pulau Seburus Luar",
                "article": null
            }
        },
        {
            "type": "Feature",
            "geometry": {
                "type": "Point",
                "coordinates": [
                    103.733333333,
                    1.266666666
                ]
            },
            "properties": {
                "name": "Pulau Seburus Dalam",
                "article": null
            }
        },
        {
            "type": "Feature",
            "geometry": {
                "type": "Point",
                "coordinates": [
                    103.818333333,
                    1.259444444
                ]
            },
            "properties": {
                "name": "Pulau Selegu",
                "article": null
            }
        },
        {
            "type": "Feature",
            "geometry": {
                "type": "Point",
                "coordinates": [
                    104.031666666,
                    1.412777777
                ]
            },
            "properties": {
                "name": "Q49672864",
                "article": null
            }
        },
        {
            "type": "Feature",
            "geometry": {
                "type": "Point",
                "coordinates": [
                    103.7275,
                    1.2775
                ]
            },
            "properties": {
                "name": "Pulau Seraya",
                "article": null
            }
        },
        {
            "type": "Feature",
            "geometry": {
                "type": "Point",
                "coordinates": [
                    103.847777777,
                    1.226944444
                ]
            },
            "properties": {
                "name": "Pulau Seringat Kecil",
                "article": null
            }
        },
        {
            "type": "Feature",
            "geometry": {
                "type": "Point",
                "coordinates": [
                    103.756388888,
                    1.232777777
                ]
            },
            "properties": {
                "name": "Pulau Ular",
                "article": null
            }
        },
        {
            "type": "Feature",
            "geometry": {
                "type": "Point",
                "coordinates": [
                    103.682586,
                    1.343212
                ]
            },
            "properties": {
                "name": "The Hive, Singapore",
                "article": "https://en.wikipedia.org/wiki/The_Hive,_Singapore"
            }
        },
        {
            "type": "Feature",
            "geometry": {
                "type": "Point",
                "coordinates": [
                    103.85138889,
                    1.29302778
                ]
            },
            "properties": {
                "name": "Capitol Centre, Singapore",
                "article": "https://en.wikipedia.org/wiki/Capitol_Centre,_Singapore"
            }
        },
        {
            "type": "Feature",
            "geometry": {
                "type": "Point",
                "coordinates": [
                    103.8457,
                    1.2517
                ]
            },
            "properties": {
                "name": "Q54805348",
                "article": null
            }
        },
        {
            "type": "Feature",
            "geometry": {
                "type": "Point",
                "coordinates": [
                    103.8425,
                    1.283
                ]
            },
            "properties": {
                "name": "Kenpeitai West District Branch",
                "article": "https://en.wikipedia.org/wiki/Kenpeitai_West_District_Branch"
            }
        },
        {
            "type": "Feature",
            "geometry": {
                "type": "Point",
                "coordinates": [
                    103.85686111,
                    1.29672222
                ]
            },
            "properties": {
                "name": "Shaw Tower (Singapore)",
                "article": "https://en.wikipedia.org/wiki/Shaw_Tower,_Singapore"
            }
        },
        {
            "type": "Feature",
            "geometry": {
                "type": "Point",
                "coordinates": [
                    103.8438834,
                    1.251778
                ]
            },
            "properties": {
                "name": "Q56301654",
                "article": null
            }
        },
        {
            "type": "Feature",
            "geometry": {
                "type": "Point",
                "coordinates": [
                    103.838056,
                    1.253056
                ]
            },
            "properties": {
                "name": "Q56301780",
                "article": null
            }
        },
        {
            "type": "Feature",
            "geometry": {
                "type": "Point",
                "coordinates": [
                    103.844115,
                    1.273563
                ]
            },
            "properties": {
                "name": "Q56301897",
                "article": null
            }
        },
        {
            "type": "Feature",
            "geometry": {
                "type": "Point",
                "coordinates": [
                    103.84852778,
                    1.29738611
                ]
            },
            "properties": {
                "name": "YMCA Building, Singapore",
                "article": "https://en.wikipedia.org/wiki/YMCA_Building,_Singapore"
            }
        },
        {
            "type": "Feature",
            "geometry": {
                "type": "Point",
                "coordinates": [
                    103.739975,
                    1.333319444
                ]
            },
            "properties": {
                "name": "Jurong Entertainment Centre",
                "article": "https://en.wikipedia.org/wiki/Jurong_Entertainment_Centre"
            }
        },
        {
            "type": "Feature",
            "geometry": {
                "type": "Point",
                "coordinates": [
                    103.82291667,
                    1.26666667
                ]
            },
            "properties": {
                "name": "Istana Lama",
                "article": "https://en.wikipedia.org/wiki/Istana_Lama"
            }
        },
        {
            "type": "Feature",
            "geometry": {
                "type": "Point",
                "coordinates": [
                    103.85523,
                    1.2989
                ]
            },
            "properties": {
                "name": "Malay Street",
                "article": null
            }
        },
        {
            "type": "Feature",
            "geometry": {
                "type": "Point",
                "coordinates": [
                    103.8502,
                    1.2842
                ]
            },
            "properties": {
                "name": "CapitaSpring",
                "article": "https://en.wikipedia.org/wiki/CapitaSpring"
            }
        },
        {
            "type": "Feature",
            "geometry": {
                "type": "Point",
                "coordinates": [
                    103.8402,
                    1.2912
                ]
            },
            "properties": {
                "name": "72-13",
                "article": "https://en.wikipedia.org/wiki/72-13"
            }
        },
        {
            "type": "Feature",
            "geometry": {
                "type": "Point",
                "coordinates": [
                    103.8466,
                    1.2983
                ]
            },
            "properties": {
                "name": "Amber Mansions",
                "article": "https://en.wikipedia.org/wiki/Amber_Mansions"
            }
        },
        {
            "type": "Feature",
            "geometry": {
                "type": "Point",
                "coordinates": [
                    103.834,
                    1.2807
                ]
            },
            "properties": {
                "name": "Bowyer Block",
                "article": "https://en.wikipedia.org/wiki/Bowyer_Block"
            }
        },
        {
            "type": "Feature",
            "geometry": {
                "type": "Point",
                "coordinates": [
                    103.830370589,
                    1.294714066
                ]
            },
            "properties": {
                "name": "Church of St Bernadette",
                "article": null
            }
        },
        {
            "type": "Feature",
            "geometry": {
                "type": "Point",
                "coordinates": [
                    103.8422,
                    1.2886
                ]
            },
            "properties": {
                "name": "Ellenborough Market",
                "article": "https://en.wikipedia.org/wiki/Ellenborough_Market"
            }
        },
        {
            "type": "Feature",
            "geometry": {
                "type": "Point",
                "coordinates": [
                    103.8543,
                    1.2975
                ]
            },
            "properties": {
                "name": "National Library Building (Victoria Street, Singapore)",
                "article": null
            }
        },
        {
            "type": "Feature",
            "geometry": {
                "type": "Point",
                "coordinates": [
                    103.8481,
                    1.3032
                ]
            },
            "properties": {
                "name": "Selegie House",
                "article": "https://en.wikipedia.org/wiki/Selegie_House"
            }
        },
        {
            "type": "Feature",
            "geometry": {
                "type": "Point",
                "coordinates": [
                    103.835370639,
                    1.33131325
                ]
            },
            "properties": {
                "name": "Senior Police Officers' Mess",
                "article": null
            }
        },
        {
            "type": "Feature",
            "geometry": {
                "type": "Point",
                "coordinates": [
                    103.8441,
                    1.2989
                ]
            },
            "properties": {
                "name": "SMA House",
                "article": "https://en.wikipedia.org/wiki/SMA_House"
            }
        },
        {
            "type": "Feature",
            "geometry": {
                "type": "Point",
                "coordinates": [
                    103.8434,
                    1.2954
                ]
            },
            "properties": {
                "name": "Teochew Building",
                "article": "https://en.wikipedia.org/wiki/Teochew_Building"
            }
        },
        {
            "type": "Feature",
            "geometry": {
                "type": "Point",
                "coordinates": [
                    103.85066,
                    1.30201
                ]
            },
            "properties": {
                "name": "Tamil Methodist Church",
                "article": null
            }
        },
        {
            "type": "Feature",
            "geometry": {
                "type": "Point",
                "coordinates": [
                    103.8041,
                    1.291
                ]
            },
            "properties": {
                "name": "Tiong Ghee Temple",
                "article": "https://en.wikipedia.org/wiki/Tiong_Ghee_Temple"
            }
        },
        {
            "type": "Feature",
            "geometry": {
                "type": "Point",
                "coordinates": [
                    103.7707,
                    1.3491
                ]
            },
            "properties": {
                "name": "Former Bukit Timah Fire Station",
                "article": "https://en.wikipedia.org/wiki/Former_Bukit_Timah_Fire_Station"
            }
        },
        {
            "type": "Feature",
            "geometry": {
                "type": "Point",
                "coordinates": [
                    103.83587,
                    1.288145
                ]
            },
            "properties": {
                "name": "Furama Riverfront",
                "article": null
            }
        },
        {
            "type": "Feature",
            "geometry": {
                "type": "Point",
                "coordinates": [
                    103.809960573,
                    1.314536706
                ]
            },
            "properties": {
                "name": "Inverturret",
                "article": null
            }
        },
        {
            "type": "Feature",
            "geometry": {
                "type": "Point",
                "coordinates": [
                    103.8456,
                    1.2783
                ]
            },
            "properties": {
                "name": "Maxwell Chambers Suites",
                "article": "https://en.wikipedia.org/wiki/Maxwell_Chambers_Suites"
            }
        },
        {
            "type": "Feature",
            "geometry": {
                "type": "Point",
                "coordinates": [
                    103.8943802,
                    1.3164938
                ]
            },
            "properties": {
                "name": "Wisma Geylang Serai",
                "article": null
            }
        },
        {
            "type": "Feature",
            "geometry": {
                "type": "Point",
                "coordinates": [
                    103.8523,
                    1.3232
                ]
            },
            "properties": {
                "name": "Whampoa Makan Place",
                "article": "https://en.wikipedia.org/wiki/Whampoa_Makan_Place"
            }
        },
        {
            "type": "Feature",
            "geometry": {
                "type": "Point",
                "coordinates": [
                    103.8493,
                    1.3524
                ]
            },
            "properties": {
                "name": "Sky Habitat",
                "article": "https://en.wikipedia.org/wiki/Sky_Habitat"
            }
        },
        {
            "type": "Feature",
            "geometry": {
                "type": "Point",
                "coordinates": [
                    103.866203518,
                    1.335986765
                ]
            },
            "properties": {
                "name": "The Town Council Potong Pasir",
                "article": null
            }
        },
        {
            "type": "Feature",
            "geometry": {
                "type": "Point",
                "coordinates": [
                    103.842633002,
                    1.288277625
                ]
            },
            "properties": {
                "name": "HDB Chin Swee Service Centre",
                "article": null
            }
        },
        {
            "type": "Feature",
            "geometry": {
                "type": "Point",
                "coordinates": [
                    103.87033443,
                    1.321837388
                ]
            },
            "properties": {
                "name": "Jalan Besar Town Council",
                "article": null
            }
        },
        {
            "type": "Feature",
            "geometry": {
                "type": "Point",
                "coordinates": [
                    103.946731879,
                    1.373195999
                ]
            },
            "properties": {
                "name": "Pasir Ris - Punggol Town Council (Pasir Ris Office)",
                "article": null
            }
        },
        {
            "type": "Feature",
            "geometry": {
                "type": "Point",
                "coordinates": [
                    103.908199206,
                    1.404160391
                ]
            },
            "properties": {
                "name": "Pasir Ris - Punggol Town Council (Punggol Office)",
                "article": null
            }
        },
        {
            "type": "Feature",
            "geometry": {
                "type": "Point",
                "coordinates": [
                    103.752900542,
                    1.357086968
                ]
            },
            "properties": {
                "name": "Bukit Gombak Branch Office",
                "article": null
            }
        },
        {
            "type": "Feature",
            "geometry": {
                "type": "Point",
                "coordinates": [
                    103.78732914,
                    1.312363997
                ]
            },
            "properties": {
                "name": "Ghim Mo Office",
                "article": null
            }
        },
        {
            "type": "Feature",
            "geometry": {
                "type": "Point",
                "coordinates": [
                    103.745446635,
                    1.385292053
                ]
            },
            "properties": {
                "name": "Chua Chu Kang Town Council Main Office",
                "article": null
            }
        },
        {
            "type": "Feature",
            "geometry": {
                "type": "Point",
                "coordinates": [
                    103.945157549,
                    1.345070042
                ]
            },
            "properties": {
                "name": "Tampines Town Council Office",
                "article": null
            }
        },
        {
            "type": "Feature",
            "geometry": {
                "type": "Point",
                "coordinates": [
                    103.930716626,
                    1.327522336
                ]
            },
            "properties": {
                "name": "East Coast Town Council Office",
                "article": null
            }
        },
        {
            "type": "Feature",
            "geometry": {
                "type": "Point",
                "coordinates": [
                    103.896962411,
                    1.383093699
                ]
            },
            "properties": {
                "name": "Sengkang Town Council Main Office",
                "article": null
            }
        },
        {
            "type": "Feature",
            "geometry": {
                "type": "Point",
                "coordinates": [
                    103.907009306,
                    1.391836645
                ]
            },
            "properties": {
                "name": "Sengkang Town Council Branch Office",
                "article": null
            }
        },
        {
            "type": "Feature",
            "geometry": {
                "type": "Point",
                "coordinates": [
                    103.7729737,
                    1.37899352
                ]
            },
            "properties": {
                "name": "Bangkit Office",
                "article": null
            }
        },
        {
            "type": "Feature",
            "geometry": {
                "type": "Point",
                "coordinates": [
                    103.838568872,
                    1.288913826
                ]
            },