{
    "type": "FeatureCollection",
    "features": [
        {
            "type": "Feature",
            "geometry": {
                "type": "Point",
                "coordinates": [
                    14.293611111,
                    45.962222222
                ]
            },
            "properties": {
                "name": "Vrhnika",
                "article": "https://en.wikipedia.org/wiki/Vrhnika"
            }
        },
        {
            "type": "Feature",
            "geometry": {
                "type": "Point",
                "coordinates": [
                    14.506111111,
                    46.051388888
                ]
            },
            "properties": {
                "name": "Ljubljana",
                "article": "https://en.wikipedia.org/wiki/Ljubljana"
            }
        },
        {
            "type": "Feature",
            "geometry": {
                "type": "Point",
                "coordinates": [
                    15.633333333,
                    46.55
                ]
            },
            "properties": {
                "name": "Maribor",
                "article": "https://en.wikipedia.org/wiki/Maribor"
            }
        },
        {
            "type": "Feature",
            "geometry": {
                "type": "Point",
                "coordinates": [
                    13.7306571,
                    45.547542728
                ]
            },
            "properties": {
                "name": "Koper",
                "article": "https://en.wikipedia.org/wiki/Koper"
            }
        },
        {
            "type": "Feature",
            "geometry": {
                "type": "Point",
                "coordinates": [
                    15.264128741,
                    46.22909194
                ]
            },
            "properties": {
                "name": "Celje",
                "article": "https://en.wikipedia.org/wiki/Celje"
            }
        },
        {
            "type": "Feature",
            "geometry": {
                "type": "Point",
                "coordinates": [
                    14.35561,
                    46.23887
                ]
            },
            "properties": {
                "name": "Kranj",
                "article": "https://en.wikipedia.org/wiki/Kranj"
            }
        },
        {
            "type": "Feature",
            "geometry": {
                "type": "Point",
                "coordinates": [
                    13.836667,
                    46.378333
                ]
            },
            "properties": {
                "name": "Triglav",
                "article": "https://en.wikipedia.org/wiki/Triglav"
            }
        },
        {
            "type": "Feature",
            "geometry": {
                "type": "Point",
                "coordinates": [
                    13.568531066,
                    45.527107649
                ]
            },
            "properties": {
                "name": "Piran",
                "article": "https://en.wikipedia.org/wiki/Piran"
            }
        },
        {
            "type": "Feature",
            "geometry": {
                "type": "Point",
                "coordinates": [
                    13.714089,
                    46.522986
                ]
            },
            "properties": {
                "name": "Peč",
                "article": "https://en.wikipedia.org/wiki/Dreil%C3%A4ndereck"
            }
        },
        {
            "type": "Feature",
            "geometry": {
                "type": "Point",
                "coordinates": [
                    15.162777777,
                    45.798055555
                ]
            },
            "properties": {
                "name": "Novo Mesto",
                "article": "https://en.wikipedia.org/wiki/Novo_Mesto"
            }
        },
        {
            "type": "Feature",
            "geometry": {
                "type": "Point",
                "coordinates": [
                    13.905237912,
                    45.888356136
                ]
            },
            "properties": {
                "name": "Ajdovščina",
                "article": "https://en.wikipedia.org/wiki/Ajdov%C5%A1%C4%8Dina"
            }
        },
        {
            "type": "Feature",
            "geometry": {
                "type": "Point",
                "coordinates": [
                    13.552222222,
                    46.337777777
                ]
            },
            "properties": {
                "name": "Bovec",
                "article": "https://en.wikipedia.org/wiki/Bovec"
            }
        },
        {
            "type": "Feature",
            "geometry": {
                "type": "Point",
                "coordinates": [
                    15.592530518,
                    45.904443305
                ]
            },
            "properties": {
                "name": "Brežice",
                "article": "https://en.wikipedia.org/wiki/Bre%C5%BEice"
            }
        },
        {
            "type": "Feature",
            "geometry": {
                "type": "Point",
                "coordinates": [
                    14.358055555,
                    45.796388888
                ]
            },
            "properties": {
                "name": "Cerknica",
                "article": "https://en.wikipedia.org/wiki/Cerknica"
            }
        },
        {
            "type": "Feature",
            "geometry": {
                "type": "Point",
                "coordinates": [
                    15.18889,
                    45.57111
                ]
            },
            "properties": {
                "name": "Črnomelj",
                "article": "https://en.wikipedia.org/wiki/%C4%8Crnomelj"
            }
        },
        {
            "type": "Feature",
            "geometry": {
                "type": "Point",
                "coordinates": [
                    15.017967473,
                    46.59004243
                ]
            },
            "properties": {
                "name": "Dravograd",
                "article": "https://en.wikipedia.org/wiki/Dravograd"
            }
        },
        {
            "type": "Feature",
            "geometry": {
                "type": "Point",
                "coordinates": [
                    14.6,
                    46.133333333
                ]
            },
            "properties": {
                "name": "Domžale",
                "article": "https://en.wikipedia.org/wiki/Dom%C5%BEale"
            }
        },
        {
            "type": "Feature",
            "geometry": {
                "type": "Point",
                "coordinates": [
                    14.6562,
                    45.955125
                ]
            },
            "properties": {
                "name": "Grosuplje",
                "article": "https://en.wikipedia.org/wiki/Grosuplje"
            }
        },
        {
            "type": "Feature",
            "geometry": {
                "type": "Point",
                "coordinates": [
                    15.08139,
                    46.14611
                ]
            },
            "properties": {
                "name": "Hrastnik",
                "article": "https://en.wikipedia.org/wiki/Hrastnik"
            }
        },
        {
            "type": "Feature",
            "geometry": {
                "type": "Point",
                "coordinates": [
                    15.988345636,
                    46.681005313
                ]
            },
            "properties": {
                "name": "Gornja Radgona",
                "article": "https://en.wikipedia.org/wiki/Gornja_Radgona"
            }
        },
        {
            "type": "Feature",
            "geometry": {
                "type": "Point",
                "coordinates": [
                    14.0275,
                    46.0025
                ]
            },
            "properties": {
                "name": "Idrija",
                "article": "https://en.wikipedia.org/wiki/Idrija"
            }
        },
        {
            "type": "Feature",
            "geometry": {
                "type": "Point",
                "coordinates": [
                    14.249259577,
                    45.565131677
                ]
            },
            "properties": {
                "name": "Ilirska Bistrica",
                "article": "https://en.wikipedia.org/wiki/Ilirska_Bistrica"
            }
        },
        {
            "type": "Feature",
            "geometry": {
                "type": "Point",
                "coordinates": [
                    13.660405031,
                    45.539545223
                ]
            },
            "properties": {
                "name": "Izola",
                "article": "https://en.wikipedia.org/wiki/Izola"
            }
        },
        {
            "type": "Feature",
            "geometry": {
                "type": "Point",
                "coordinates": [
                    14.609661395,
                    46.224979812
                ]
            },
            "properties": {
                "name": "Kamnik",
                "article": "https://en.wikipedia.org/wiki/Kamnik"
            }
        },
        {
            "type": "Feature",
            "geometry": {
                "type": "Point",
                "coordinates": [
                    15.492155555,
                    45.958963888
                ]
            },
            "properties": {
                "name": "Krško",
                "article": "https://en.wikipedia.org/wiki/Kr%C5%A1ko"
            }
        },
        {
            "type": "Feature",
            "geometry": {
                "type": "Point",
                "coordinates": [
                    15.424869,
                    45.846325
                ]
            },
            "properties": {
                "name": "Kostanjevica na Krki",
                "article": "https://en.wikipedia.org/wiki/Kostanjevica_na_Krki"
            }
        },
        {
            "type": "Feature",
            "geometry": {
                "type": "Point",
                "coordinates": [
                    16.449885788,
                    46.566201748
                ]
            },
            "properties": {
                "name": "Lendava",
                "article": "https://en.wikipedia.org/wiki/Lendava"
            }
        },
        {
            "type": "Feature",
            "geometry": {
                "type": "Point",
                "coordinates": [
                    15.830578497,
                    46.575526188
                ]
            },
            "properties": {
                "name": "Lenart v Slovenskih Goricah",
                "article": "https://en.wikipedia.org/wiki/Lenart_v_Slovenskih_Goricah"
            }
        },
        {
            "type": "Feature",
            "geometry": {
                "type": "Point",
                "coordinates": [
                    14.853647,
                    46.520581
                ]
            },
            "properties": {
                "name": "Mežica",
                "article": "https://en.wikipedia.org/wiki/Me%C5%BEica"
            }
        },
        {
            "type": "Feature",
            "geometry": {
                "type": "Point",
                "coordinates": [
                    16.161944444,
                    46.658611111
                ]
            },
            "properties": {
                "name": "Murska Sobota",
                "article": "https://en.wikipedia.org/wiki/Murska_Sobota"
            }
        },
        {
            "type": "Feature",
            "geometry": {
                "type": "Point",
                "coordinates": [
                    15.31417,
                    45.64722
                ]
            },
            "properties": {
                "name": "Metlika",
                "article": "https://en.wikipedia.org/wiki/Metlika"
            }
        },
        {
            "type": "Feature",
            "geometry": {
                "type": "Point",
                "coordinates": [
                    14.20366,
                    45.78276
                ]
            },
            "properties": {
                "name": "Postojna Cave",
                "article": "https://en.wikipedia.org/wiki/Postojna_Cave"
            }
        },
        {
            "type": "Feature",
            "geometry": {
                "type": "Point",
                "coordinates": [
                    14.21528,
                    45.77435
                ]
            },
            "properties": {
                "name": "Postojna",
                "article": "https://en.wikipedia.org/wiki/Postojna"
            }
        },
        {
            "type": "Feature",
            "geometry": {
                "type": "Point",
                "coordinates": [
                    15.871388888,
                    46.418611111
                ]
            },
            "properties": {
                "name": "Ptuj",
                "article": "https://en.wikipedia.org/wiki/Ptuj"
            }
        },
        {
            "type": "Feature",
            "geometry": {
                "type": "Point",
                "coordinates": [
                    14.92083,
                    46.54694
                ]
            },
            "properties": {
                "name": "Prevalje",
                "article": "https://en.wikipedia.org/wiki/Prevalje"
            }
        },
        {
            "type": "Feature",
            "geometry": {
                "type": "Point",
                "coordinates": [
                    14.964233333,
                    46.543736111
                ]
            },
            "properties": {
                "name": "Ravne na Koroškem",
                "article": "https://en.wikipedia.org/wiki/Ravne_na_Koro%C5%A1kem"
            }
        },
        {
            "type": "Feature",
            "geometry": {
                "type": "Point",
                "coordinates": [
                    15.172872222,
                    46.065936111
                ]
            },
            "properties": {
                "name": "Radeče",
                "article": "https://en.wikipedia.org/wiki/Rade%C4%8De"
            }
        },
        {
            "type": "Feature",
            "geometry": {
                "type": "Point",
                "coordinates": [
                    15.515277777,
                    46.538333333
                ]
            },
            "properties": {
                "name": "Ruše",
                "article": "https://en.wikipedia.org/wiki/Ru%C5%A1e"
            }
        },
        {
            "type": "Feature",
            "geometry": {
                "type": "Point",
                "coordinates": [
                    15.303888888,
                    46.009166666
                ]
            },
            "properties": {
                "name": "Sevnica",
                "article": "https://en.wikipedia.org/wiki/Sevnica"
            }
        },
        {
            "type": "Feature",
            "geometry": {
                "type": "Point",
                "coordinates": [
                    15.079044398,
                    46.509344605
                ]
            },
            "properties": {
                "name": "Slovenj Gradec",
                "article": "https://en.wikipedia.org/wiki/Slovenj_Gradec"
            }
        },
        {
            "type": "Feature",
            "geometry": {
                "type": "Point",
                "coordinates": [
                    15.42099741,
                    46.336214186
                ]
            },
            "properties": {
                "name": "Slovenske Konjice",
                "article": "https://en.wikipedia.org/wiki/Slovenske_Konjice"
            }
        },
        {
            "type": "Feature",
            "geometry": {
                "type": "Point",
                "coordinates": [
                    13.85,
                    45.7
                ]
            },
            "properties": {
                "name": "Sežana",
                "article": "https://en.wikipedia.org/wiki/Se%C5%BEana"
            }
        },
        {
            "type": "Feature",
            "geometry": {
                "type": "Point",
                "coordinates": [
                    15.570726245,
                    46.394136552
                ]
            },
            "properties": {
                "name": "Slovenska Bistrica",
                "article": "https://en.wikipedia.org/wiki/Slovenska_Bistrica"
            }
        },
        {
            "type": "Feature",
            "geometry": {
                "type": "Point",
                "coordinates": [
                    14.306448281,
                    46.16549744
                ]
            },
            "properties": {
                "name": "Škofja Loka",
                "article": "https://en.wikipedia.org/wiki/%C5%A0kofja_Loka"
            }
        },
        {
            "type": "Feature",
            "geometry": {
                "type": "Point",
                "coordinates": [
                    15.397312366,
                    46.222480742
                ]
            },
            "properties": {
                "name": "Šentjur",
                "article": "https://en.wikipedia.org/wiki/%C5%A0entjur"
            }
        },
        {
            "type": "Feature",
            "geometry": {
                "type": "Point",
                "coordinates": [
                    15.008627777,
                    45.910377777
                ]
            },
            "properties": {
                "name": "Trebnje",
                "article": "https://en.wikipedia.org/wiki/Trebnje"
            }
        },
        {
            "type": "Feature",
            "geometry": {
                "type": "Point",
                "coordinates": [
                    14.994166666,
                    46.134166666
                ]
            },
            "properties": {
                "name": "Zagorje ob Savi",
                "article": "https://en.wikipedia.org/wiki/Zagorje_ob_Savi"
            }
        },
        {
            "type": "Feature",
            "geometry": {
                "type": "Point",
                "coordinates": [
                    15.116666666,
                    46.366666666
                ]
            },
            "properties": {
                "name": "Velenje",
                "article": "https://en.wikipedia.org/wiki/Velenje"
            }
        },
        {
            "type": "Feature",
            "geometry": {
                "type": "Point",
                "coordinates": [
                    14.743127564,
                    45.953941652
                ]
            },
            "properties": {
                "name": "Višnja Gora",
                "article": "https://en.wikipedia.org/wiki/Vi%C5%A1nja_Gora"
            }
        },
        {
            "type": "Feature",
            "geometry": {
                "type": "Point",
                "coordinates": [
                    14.108283,
                    46.046019
                ]
            },
            "properties": {
                "name": "Žiri",
                "article": "https://en.wikipedia.org/wiki/%C5%BDiri"
            }
        },
        {
            "type": "Feature",
            "geometry": {
                "type": "Point",
                "coordinates": [
                    15.302752783,
                    46.293120452
                ]
            },
            "properties": {
                "name": "Vojnik",
                "article": "https://en.wikipedia.org/wiki/Vojnik,_Vojnik"
            }
        },
        {
            "type": "Feature",
            "geometry": {
                "type": "Point",
                "coordinates": [
                    15.333611,
                    46.4525
                ]
            },
            "properties": {
                "name": "Rogla",
                "article": "https://en.wikipedia.org/wiki/Rogla"
            }
        },
        {
            "type": "Feature",
            "geometry": {
                "type": "Point",
                "coordinates": [
                    14.116666666,
                    46.366666666
                ]
            },
            "properties": {
                "name": "Bled",
                "article": "https://en.wikipedia.org/wiki/Bled"
            }
        },
        {
            "type": "Feature",
            "geometry": {
                "type": "Point",
                "coordinates": [
                    13.769130555,
                    46.426002777
                ]
            },
            "properties": {
                "name": "Prisojnik",
                "article": "https://en.wikipedia.org/wiki/Prisojnik"
            }
        },
        {
            "type": "Feature",
            "geometry": {
                "type": "Point",
                "coordinates": [
                    13.921111111,
                    46.239444444
                ]
            },
            "properties": {
                "name": "Črna Prst",
                "article": "https://en.wikipedia.org/wiki/%C4%8Crna_Prst"
            }
        },
        {
            "type": "Feature",
            "geometry": {
                "type": "Point",
                "coordinates": [
                    15.23318333,
                    46.48598056
                ]
            },
            "properties": {
                "name": "Black Peak",
                "article": "https://en.wikipedia.org/wiki/Black_Peak_(Pohorje)"
            }
        },
        {
            "type": "Feature",
            "geometry": {
                "type": "Point",
                "coordinates": [
                    13.952398,
                    46.506833
                ]
            },
            "properties": {
                "name": "Mittagskogel / Kepa",
                "article": "https://en.wikipedia.org/wiki/Mittagskogel"
            }
        },
        {
            "type": "Feature",
            "geometry": {
                "type": "Point",
                "coordinates": [
                    15.871388888,
                    46.418611111
                ]
            },
            "properties": {
                "name": "Battle of the Save",
                "article": "https://en.wikipedia.org/wiki/Battle_of_Poetovio"
            }
        },
        {
            "type": "Feature",
            "geometry": {
                "type": "Point",
                "coordinates": [
                    13.82,
                    46.43
                ]
            },
            "properties": {
                "name": "Škrlatica",
                "article": "https://en.wikipedia.org/wiki/%C5%A0krlatica"
            }
        },
        {
            "type": "Feature",
            "geometry": {
                "type": "Point",
                "coordinates": [
                    13.819,
                    46.4489
                ]
            },
            "properties": {
                "name": "Špik",
                "article": "https://en.wikipedia.org/wiki/%C5%A0pik"
            }
        },
        {
            "type": "Feature",
            "geometry": {
                "type": "Point",
                "coordinates": [
                    14.5631,
                    46.3656
                ]
            },
            "properties": {
                "name": "Carniola Mount Rinka",
                "article": null
            }
        },
        {
            "type": "Feature",
            "geometry": {
                "type": "Point",
                "coordinates": [
                    14.950975997,
                    46.243657194
                ]
            },
            "properties": {
                "name": "Vransko",
                "article": "https://en.wikipedia.org/wiki/Vransko"
            }
        },
        {
            "type": "Feature",
            "geometry": {
                "type": "Point",
                "coordinates": [
                    14.63722222,
                    46.36416667
                ]
            },
            "properties": {
                "name": "Ojstrica",
                "article": "https://en.wikipedia.org/wiki/Ojstrica"
            }
        },
        {
            "type": "Feature",
            "geometry": {
                "type": "Point",
                "coordinates": [
                    13.590833333,
                    45.514166666
                ]
            },
            "properties": {
                "name": "Portorož",
                "article": "https://en.wikipedia.org/wiki/Portoro%C5%BE"
            }
        },
        {
            "type": "Feature",
            "geometry": {
                "type": "Point",
                "coordinates": [
                    14.5354262,
                    46.3571332
                ]
            },
            "properties": {
                "name": "Grintovec",
                "article": "https://en.wikipedia.org/wiki/Grintovec"
            }
        },
        {
            "type": "Feature",
            "geometry": {
                "type": "Point",
                "coordinates": [
                    15.167445787,
                    46.251564594
                ]
            },
            "properties": {
                "name": "Žalec",
                "article": "https://en.wikipedia.org/wiki/%C5%BDalec"
            }
        },
        {
            "type": "Feature",
            "geometry": {
                "type": "Point",
                "coordinates": [
                    14.094722222,
                    46.364444444
                ]
            },
            "properties": {
                "name": "Lake Bled",
                "article": "https://en.wikipedia.org/wiki/Lake_Bled"
            }
        },
        {
            "type": "Feature",
            "geometry": {
                "type": "Point",
                "coordinates": [
                    14.094722222,
                    46.364444444
                ]
            },
            "properties": {
                "name": "Lake Bled",
                "article": "https://en.wikipedia.org/wiki/Lake_Bled"
            }
        },
        {
            "type": "Feature",
            "geometry": {
                "type": "Point",
                "coordinates": [
                    13.55,
                    46.05
                ]
            },
            "properties": {
                "name": "Battles of the Isonzo",
                "article": "https://en.wikipedia.org/wiki/Battles_of_the_Isonzo"
            }
        },
        {
            "type": "Feature",
            "geometry": {
                "type": "Point",
                "coordinates": [
                    14.2125,
                    46.4397
                ]
            },
            "properties": {
                "name": "Wertatscha",
                "article": "https://en.wikipedia.org/wiki/Wertatscha"
            }
        },
        {
            "type": "Feature",
            "geometry": {
                "type": "Point",
                "coordinates": [
                    14.173888888,
                    46.433888888
                ]
            },
            "properties": {
                "name": "Stol / Hochstuhl",
                "article": "https://en.wikipedia.org/wiki/Stol_(Karawanks)"
            }
        },
        {
            "type": "Feature",
            "geometry": {
                "type": "Point",
                "coordinates": [
                    13.8125,
                    46.238333333
                ]
            },
            "properties": {
                "name": "Vogel",
                "article": "https://en.wikipedia.org/wiki/Vogel_(mountain)"
            }
        },
        {
            "type": "Feature",
            "geometry": {
                "type": "Point",
                "coordinates": [
                    14.22972222,
                    46.42166667
                ]
            },
            "properties": {
                "name": "Begunjščica",
                "article": "https://en.wikipedia.org/wiki/Begunj%C5%A1%C4%8Dica"
            }
        },
        {
            "type": "Feature",
            "geometry": {
                "type": "Point",
                "coordinates": [
                    13.679998,
                    46.421554
                ]
            },
            "properties": {
                "name": "Jalovec",
                "article": "https://en.wikipedia.org/wiki/Jalovec_(mountain)"
            }
        },
        {
            "type": "Feature",
            "geometry": {
                "type": "Point",
                "coordinates": [
                    14.364172222,
                    45.917977777
                ]
            },
            "properties": {
                "name": "Borovnica",
                "article": "https://en.wikipedia.org/wiki/Borovnica,_Borovnica"
            }
        },
        {
            "type": "Feature",
            "geometry": {
                "type": "Point",
                "coordinates": [
                    13.66824722,
                    46.26422778
                ]
            },
            "properties": {
                "name": "Batognica",
                "article": null
            }
        },
        {
            "type": "Feature",
            "geometry": {
                "type": "Point",
                "coordinates": [
                    13.66666667,
                    46.38333333
                ]
            },
            "properties": {
                "name": "Bavšica Mount Grintavec",
                "article": null
            }
        },
        {
            "type": "Feature",
            "geometry": {
                "type": "Point",
                "coordinates": [
                    13.858881,
                    46.283377
                ]
            },
            "properties": {
                "name": "Lake Bohinj",
                "article": "https://en.wikipedia.org/wiki/Lake_Bohinj"
            }
        },
        {
            "type": "Feature",
            "geometry": {
                "type": "Point",
                "coordinates": [
                    13.95194444,
                    46.27111111
                ]
            },
            "properties": {
                "name": "Bohinj",
                "article": "https://en.wikipedia.org/wiki/Bohinj"
            }
        },
        {
            "type": "Feature",
            "geometry": {
                "type": "Point",
                "coordinates": [
                    16.2225,
                    46.805278
                ]
            },
            "properties": {
                "name": "Gornji Petrovci",
                "article": "https://en.wikipedia.org/wiki/Gornji_Petrovci"
            }
        },
        {
            "type": "Feature",
            "geometry": {
                "type": "Point",
                "coordinates": [
                    16.232842,
                    46.606011
                ]
            },
            "properties": {
                "name": "Beltinci",
                "article": "https://en.wikipedia.org/wiki/Beltinci"
            }
        },
        {
            "type": "Feature",
            "geometry": {
                "type": "Point",
                "coordinates": [
                    16.24056,
                    46.60528
                ]
            },
            "properties": {
                "name": "Beltinci",
                "article": "https://en.wikipedia.org/wiki/Beltinci"
            }
        },
        {
            "type": "Feature",
            "geometry": {
                "type": "Point",
                "coordinates": [
                    14.3898,
                    46.3593
                ]
            },
            "properties": {
                "name": "Dom pod Storžičem",
                "article": "https://en.wikipedia.org/wiki/Stor%C5%BEi%C4%8D_Lodge"
            }
        },
        {
            "type": "Feature",
            "geometry": {
                "type": "Point",
                "coordinates": [
                    14.40416667,
                    46.35
                ]
            },
            "properties": {
                "name": "Storžič",
                "article": "https://en.wikipedia.org/wiki/Stor%C5%BEi%C4%8D"
            }
        },
        {
            "type": "Feature",
            "geometry": {
                "type": "Point",
                "coordinates": [
                    16.283333333,
                    46.583333333
                ]
            },
            "properties": {
                "name": "Odranci",
                "article": "https://en.wikipedia.org/wiki/Odranci"
            }
        },
        {
            "type": "Feature",
            "geometry": {
                "type": "Point",
                "coordinates": [
                    14.553055555,
                    46.363888888
                ]
            },
            "properties": {
                "name": "Skuta",
                "article": "https://en.wikipedia.org/wiki/Skuta"
            }
        },
        {
            "type": "Feature",
            "geometry": {
                "type": "Point",
                "coordinates": [
                    14.054569,
                    46.491465
                ]
            },
            "properties": {
                "name": "Golica",
                "article": "https://en.wikipedia.org/wiki/Golica"
            }
        },
        {
            "type": "Feature",
            "geometry": {
                "type": "Point",
                "coordinates": [
                    13.791338888,
                    46.411844444
                ]
            },
            "properties": {
                "name": "Razor",
                "article": "https://en.wikipedia.org/wiki/Razor_(mountain)"
            }
        },
        {
            "type": "Feature",
            "geometry": {
                "type": "Point",
                "coordinates": [
                    13.72649,
                    46.43567
                ]
            },
            "properties": {
                "name": "Mojstrovka",
                "article": null
            }
        },
        {
            "type": "Feature",
            "geometry": {
                "type": "Point",
                "coordinates": [
                    13.8425159,
                    46.4409622
                ]
            },
            "properties": {
                "name": "Dovški križ",
                "article": null
            }
        },
        {
            "type": "Feature",
            "geometry": {
                "type": "Point",
                "coordinates": [
                    15.16327095,
                    46.16012573
                ]
            },
            "properties": {
                "name": "Govško brdo",
                "article": null
            }
        },
        {
            "type": "Feature",
            "geometry": {
                "type": "Point",
                "coordinates": [
                    15.238617,
                    46.156303
                ]
            },
            "properties": {
                "name": "Laško",
                "article": "https://en.wikipedia.org/wiki/La%C5%A1ko"
            }
        },
        {
            "type": "Feature",
            "geometry": {
                "type": "Point",
                "coordinates": [
                    14.5367,
                    46.3008
                ]
            },
            "properties": {
                "name": "Krvavec",
                "article": null
            }
        },
        {
            "type": "Feature",
            "geometry": {
                "type": "Point",
                "coordinates": [
                    14.5375,
                    46.3
                ]
            },
            "properties": {
                "name": "Krvavec",
                "article": null
            }
        },
        {
            "type": "Feature",
            "geometry": {
                "type": "Point",
                "coordinates": [
                    14.709444444,
                    46.158888888
                ]
            },
            "properties": {
                "name": "Lake Gradišče",
                "article": "https://en.wikipedia.org/wiki/Lake_Gradi%C5%A1%C4%8De"
            }
        },
        {
            "type": "Feature",
            "geometry": {
                "type": "Point",
                "coordinates": [
                    14.9655,
                    46.4847
                ]
            },
            "properties": {
                "name": "Uršlja Mountain",
                "article": "https://en.wikipedia.org/wiki/Mount_St._Ursula"
            }
        },
        {
            "type": "Feature",
            "geometry": {
                "type": "Point",
                "coordinates": [
                    13.6589,
                    46.2661
                ]
            },
            "properties": {
                "name": "Krn",
                "article": "https://en.wikipedia.org/wiki/Krn"
            }
        },
        {
            "type": "Feature",
            "geometry": {
                "type": "Point",
                "coordinates": [
                    14.40833333,
                    45.95
                ]
            },
            "properties": {
                "name": "Krim",
                "article": "https://en.wikipedia.org/wiki/Mount_Krim"
            }
        },
        {
            "type": "Feature",
            "geometry": {
                "type": "Point",
                "coordinates": [
                    14.471111111,
                    45.928888888
                ]
            },
            "properties": {
                "name": "Krim",
                "article": "https://en.wikipedia.org/wiki/Mount_Krim"
            }
        },
        {
            "type": "Feature",
            "geometry": {
                "type": "Point",
                "coordinates": [
                    13.529166666,
                    46.212222222
                ]
            },
            "properties": {
                "name": "Matajur",
                "article": "https://en.wikipedia.org/wiki/Matajur"
            }
        },
        {
            "type": "Feature",
            "geometry": {
                "type": "Point",
                "coordinates": [
                    13.581123229,
                    46.257622727
                ]
            },
            "properties": {
                "name": "Tonovec Castle",
                "article": null
            }
        },
        {
            "type": "Feature",
            "geometry": {
                "type": "Point",
                "coordinates": [
                    14.521944444,
                    46.358611111
                ]
            },
            "properties": {
                "name": "Jezerska Kočna",
                "article": "https://en.wikipedia.org/wiki/Ko%C4%8Dna"
            }
        },
        {
            "type": "Feature",
            "geometry": {
                "type": "Point",
                "coordinates": [
                    13.439027777,
                    46.360083333
                ]
            },
            "properties": {
                "name": "Kanin",
                "article": null
            }
        },
        {
            "type": "Feature",
            "geometry": {
                "type": "Point",
                "coordinates": [
                    13.81071611,
                    46.36010889
                ]
            },
            "properties": {
                "name": "Kanjavec",
                "article": "https://en.wikipedia.org/wiki/Kanjavec"
            }
        },
        {
            "type": "Feature",
            "geometry": {
                "type": "Point",
                "coordinates": [
                    13.591877788,
                    45.514175995
                ]
            },
            "properties": {
                "name": "Kempinski Palace Portorož",
                "article": "https://en.wikipedia.org/wiki/Kempinski_Palace_Portoro%C5%BE"
            }
        },
        {
            "type": "Feature",
            "geometry": {
                "type": "Point",
                "coordinates": [
                    14.2992,
                    46.4386
                ]
            },
            "properties": {
                "name": "Košutica / Loibler Baba",
                "article": null
            }
        },
        {
            "type": "Feature",
            "geometry": {
                "type": "Point",
                "coordinates": [
                    13.974722222,
                    46.176666666
                ]
            },
            "properties": {
                "name": "Porezen",
                "article": "https://en.wikipedia.org/wiki/Porezen"
            }
        },
        {
            "type": "Feature",
            "geometry": {
                "type": "Point",
                "coordinates": [
                    13.97444444,
                    46.1775
                ]
            },
            "properties": {
                "name": "Porezen",
                "article": "https://en.wikipedia.org/wiki/Porezen"
            }
        },
        {
            "type": "Feature",
            "geometry": {
                "type": "Point",
                "coordinates": [
                    14.460277777,
                    45.742222222
                ]
            },
            "properties": {
                "name": "Cross Cave",
                "article": "https://en.wikipedia.org/wiki/Cross_Cave"
            }
        },
        {
            "type": "Feature",
            "geometry": {
                "type": "Point",
                "coordinates": [
                    14.245833333,
                    45.82
                ]
            },
            "properties": {
                "name": "Cross Cave",
                "article": "https://en.wikipedia.org/wiki/Cross_Cave"
            }
        },
        {
            "type": "Feature",
            "geometry": {
                "type": "Point",
                "coordinates": [
                    14.446667,
                    45.588889
                ]
            },
            "properties": {
                "name": "Snežnik",
                "article": "https://en.wikipedia.org/wiki/Sne%C5%BEnik_(plateau)"
            }
        },
        {
            "type": "Feature",
            "geometry": {
                "type": "Point",
                "coordinates": [
                    15.336244,
                    45.838883
                ]
            },
            "properties": {
                "name": "Šentjernej",
                "article": "https://en.wikipedia.org/wiki/%C5%A0entjernej"
            }
        },
        {
            "type": "Feature",
            "geometry": {
                "type": "Point",
                "coordinates": [
                    14.513056,
                    46.058889
                ]
            },
            "properties": {
                "name": "Ljubljana railway station",
                "article": "https://en.wikipedia.org/wiki/Ljubljana_railway_station"
            }
        },
        {
            "type": "Feature",
            "geometry": {
                "type": "Point",
                "coordinates": [
                    13.881944444,
                    46.5225
                ]
            },
            "properties": {
                "name": "Mallestiger Mittagskogel",
                "article": "https://en.wikipedia.org/wiki/Malo%C5%A1ko_Poldne"
            }
        },
        {
            "type": "Feature",
            "geometry": {
                "type": "Point",
                "coordinates": [
                    13.653888888,
                    46.44
                ]
            },
            "properties": {
                "name": "Mangart",
                "article": "https://en.wikipedia.org/wiki/Mangart"
            }
        },
        {
            "type": "Feature",
            "geometry": {
                "type": "Point",
                "coordinates": [
                    13.863333,
                    45.704167
                ]
            },
            "properties": {
                "name": "Sežana railway station",
                "article": "https://en.wikipedia.org/wiki/Se%C5%BEana_railway_station"
            }
        },
        {
            "type": "Feature",
            "geometry": {
                "type": "Point",
                "coordinates": [
                    14.191389,
                    45.675278
                ]
            },
            "properties": {
                "name": "Pivka railway station",
                "article": "https://en.wikipedia.org/wiki/Pivka_railway_station"
            }
        },
        {
            "type": "Feature",
            "geometry": {
                "type": "Point",
                "coordinates": [
                    14.221111,
                    45.773056
                ]
            },
            "properties": {
                "name": "Postojna railway station",
                "article": "https://en.wikipedia.org/wiki/Postojna_railway_station"
            }
        },
        {
            "type": "Feature",
            "geometry": {
                "type": "Point",
                "coordinates": [
                    14.830306,
                    46.056469
                ]
            },
            "properties": {
                "name": "Litija",
                "article": "https://en.wikipedia.org/wiki/Litija"
            }
        },
        {
            "type": "Feature",
            "geometry": {
                "type": "Point",
                "coordinates": [
                    13.787108,
                    46.485381
                ]
            },
            "properties": {
                "name": "Kranjska Gora",
                "article": "https://en.wikipedia.org/wiki/Kranjska_Gora"
            }
        },
        {
            "type": "Feature",
            "geometry": {
                "type": "Point",
                "coordinates": [
                    14.401388888,
                    46.444722222
                ]
            },
            "properties": {
                "name": "Breitwand / Macesje",
                "article": null
            }
        },
        {
            "type": "Feature",
            "geometry": {
                "type": "Point",
                "coordinates": [
                    13.60213101,
                    46.35031205
                ]
            },
            "properties": {
                "name": "Svinjak",
                "article": "https://en.wikipedia.org/wiki/Svinjak"
            }
        },
        {
            "type": "Feature",
            "geometry": {
                "type": "Point",
                "coordinates": [
                    13.624444444,
                    46.353055555
                ]
            },
            "properties": {
                "name": "Svinjak",
                "article": "https://en.wikipedia.org/wiki/Svinjak"
            }
        },
        {
            "type": "Feature",
            "geometry": {
                "type": "Point",
                "coordinates": [
                    13.860536,
                    46.515337
                ]
            },
            "properties": {
                "name": "Trupejevo Poldne",
                "article": "https://en.wikipedia.org/wiki/Trupejevo_Poldne"
            }
        },
        {
            "type": "Feature",
            "geometry": {
                "type": "Point",
                "coordinates": [
                    13.962156849,
                    45.846272784
                ]
            },
            "properties": {
                "name": "Vipava",
                "article": "https://en.wikipedia.org/wiki/Vipava,_Vipava"
            }
        },
        {
            "type": "Feature",
            "geometry": {
                "type": "Point",
                "coordinates": [
                    13.7834,
                    46.4756
                ]
            },
            "properties": {
                "name": "Lake Jasna",
                "article": "https://en.wikipedia.org/wiki/Lake_Jasna"
            }
        },
        {
            "type": "Feature",
            "geometry": {
                "type": "Point",
                "coordinates": [
                    13.9119,
                    45.6744
                ]
            },
            "properties": {
                "name": "Vilenica Cave",
                "article": "https://en.wikipedia.org/wiki/Vilenica_Cave"
            }
        },
        {
            "type": "Feature",
            "geometry": {
                "type": "Point",
                "coordinates": [
                    14.129915225,
                    46.42104949
                ]
            },
            "properties": {
                "name": "Ajdna",
                "article": "https://en.wikipedia.org/wiki/Ajdna"
            }
        },
        {
            "type": "Feature",
            "geometry": {
                "type": "Point",
                "coordinates": [
                    14.129915225,
                    46.42104949
                ]
            },
            "properties": {
                "name": "Ajdna",
                "article": "https://en.wikipedia.org/wiki/Ajdna"
            }
        },
        {
            "type": "Feature",
            "geometry": {
                "type": "Point",
                "coordinates": [
                    14.587556,
                    46.354906
                ]
            },
            "properties": {
                "name": "Brana",
                "article": "https://en.wikipedia.org/wiki/Brana_(mountain)"
            }
        },
        {
            "type": "Feature",
            "geometry": {
                "type": "Point",
                "coordinates": [
                    14.5458,
                    46.3625
                ]
            },
            "properties": {
                "name": "Long Ridge",
                "article": null
            }
        },
        {
            "type": "Feature",
            "geometry": {
                "type": "Point",
                "coordinates": [
                    14.028055555,
                    45.982222222
                ]
            },
            "properties": {
                "name": "Wild Lake",
                "article": "https://en.wikipedia.org/wiki/Wild_Lake"
            }
        },
        {
            "type": "Feature",
            "geometry": {
                "type": "Point",
                "coordinates": [
                    14.6535,
                    46.2955
                ]
            },
            "properties": {
                "name": "Velika Planina",
                "article": "https://en.wikipedia.org/wiki/Big_Pasture_Plateau"
            }
        },
        {
            "type": "Feature",
            "geometry": {
                "type": "Point",
                "coordinates": [
                    14.5333,
                    46.3167
                ]
            },
            "properties": {
                "name": "Kalški Greben",
                "article": "https://en.wikipedia.org/wiki/Kalce_Ridge"
            }
        },
        {
            "type": "Feature",
            "geometry": {
                "type": "Point",
                "coordinates": [
                    14.53861111,
                    46.33222222
                ]
            },
            "properties": {
                "name": "Kalški Greben",
                "article": "https://en.wikipedia.org/wiki/Kalce_Ridge"
            }
        },
        {
            "type": "Feature",
            "geometry": {
                "type": "Point",
                "coordinates": [
                    14.5464,
                    46.34
                ]
            },
            "properties": {
                "name": "Kalška gora",
                "article": null
            }
        },
        {
            "type": "Feature",
            "geometry": {
                "type": "Point",
                "coordinates": [
                    13.962,
                    46.241
                ]
            },
            "properties": {
                "name": "Q3198137",
                "article": null
            }
        },
        {
            "type": "Feature",
            "geometry": {
                "type": "Point",
                "coordinates": [
                    14.555556,
                    46.355278
                ]
            },
            "properties": {
                "name": "Q3198279",
                "article": null
            }
        },
        {
            "type": "Feature",
            "geometry": {
                "type": "Point",
                "coordinates": [
                    14.565,
                    46.36675
                ]
            },
            "properties": {
                "name": "Koroška Rinka",
                "article": "https://en.wikipedia.org/wiki/Carinthia_Rinka"
            }
        },
        {
            "type": "Feature",
            "geometry": {
                "type": "Point",
                "coordinates": [
                    14.64527778,
                    46.37555556
                ]
            },
            "properties": {
                "name": "Krofička",
                "article": "https://en.wikipedia.org/wiki/Krofi%C4%8Dka"
            }
        },
        {
            "type": "Feature",
            "geometry": {
                "type": "Point",
                "coordinates": [
                    14.56,
                    46.3744
                ]
            },
            "properties": {
                "name": "Ledinski vrh",
                "article": null
            }
        },
        {
            "type": "Feature",
            "geometry": {
                "type": "Point",
                "coordinates": [
                    14.6236,
                    46.3581
                ]
            },
            "properties": {
                "name": "Lučka Baba",
                "article": null
            }
        },
        {
            "type": "Feature",
            "geometry": {
                "type": "Point",
                "coordinates": [
                    14.6381,
                    46.3522
                ]
            },
            "properties": {
                "name": "Lučki Dedec",
                "article": null
            }
        },
        {
            "type": "Feature",
            "geometry": {
                "type": "Point",
                "coordinates": [
                    14.56926,
                    46.3658223
                ]
            },
            "properties": {
                "name": "Mala Rinka",
                "article": null
            }
        },
        {
            "type": "Feature",
            "geometry": {
                "type": "Point",
                "coordinates": [
                    14.578345,
                    46.377282
                ]
            },
            "properties": {
                "name": "Mrzla gora",
                "article": "https://en.wikipedia.org/wiki/Cold_Mountain_(Slovenia)"
            }
        },
        {
            "type": "Feature",
            "geometry": {
                "type": "Point",
                "coordinates": [
                    15.022777777,
                    46.2725
                ]
            },
            "properties": {
                "name": "Lake Žovnek",
                "article": "https://en.wikipedia.org/wiki/Lake_%C5%BDovnek"
            }
        },
        {
            "type": "Feature",
            "geometry": {
                "type": "Point",
                "coordinates": [
                    13.729582975,
                    45.547861901
                ]
            },
            "properties": {
                "name": "Praetorian Palace",
                "article": "https://en.wikipedia.org/wiki/Praetorian_Palace"
            }
        },
        {
            "type": "Feature",
            "geometry": {
                "type": "Point",
                "coordinates": [
                    14.60944444,
                    46.35638889
                ]
            },
            "properties": {
                "name": "Planjava",
                "article": "https://en.wikipedia.org/wiki/Planjava"
            }
        },
        {
            "type": "Feature",
            "geometry": {
                "type": "Point",
                "coordinates": [
                    15.89333333,
                    46.40194444
                ]
            },
            "properties": {
                "name": "Lake Ptuj",
                "article": "https://en.wikipedia.org/wiki/Lake_Ptuj"
            }
        },
        {
            "type": "Feature",
            "geometry": {
                "type": "Point",
                "coordinates": [
                    13.603859586,
                    45.883721014
                ]
            },
            "properties": {
                "name": "Miren Castle",
                "article": "https://en.wikipedia.org/wiki/Miren_Castle"
            }
        },
        {
            "type": "Feature",
            "geometry": {
                "type": "Point",
                "coordinates": [
                    14.73722222,
                    46.40944444
                ]
            },
            "properties": {
                "name": "Raduha",
                "article": "https://en.wikipedia.org/wiki/Raduha_(mountain)"
            }
        },
        {
            "type": "Feature",
            "geometry": {
                "type": "Point",
                "coordinates": [
                    14.468741666,
                    45.725952777
                ]
            },
            "properties": {
                "name": "Lož",
                "article": "https://en.wikipedia.org/wiki/Lo%C5%BE"
            }
        },
        {
            "type": "Feature",
            "geometry": {
                "type": "Point",
                "coordinates": [
                    14.5045,
                    46.0519
                ]
            },
            "properties": {
                "name": "Čop Street",
                "article": "https://en.wikipedia.org/wiki/%C4%8Cop_Street"
            }
        },
        {
            "type": "Feature",
            "geometry": {
                "type": "Point",
                "coordinates": [
                    14.5769,
                    46.3603
                ]
            },
            "properties": {
                "name": "Mount Turska",
                "article": null
            }
        },
        {
            "type": "Feature",
            "geometry": {
                "type": "Point",
                "coordinates": [
                    14.55604,
                    46.379452
                ]
            },
            "properties": {
                "name": "Velika Baba",
                "article": null
            }
        },
        {
            "type": "Feature",
            "geometry": {
                "type": "Point",
                "coordinates": [
                    14.62139,
                    46.35222
                ]
            },
            "properties": {
                "name": "Q3575132",
                "article": null
            }
        },
        {
            "type": "Feature",
            "geometry": {
                "type": "Point",
                "coordinates": [
                    14.5675,
                    46.3669
                ]
            },
            "properties": {
                "name": "Styria Mount Rinka",
                "article": null
            }
        },
        {
            "type": "Feature",
            "geometry": {
                "type": "Point",
                "coordinates": [
                    14.5525,
                    46.36305556
                ]
            },
            "properties": {
                "name": "Štruca",
                "article": null
            }
        },
        {
            "type": "Feature",
            "geometry": {
                "type": "Point",
                "coordinates": [
                    13.579598515,
                    46.24705938
                ]
            },
            "properties": {
                "name": "Kobarid",
                "article": "https://en.wikipedia.org/wiki/Kobarid"
            }
        },
        {
            "type": "Feature",
            "geometry": {
                "type": "Point",
                "coordinates": [
                    13.5647,
                    46.3984
                ]
            },
            "properties": {
                "name": "Jerebica",
                "article": null
            }
        },
        {
            "type": "Feature",
            "geometry": {
                "type": "Point",
                "coordinates": [
                    13.6365,
                    45.8703
                ]
            },
            "properties": {
                "name": "Fajtji hrib",
                "article": null
            }
        },
        {
            "type": "Feature",
            "geometry": {
                "type": "Point",
                "coordinates": [
                    15.07297778,
                    46.08785556
                ]
            },
            "properties": {
                "name": "Kum",
                "article": "https://en.wikipedia.org/wiki/Kum_(mountain)"
            }
        },
        {
            "type": "Feature",
            "geometry": {
                "type": "Point",
                "coordinates": [
                    15.08333,
                    46.1
                ]
            },
            "properties": {
                "name": "Kum",
                "article": "https://en.wikipedia.org/wiki/Kum_(mountain)"
            }
        },
        {
            "type": "Feature",
            "geometry": {
                "type": "Point",
                "coordinates": [
                    13.554444444,
                    46.367222222
                ]
            },
            "properties": {
                "name": "Rombon",
                "article": null
            }
        },
        {
            "type": "Feature",
            "geometry": {
                "type": "Point",
                "coordinates": [
                    13.555277777,
                    46.3675
                ]
            },
            "properties": {
                "name": "Rombon",
                "article": null
            }
        },
        {
            "type": "Feature",
            "geometry": {
                "type": "Point",
                "coordinates": [
                    13.634780555,
                    45.988413888
                ]
            },
            "properties": {
                "name": "Sabotin",
                "article": "https://en.wikipedia.org/wiki/Sabotin"
            }
        },
        {
            "type": "Feature",
            "geometry": {
                "type": "Point",
                "coordinates": [
                    13.7005,
                    45.9674
                ]
            },
            "properties": {
                "name": "Q3861954",
                "article": null
            }
        },
        {
            "type": "Feature",
            "geometry": {
                "type": "Point",
                "coordinates": [
                    13.6777,
                    45.9762
                ]
            },
            "properties": {
                "name": "Škabrijel",
                "article": "https://en.wikipedia.org/wiki/%C5%A0kabrijel"
            }
        },
        {
            "type": "Feature",
            "geometry": {
                "type": "Point",
                "coordinates": [
                    13.4539817,
                    46.27842
                ]
            },
            "properties": {
                "name": "Stol (Julian Alps)",
                "article": null
            }
        },
        {
            "type": "Feature",
            "geometry": {
                "type": "Point",
                "coordinates": [
                    13.965278,
                    45.681667
                ]
            },
            "properties": {
                "name": "Divača railway station",
                "article": "https://en.wikipedia.org/wiki/Diva%C4%8Da_railway_station"
            }
        },
        {
            "type": "Feature",
            "geometry": {
                "type": "Point",
                "coordinates": [
                    13.635278,
                    45.955
                ]
            },
            "properties": {
                "name": "Nova Gorica railway station",
                "article": "https://en.wikipedia.org/wiki/Nova_Gorica_railway_station"
            }
        },
        {
            "type": "Feature",
            "geometry": {
                "type": "Point",
                "coordinates": [
                    13.966667,
                    46.209167
                ]
            },
            "properties": {
                "name": "Podbrdo railway station",
                "article": "https://en.wikipedia.org/wiki/Podbrdo_railway_station"
            }
        },
        {
            "type": "Feature",
            "geometry": {
                "type": "Point",
                "coordinates": [
                    14.336388888,
                    46.243611111
                ]
            },
            "properties": {
                "name": "Mount Saint Margaret",
                "article": null
            }
        },
        {
            "type": "Feature",
            "geometry": {
                "type": "Point",
                "coordinates": [
                    14.11166667,
                    45.86361111
                ]
            },
            "properties": {
                "name": "Ad Pirum",
                "article": "https://en.wikipedia.org/wiki/Ad_Pirum"
            }
        },
        {
            "type": "Feature",
            "geometry": {
                "type": "Point",
                "coordinates": [
                    14.110900004,
                    45.864319563
                ]
            },
            "properties": {
                "name": "Ad Pirum",
                "article": "https://en.wikipedia.org/wiki/Ad_Pirum"
            }
        },
        {
            "type": "Feature",
            "geometry": {
                "type": "Point",
                "coordinates": [
                    13.900278,
                    45.886111
                ]
            },
            "properties": {
                "name": "Ajdovščina railway station",
                "article": "https://en.wikipedia.org/wiki/Ajdov%C5%A1%C4%8Dina_railway_station"
            }
        },
        {
            "type": "Feature",
            "geometry": {
                "type": "Point",
                "coordinates": [
                    13.728554466,
                    45.546168959
                ]
            },
            "properties": {
                "name": "Almerigogna Palace",
                "article": "https://en.wikipedia.org/wiki/Almerigogna_Mansion"
            }
        },
        {
            "type": "Feature",
            "geometry": {
                "type": "Point",
                "coordinates": [
                    13.617222,
                    46.058333
                ]
            },
            "properties": {
                "name": "Anhovo railway station",
                "article": "https://en.wikipedia.org/wiki/Anhovo_railway_station"
            }
        },
        {
            "type": "Feature",
            "geometry": {
                "type": "Point",
                "coordinates": [
                    14.669057497,
                    46.449390425
                ]
            },
            "properties": {
                "name": "Potok Cave",
                "article": "https://en.wikipedia.org/wiki/Potok_Cave"
            }
        },
        {
            "type": "Feature",
            "geometry": {
                "type": "Point",
                "coordinates": [
                    14.065158333,
                    45.798544444
                ]
            },
            "properties": {
                "name": "Battle of Nanos",
                "article": "https://en.wikipedia.org/wiki/Battle_of_Nanos"
            }
        },
        {
            "type": "Feature",
            "geometry": {
                "type": "Point",
                "coordinates": [
                    15.395556,
                    45.989722
                ]
            },
            "properties": {
                "name": "Blanca railway station",
                "article": "https://en.wikipedia.org/wiki/Blanca_railway_station"
            }
        },
        {
            "type": "Feature",
            "geometry": {
                "type": "Point",
                "coordinates": [
                    14.0825,
                    46.368333
                ]
            },
            "properties": {
                "name": "Bled Jezero railway station",
                "article": "https://en.wikipedia.org/wiki/Bled_Jezero_railway_station"
            }
        },
        {
            "type": "Feature",
            "geometry": {
                "type": "Point",
                "coordinates": [
                    13.958889,
                    46.274167
                ]
            },
            "properties": {
                "name": "Bohinjska Bistrica",
                "article": "https://en.wikipedia.org/wiki/Bohinjska_Bistrica_railway_station"
            }
        },
        {
            "type": "Feature",
            "geometry": {
                "type": "Point",
                "coordinates": [
                    15.5996,
                    46.28938333
                ]
            },
            "properties": {
                "name": "Boč",
                "article": "https://en.wikipedia.org/wiki/Bo%C4%8D"
            }
        },
        {
            "type": "Feature",
            "geometry": {
                "type": "Point",
                "coordinates": [
                    15.235556,
                    46.041667
                ]
            },
            "properties": {
                "name": "Breg railway station",
                "article": "https://en.wikipedia.org/wiki/Breg_railway_station"
            }
        },
        {
            "type": "Feature",
            "geometry": {
                "type": "Point",
                "coordinates": [
                    15.469444,
                    45.987778
                ]
            },
            "properties": {
                "name": "Brestanica railway station",
                "article": "https://en.wikipedia.org/wiki/Brestanica_railway_station"
            }
        },
        {
            "type": "Feature",
            "geometry": {
                "type": "Point",
                "coordinates": [
                    14.426389,
                    46.021389
                ]
            },
            "properties": {
                "name": "Brezovica railway station",
                "article": "https://en.wikipedia.org/wiki/Brezovica_railway_station"
            }
        },
        {
            "type": "Feature",
            "geometry": {
                "type": "Point",
                "coordinates": [
                    15.59,
                    45.923889
                ]
            },
            "properties": {
                "name": "Brežice railway station",
                "article": "https://en.wikipedia.org/wiki/Bre%C5%BEice_railway_station"
            }
        },
        {
            "type": "Feature",
            "geometry": {
                "type": "Point",
                "coordinates": [
                    15.267222,
                    46.228611
                ]
            },
            "properties": {
                "name": "Celje railway station",
                "article": "https://en.wikipedia.org/wiki/Celje_railway_station"
            }
        },
        {
            "type": "Feature",
            "geometry": {
                "type": "Point",
                "coordinates": [
                    15.655278,
                    45.898333
                ]
            },
            "properties": {
                "name": "Dobova railway station",
                "article": "https://en.wikipedia.org/wiki/Dobova_railway_station"
            }
        },
        {
            "type": "Feature",
            "geometry": {
                "type": "Point",
                "coordinates": [
                    14.681389,
                    45.858333
                ]
            },
            "properties": {
                "name": "Dobrepolje railway station",
                "article": "https://en.wikipedia.org/wiki/Dobrepolje_railway_station"
            }
        },
        {
            "type": "Feature",
            "geometry": {
                "type": "Point",
                "coordinates": [
                    14.5925,
                    46.139167
                ]
            },
            "properties": {
                "name": "Domžale railway station",
                "article": "https://en.wikipedia.org/wiki/Dom%C5%BEale_railway_station"
            }
        },
        {
            "type": "Feature",
            "geometry": {
                "type": "Point",
                "coordinates": [
                    13.994156,
                    46.487613
                ]
            },
            "properties": {
                "name": "Dovška Baba",
                "article": "https://en.wikipedia.org/wiki/Dov%C5%A1ka_Baba"
            }
        },
        {
            "type": "Feature",
            "geometry": {
                "type": "Point",
                "coordinates": [
                    15.026667,
                    46.587222
                ]
            },
            "properties": {
                "name": "Dravograd railway station",
                "article": "https://en.wikipedia.org/wiki/Dravograd_railway_station"
            }
        },
        {
            "type": "Feature",
            "geometry": {
                "type": "Point",
                "coordinates": [
                    15.991950098,
                    46.677159115
                ]
            },
            "properties": {
                "name": "Gornja Radgona railway station",
                "article": "https://en.wikipedia.org/wiki/Gornja_Radgona_railway_station"
            }
        },
        {
            "type": "Feature",
            "geometry": {
                "type": "Point",
                "coordinates": [
                    14.50619167,
                    46.05246944
                ]
            },
            "properties": {
                "name": "Grand Hotel Union",
                "article": "https://en.wikipedia.org/wiki/Grand_Hotel_Union"
            }
        },
        {
            "type": "Feature",
            "geometry": {
                "type": "Point",
                "coordinates": [
                    14.50643,
                    46.05244
                ]
            },
            "properties": {
                "name": "Grand Hotel Union",
                "article": "https://en.wikipedia.org/wiki/Grand_Hotel_Union"
            }
        },
        {
            "type": "Feature",
            "geometry": {
                "type": "Point",
                "coordinates": [
                    14.107366666,
                    46.365775
                ]
            },
            "properties": {
                "name": "Grand Hotel Toplice",
                "article": "https://en.wikipedia.org/wiki/Grand_Hotel_Toplice"
            }
        },
        {
            "type": "Feature",
            "geometry": {
                "type": "Point",
                "coordinates": [
                    13.72992222,
                    45.54676944
                ]
            },
            "properties": {
                "name": "Gravisi-Buttorai Palace",
                "article": "https://en.wikipedia.org/wiki/Gravisi%E2%80%93Buttorai_Mansion"
            }
        },
        {
            "type": "Feature",
            "geometry": {
                "type": "Point",
                "coordinates": [
                    13.646058767,
                    45.532579534
                ]
            },
            "properties": {
                "name": "Haliaetum",
                "article": "https://en.wikipedia.org/wiki/Haliaetum"
            }
        },
        {
            "type": "Feature",
            "geometry": {
                "type": "Point",
                "coordinates": [
                    14.006544,
                    46.481332
                ]
            },
            "properties": {
                "name": "Hruški vrh",
                "article": "https://en.wikipedia.org/wiki/Hru%C5%A1ica_Peak"
            }
        },
        {
            "type": "Feature",
            "geometry": {
                "type": "Point",
                "coordinates": [
                    15.611666666,
                    46.567222222
                ]
            },
            "properties": {
                "name": "Maribor Island",
                "article": "https://en.wikipedia.org/wiki/Maribor_Island"
            }
        },
        {
            "type": "Feature",
            "geometry": {
                "type": "Point",
                "coordinates": [
                    15.616666666,
                    46.566666666
                ]
            },
            "properties": {
                "name": "Maribor Island",
                "article": "https://en.wikipedia.org/wiki/Maribor_Island"
            }
        },
        {
            "type": "Feature",
            "geometry": {
                "type": "Point",
                "coordinates": [
                    16.329167,
                    46.820278
                ]
            },
            "properties": {
                "name": "Hodoš railway station",
                "article": "https://en.wikipedia.org/wiki/Hodo%C5%A1_railway_station"
            }
        },
        {
            "type": "Feature",
            "geometry": {
                "type": "Point",
                "coordinates": [
                    13.935,
                    45.603333
                ]
            },
            "properties": {
                "name": "Hrpelje-Kozina railway station",
                "article": "https://en.wikipedia.org/wiki/Hrpelje-Kozina_railway_station"
            }
        },
        {
            "type": "Feature",
            "geometry": {
                "type": "Point",
                "coordinates": [
                    14.236111,
                    45.569444
                ]
            },
            "properties": {
                "name": "Ilirska Bistrica railway station",
                "article": "https://en.wikipedia.org/wiki/Ilirska_Bistrica_railway_station"
            }
        },
        {
            "type": "Feature",
            "geometry": {
                "type": "Point",
                "coordinates": [
                    14.40555556,
                    45.79027778
                ]
            },
            "properties": {
                "name": "Slivnica",
                "article": "https://en.wikipedia.org/wiki/Slivnica_(mountain)"
            }
        },
        {
            "type": "Feature",
            "geometry": {
                "type": "Point",
                "coordinates": [
                    14.503404379,
                    46.050822933
                ]
            },
            "properties": {
                "name": "Kazina Palace",
                "article": "https://en.wikipedia.org/wiki/Casino_Building"
            }
        },
        {
            "type": "Feature",
            "geometry": {
                "type": "Point",
                "coordinates": [
                    13.92758611,
                    46.15306389
                ]
            },
            "properties": {
                "name": "Kojca",
                "article": "https://en.wikipedia.org/wiki/Kojca_(mountain)"
            }
        },
        {
            "type": "Feature",
            "geometry": {
                "type": "Point",
                "coordinates": [
                    13.738333,
                    45.539167
                ]
            },
            "properties": {
                "name": "Koper railway station",
                "article": "https://en.wikipedia.org/wiki/Koper_railway_station"
            }
        },
        {
            "type": "Feature",
            "geometry": {
                "type": "Point",
                "coordinates": [
                    14.46882222,
                    46.06731944
                ]
            },
            "properties": {
                "name": "Koseze Pond",
                "article": "https://en.wikipedia.org/wiki/Koseze_Pond"
            }
        },
        {
            "type": "Feature",
            "geometry": {
                "type": "Point",
                "coordinates": [
                    14.348353433,
                    46.23922079
                ]
            },
            "properties": {
                "name": "Kranj railway station",
                "article": "https://en.wikipedia.org/wiki/Kranj_railway_station"
            }
        },
        {
            "type": "Feature",
            "geometry": {
                "type": "Point",
                "coordinates": [
                    13.991666666,
                    46.416388888
                ]
            },
            "properties": {
                "name": "Lake Kreda",
                "article": "https://en.wikipedia.org/wiki/Lake_Kreda"
            }
        },
        {
            "type": "Feature",
            "geometry": {
                "type": "Point",
                "coordinates": [
                    13.93463333,
                    45.82943056
                ]
            },
            "properties": {
                "name": "Leutemberg Castle",
                "article": "https://en.wikipedia.org/wiki/Leitenburg_Castle"
            }
        },
        {
            "type": "Feature",
            "geometry": {
                "type": "Point",
                "coordinates": [
                    13.935367073,
                    45.829260025
                ]
            },
            "properties": {
                "name": "Leutemberg Castle",
                "article": "https://en.wikipedia.org/wiki/Leitenburg_Castle"
            }
        },
        {
            "type": "Feature",
            "geometry": {
                "type": "Point",
                "coordinates": [
                    15.28479167,
                    46.06796111
                ]
            },
            "properties": {
                "name": "Lisca",
                "article": "https://en.wikipedia.org/wiki/Lisca_(hill)"
            }
        },
        {
            "type": "Feature",
            "geometry": {
                "type": "Point",
                "coordinates": [
                    15.222594564,
                    46.614898301
                ]
            },
            "properties": {
                "name": "Radlje ob Dravi",
                "article": "https://en.wikipedia.org/wiki/Radlje_ob_Dravi"
            }
        },
        {
            "type": "Feature",
            "geometry": {
                "type": "Point",
                "coordinates": [
                    14.506712985,
                    46.051507373
                ]
            },
            "properties": {
                "name": "Ljubljana Central Pharmacy",
                "article": "https://en.wikipedia.org/wiki/Central_Pharmacy_(Ljubljana)"
            }
        },
        {
            "type": "Feature",
            "geometry": {
                "type": "Point",
                "coordinates": [
                    16.189444,
                    46.528889
                ]
            },
            "properties": {
                "name": "Ljutomer railway station",
                "article": "https://en.wikipedia.org/wiki/Ljutomer_railway_station"
            }
        },
        {
            "type": "Feature",
            "geometry": {
                "type": "Point",
                "coordinates": [
                    13.729733333,
                    45.548427777
                ]
            },
            "properties": {
                "name": "Loggia Palace",
                "article": "https://en.wikipedia.org/wiki/Loggia_Palace"
            }
        },
        {
            "type": "Feature",
            "geometry": {
                "type": "Point",
                "coordinates": [
                    15.6575,
                    46.561667
                ]
            },
            "properties": {
                "name": "Maribor railway station",
                "article": "https://en.wikipedia.org/wiki/Maribor_railway_station"
            }
        },
        {
            "type": "Feature",
            "geometry": {
                "type": "Point",
                "coordinates": [
                    13.891111111,
                    46.503333333
                ]
            },
            "properties": {
                "name": "Mojstrovica",
                "article": "https://en.wikipedia.org/wiki/Mojstrovica"
            }
        },
        {
            "type": "Feature",
            "geometry": {
                "type": "Point",
                "coordinates": [
                    15.09416667,
                    45.63222222
                ]
            },
            "properties": {
                "name": "Mount Mirna",
                "article": "https://en.wikipedia.org/wiki/Mount_Mirna"
            }
        },
        {
            "type": "Feature",
            "geometry": {
                "type": "Point",
                "coordinates": [
                    15.096666666,
                    45.633333333
                ]
            },
            "properties": {
                "name": "Mount Mirna",
                "article": "https://en.wikipedia.org/wiki/Mount_Mirna"
            }
        },
        {
            "type": "Feature",
            "geometry": {
                "type": "Point",
                "coordinates": [
                    13.86361111,
                    46.22805556
                ]
            },
            "properties": {
                "name": "Rodica",
                "article": "https://en.wikipedia.org/wiki/Mount_Rodica"
            }
        },
        {
            "type": "Feature",
            "geometry": {
                "type": "Point",
                "coordinates": [
                    16.171667,
                    46.659444
                ]
            },
            "properties": {
                "name": "Murska Sobota railway station",
                "article": "https://en.wikipedia.org/wiki/Murska_Sobota_railway_station"
            }
        },
        {
            "type": "Feature",
            "geometry": {
                "type": "Point",
                "coordinates": [
                    14.054722,
                    46.436389
                ]
            },
            "properties": {
                "name": "Jesenice railway station",
                "article": "https://en.wikipedia.org/wiki/Jesenice_railway_station"
            }
        },
        {
            "type": "Feature",
            "geometry": {
                "type": "Point",
                "coordinates": [
                    15.163804378,
                    45.807496279
                ]
            },
            "properties": {
                "name": "Novo Mesto Grammar School",
                "article": "https://en.wikipedia.org/wiki/Novo_Mesto_Grammar_School"
            }
        },
        {
            "type": "Feature",
            "geometry": {
                "type": "Point",
                "coordinates": [
                    15.16406667,
                    45.80756667
                ]
            },
            "properties": {
                "name": "Novo Mesto Grammar School",
                "article": "https://en.wikipedia.org/wiki/Novo_Mesto_Grammar_School"
            }
        },
        {
            "type": "Feature",
            "geometry": {
                "type": "Point",
                "coordinates": [
                    16.156667,
                    46.403611
                ]
            },
            "properties": {
                "name": "Ormož railway station",
                "article": "https://en.wikipedia.org/wiki/Ormo%C5%BE_railway_station"
            }
        },
        {
            "type": "Feature",
            "geometry": {
                "type": "Point",
                "coordinates": [
                    14.506245138,
                    46.050610101
                ]
            },
            "properties": {
                "name": "Philip Mansion",
                "article": "https://en.wikipedia.org/wiki/Philip_Mansion"
            }
        },
        {
            "type": "Feature",
            "geometry": {
                "type": "Point",
                "coordinates": [
                    14.50624722,
                    46.05085556
                ]
            },
            "properties": {
                "name": "Philip Mansion",
                "article": "https://en.wikipedia.org/wiki/Philip_Mansion"
            }
        },
        {
            "type": "Feature",
            "geometry": {
                "type": "Point",
                "coordinates": [
                    15.661944,
                    46.395556
                ]
            },
            "properties": {
                "name": "Pragersko railway station",
                "article": "https://en.wikipedia.org/wiki/Pragersko_railway_station"
            }
        },
        {
            "type": "Feature",
            "geometry": {
                "type": "Point",
                "coordinates": [
                    15.652410238,
                    46.568475726
                ]
            },
            "properties": {
                "name": "Pyramid",
                "article": "https://en.wikipedia.org/wiki/Pyramid_(Maribor)"
            }
        },
        {
            "type": "Feature",
            "geometry": {
                "type": "Point",
                "coordinates": [
                    14.471666666,
                    46.097222222
                ]
            },
            "properties": {
                "name": "St. Stanislaus Institute",
                "article": "https://en.wikipedia.org/wiki/St._Stanislaus_Institute_(Slovenia)"
            }
        },
        {
            "type": "Feature",
            "geometry": {
                "type": "Point",
                "coordinates": [
                    13.47207,
                    46.36177
                ]
            },
            "properties": {
                "name": "Prestreljenik",
                "article": "https://en.wikipedia.org/wiki/Prestreljenik"
            }
        },
        {
            "type": "Feature",
            "geometry": {
                "type": "Point",
                "coordinates": [
                    14.173836111,
                    46.340522222
                ]
            },
            "properties": {
                "name": "Radovljica train station",
                "article": null
            }
        },
        {
            "type": "Feature",
            "geometry": {
                "type": "Point",
                "coordinates": [
                    15.176111111,
                    46.526111111
                ]
            },
            "properties": {
                "name": "Velika Kopa",
                "article": null
            }
        },
        {
            "type": "Feature",
            "geometry": {
                "type": "Point",
                "coordinates": [
                    15.2028,
                    46.5072
                ]
            },
            "properties": {
                "name": "Velika Kopa",
                "article": null
            }
        },
        {
            "type": "Feature",
            "geometry": {
                "type": "Point",
                "coordinates": [
                    15.127577701,
                    45.714479502
                ]
            },
            "properties": {
                "name": "Uršna sela railway station",
                "article": "https://en.wikipedia.org/wiki/Ur%C5%A1na_Sela_railway_station"
            }
        },
        {
            "type": "Feature",
            "geometry": {
                "type": "Point",
                "coordinates": [
                    13.885,
                    46.496388888
                ]
            },
            "properties": {
                "name": "Visoki Kurji vrh",
                "article": "https://en.wikipedia.org/wiki/Visoki_Kurji_vrh"
            }
        },
        {
            "type": "Feature",
            "geometry": {
                "type": "Point",
                "coordinates": [
                    15.170278,
                    46.085556
                ]
            },
            "properties": {
                "name": "Zidani Most railway station",
                "article": "https://en.wikipedia.org/wiki/Zidani_Most_railway_station"
            }
        },
        {
            "type": "Feature",
            "geometry": {
                "type": "Point",
                "coordinates": [
                    14.069602777,
                    46.45965
                ]
            },
            "properties": {
                "name": "Španov vrh",
                "article": "https://en.wikipedia.org/wiki/%C5%A0panov_vrh"
            }
        },
        {
            "type": "Feature",
            "geometry": {
                "type": "Point",
                "coordinates": [
                    15.23972222,
                    46.16055556
                ]
            },
            "properties": {
                "name": "Hum (hill)",
                "article": "https://en.wikipedia.org/wiki/Mount_Hum_(La%C5%A1ko)"
            }
        },
        {
            "type": "Feature",
            "geometry": {
                "type": "Point",
                "coordinates": [
                    15.3016,
                    46.0095
                ]
            },
            "properties": {
                "name": "Sevnica train station",
                "article": null
            }
        },
        {
            "type": "Feature",
            "geometry": {
                "type": "Point",
                "coordinates": [
                    15.0086,
                    45.9069
                ]
            },
            "properties": {
                "name": "Trebnje",
                "article": null
            }
        },
        {
            "type": "Feature",
            "geometry": {
                "type": "Point",
                "coordinates": [
                    14.2822,
                    45.7331
                ]
            },
            "properties": {
                "name": "Veliki Javornik",
                "article": null
            }
        },
        {
            "type": "Feature",
            "geometry": {
                "type": "Point",
                "coordinates": [
                    14.187715877,
                    45.792209823
                ]
            },
            "properties": {
                "name": "Betalov spodmol",
                "article": "https://en.wikipedia.org/wiki/Betal_Rock_Shelter"
            }
        },
        {
            "type": "Feature",
            "geometry": {
                "type": "Point",
                "coordinates": [
                    13.7,
                    46.45
                ]
            },
            "properties": {
                "name": "Slemenova špica",
                "article": null
            }
        },
        {
            "type": "Feature",
            "geometry": {
                "type": "Point",
                "coordinates": [
                    15.31565,
                    46.483763888
                ]
            },
            "properties": {
                "name": "Lovrenc Lakes",
                "article": null
            }
        },
        {
            "type": "Feature",
            "geometry": {
                "type": "Point",
                "coordinates": [
                    15.2692,
                    46.4944
                ]
            },
            "properties": {
                "name": "Lake Peak",
                "article": null
            }
        },
        {
            "type": "Feature",
            "geometry": {
                "type": "Point",
                "coordinates": [
                    14.367778,
                    45.921389
                ]
            },
            "properties": {
                "name": "Borovnica railway station",
                "article": "https://en.wikipedia.org/wiki/Borovnica_railway_station"
            }
        },
        {
            "type": "Feature",
            "geometry": {
                "type": "Point",
                "coordinates": [
                    14.8253,
                    46.058
                ]
            },
            "properties": {
                "name": "Litija train station",
                "article": null
            }
        },
        {
            "type": "Feature",
            "geometry": {
                "type": "Point",
                "coordinates": [
                    15.8787,
                    46.422425
                ]
            },
            "properties": {
                "name": "Ptuj railway station",
                "article": null
            }
        },
        {
            "type": "Feature",
            "geometry": {
                "type": "Point",
                "coordinates": [
                    15.1559,
                    45.811
                ]
            },
            "properties": {
                "name": "Novo Mesto train station",
                "article": null
            }
        },
        {
            "type": "Feature",
            "geometry": {
                "type": "Point",
                "coordinates": [
                    14.3633333,
                    46.3483333
                ]
            },
            "properties": {
                "name": "Fat Peak",
                "article": null
            }
        },