{
    "type": "FeatureCollection",
    "features": [
        {
            "type": "Feature",
            "geometry": {
                "type": "Point",
                "coordinates": [
                    160.235,
                    -9.59
                ]
            },
            "properties": {
                "name": "Guadalcanal",
                "article": "https://en.wikipedia.org/wiki/Guadalcanal"
            }
        },
        {
            "type": "Feature",
            "geometry": {
                "type": "Point",
                "coordinates": [
                    160.41667,
                    -12.66667
                ]
            },
            "properties": {
                "name": "Indispensable Reefs",
                "article": "https://en.wikipedia.org/wiki/Indispensable_Reefs"
            }
        },
        {
            "type": "Feature",
            "geometry": {
                "type": "Point",
                "coordinates": [
                    160.416666666,
                    -12.066666666
                ]
            },
            "properties": {
                "name": "Indispensable Reefs",
                "article": "https://en.wikipedia.org/wiki/Indispensable_Reefs"
            }
        },
        {
            "type": "Feature",
            "geometry": {
                "type": "Point",
                "coordinates": [
                    157.801781,
                    -8.65222
                ]
            },
            "properties": {
                "name": "Akara",
                "article": "https://en.wikipedia.org/wiki/Akara_Island"
            }
        },
        {
            "type": "Feature",
            "geometry": {
                "type": "Point",
                "coordinates": [
                    155.766666666,
                    -7.033333333
                ]
            },
            "properties": {
                "name": "Shortland Island",
                "article": "https://en.wikipedia.org/wiki/Shortland_Island"
            }
        },
        {
            "type": "Feature",
            "geometry": {
                "type": "Point",
                "coordinates": [
                    159.366666666,
                    -5.316666666
                ]
            },
            "properties": {
                "name": "Ontong Java Atoll",
                "article": "https://en.wikipedia.org/wiki/Ontong_Java_Atoll"
            }
        },
        {
            "type": "Feature",
            "geometry": {
                "type": "Point",
                "coordinates": [
                    166.166666666,
                    -10.183333333
                ]
            },
            "properties": {
                "name": "Pileni",
                "article": "https://en.wikipedia.org/wiki/Pileni"
            }
        },
        {
            "type": "Feature",
            "geometry": {
                "type": "Point",
                "coordinates": [
                    156.516666666,
                    -8.291666666
                ]
            },
            "properties": {
                "name": "Simbo",
                "article": "https://en.wikipedia.org/wiki/Simbo"
            }
        },
        {
            "type": "Feature",
            "geometry": {
                "type": "Point",
                "coordinates": [
                    156.516666666,
                    -8.291666666
                ]
            },
            "properties": {
                "name": "Simbo",
                "article": "https://en.wikipedia.org/wiki/Simbo"
            }
        },
        {
            "type": "Feature",
            "geometry": {
                "type": "Point",
                "coordinates": [
                    169.850277777,
                    -11.610833333
                ]
            },
            "properties": {
                "name": "Anuta",
                "article": "https://en.wikipedia.org/wiki/Anuta"
            }
        },
        {
            "type": "Feature",
            "geometry": {
                "type": "Point",
                "coordinates": [
                    161.0,
                    -9.0
                ]
            },
            "properties": {
                "name": "Malaita",
                "article": "https://en.wikipedia.org/wiki/Malaita"
            }
        },
        {
            "type": "Feature",
            "geometry": {
                "type": "Point",
                "coordinates": [
                    156.066667,
                    -6.916667
                ]
            },
            "properties": {
                "name": "Fauro Island",
                "article": "https://en.wikipedia.org/wiki/Fauro_Island"
            }
        },
        {
            "type": "Feature",
            "geometry": {
                "type": "Point",
                "coordinates": [
                    157.143,
                    -8.208
                ]
            },
            "properties": {
                "name": "Arundel Island",
                "article": "https://en.wikipedia.org/wiki/Arundel_Island"
            }
        },
        {
            "type": "Feature",
            "geometry": {
                "type": "Point",
                "coordinates": [
                    159.016666666,
                    -8.0
                ]
            },
            "properties": {
                "name": "Santa Isabel Island",
                "article": "https://en.wikipedia.org/wiki/Santa_Isabel_(island)"
            }
        },
        {
            "type": "Feature",
            "geometry": {
                "type": "Point",
                "coordinates": [
                    161.828055555,
                    -10.551111111
                ]
            },
            "properties": {
                "name": "Makira",
                "article": "https://en.wikipedia.org/wiki/Makira"
            }
        },
        {
            "type": "Feature",
            "geometry": {
                "type": "Point",
                "coordinates": [
                    160.033333333,
                    -9.733333333
                ]
            },
            "properties": {
                "name": "Mount Makarakomburu",
                "article": "https://en.wikipedia.org/wiki/Mount_Makarakomburu"
            }
        },
        {
            "type": "Feature",
            "geometry": {
                "type": "Point",
                "coordinates": [
                    160.061944444,
                    -9.703611111
                ]
            },
            "properties": {
                "name": "Mount Popomanaseu",
                "article": "https://en.wikipedia.org/wiki/Mount_Popomanaseu"
            }
        },
        {
            "type": "Feature",
            "geometry": {
                "type": "Point",
                "coordinates": [
                    159.583333333,
                    -8.45
                ]
            },
            "properties": {
                "name": "San Jorge Island",
                "article": "https://en.wikipedia.org/wiki/San_Jorge_Island"
            }
        },
        {
            "type": "Feature",
            "geometry": {
                "type": "Point",
                "coordinates": [
                    159.8,
                    -11.3
                ]
            },
            "properties": {
                "name": "Bellona Island",
                "article": "https://en.wikipedia.org/wiki/Bellona_Island"
            }
        },
        {
            "type": "Feature",
            "geometry": {
                "type": "Point",
                "coordinates": [
                    160.333327777,
                    -11.683327777
                ]
            },
            "properties": {
                "name": "East Rennell",
                "article": "https://en.wikipedia.org/wiki/East_Rennell"
            }
        },
        {
            "type": "Feature",
            "geometry": {
                "type": "Point",
                "coordinates": [
                    160.150555555,
                    -9.103055555
                ]
            },
            "properties": {
                "name": "Tulagi",
                "article": "https://en.wikipedia.org/wiki/Tulagi"
            }
        },
        {
            "type": "Feature",
            "geometry": {
                "type": "Point",
                "coordinates": [
                    160.15,
                    -9.1
                ]
            },
            "properties": {
                "name": "Tulagi",
                "article": "https://en.wikipedia.org/wiki/Tulagi"
            }
        },
        {
            "type": "Feature",
            "geometry": {
                "type": "Point",
                "coordinates": [
                    156.966666666,
                    -7.0
                ]
            },
            "properties": {
                "name": "Choiseul Island",
                "article": "https://en.wikipedia.org/wiki/Choiseul_Island"
            }
        },
        {
            "type": "Feature",
            "geometry": {
                "type": "Point",
                "coordinates": [
                    168.831944444,
                    -12.296388888
                ]
            },
            "properties": {
                "name": "Tikopia",
                "article": "https://en.wikipedia.org/wiki/Tikopia"
            }
        },
        {
            "type": "Feature",
            "geometry": {
                "type": "Point",
                "coordinates": [
                    156.905555555,
                    -8.112777777
                ]
            },
            "properties": {
                "name": "Kennedy Island",
                "article": "https://en.wikipedia.org/wiki/Kennedy_Island"
            }
        },
        {
            "type": "Feature",
            "geometry": {
                "type": "Point",
                "coordinates": [
                    158.183333333,
                    -8.766666666
                ]
            },
            "properties": {
                "name": "Nggatokae Island",
                "article": "https://en.wikipedia.org/wiki/Nggatokae_Island"
            }
        },
        {
            "type": "Feature",
            "geometry": {
                "type": "Point",
                "coordinates": [
                    157.316666666,
                    -8.516666666
                ]
            },
            "properties": {
                "name": "Rendova Island",
                "article": "https://en.wikipedia.org/wiki/Rendova_Island"
            }
        },
        {
            "type": "Feature",
            "geometry": {
                "type": "Point",
                "coordinates": [
                    165.8,
                    -10.383333333
                ]
            },
            "properties": {
                "name": "Tinakula",
                "article": "https://en.wikipedia.org/wiki/Tinakula"
            }
        },
        {
            "type": "Feature",
            "geometry": {
                "type": "Point",
                "coordinates": [
                    157.5,
                    -8.25
                ]
            },
            "properties": {
                "name": "New Georgia",
                "article": "https://en.wikipedia.org/wiki/New_Georgia"
            }
        },
        {
            "type": "Feature",
            "geometry": {
                "type": "Point",
                "coordinates": [
                    159.816666666,
                    -9.133333333
                ]
            },
            "properties": {
                "name": "Savo Island",
                "article": "https://en.wikipedia.org/wiki/Savo_Island"
            }
        },
        {
            "type": "Feature",
            "geometry": {
                "type": "Point",
                "coordinates": [
                    159.816666666,
                    -9.133333333
                ]
            },
            "properties": {
                "name": "Savo Island",
                "article": "https://en.wikipedia.org/wiki/Savo_Island"
            }
        },
        {
            "type": "Feature",
            "geometry": {
                "type": "Point",
                "coordinates": [
                    159.1,
                    -9.066666666
                ]
            },
            "properties": {
                "name": "Pavuvu",
                "article": "https://en.wikipedia.org/wiki/Pavuvu"
            }
        },
        {
            "type": "Feature",
            "geometry": {
                "type": "Point",
                "coordinates": [
                    157.55,
                    -8.716666666
                ]
            },
            "properties": {
                "name": "Tetepare Island",
                "article": "https://en.wikipedia.org/wiki/Tetepare_Island"
            }
        },
        {
            "type": "Feature",
            "geometry": {
                "type": "Point",
                "coordinates": [
                    156.78611111,
                    -8.07472222
                ]
            },
            "properties": {
                "name": "Ghizo Island",
                "article": "https://en.wikipedia.org/wiki/Ghizo_Island"
            }
        },
        {
            "type": "Feature",
            "geometry": {
                "type": "Point",
                "coordinates": [
                    156.633333333,
                    -7.733333333
                ]
            },
            "properties": {
                "name": "Vella Lavella",
                "article": "https://en.wikipedia.org/wiki/Vella_Lavella"
            }
        },
        {
            "type": "Feature",
            "geometry": {
                "type": "Point",
                "coordinates": [
                    158.0,
                    -8.633333333
                ]
            },
            "properties": {
                "name": "Vangunu",
                "article": "https://en.wikipedia.org/wiki/Vangunu"
            }
        },
        {
            "type": "Feature",
            "geometry": {
                "type": "Point",
                "coordinates": [
                    156.85,
                    -8.1
                ]
            },
            "properties": {
                "name": "Gizo",
                "article": "https://en.wikipedia.org/wiki/Gizo,_Solomon_Islands"
            }
        },
        {
            "type": "Feature",
            "geometry": {
                "type": "Point",
                "coordinates": [
                    165.816666666,
                    -10.7
                ]
            },
            "properties": {
                "name": "Nendo Island",
                "article": "https://en.wikipedia.org/wiki/Nend%C3%B6_(island)"
            }
        },
        {
            "type": "Feature",
            "geometry": {
                "type": "Point",
                "coordinates": [
                    157.583333333,
                    -7.416666666
                ]
            },
            "properties": {
                "name": "Rob Roy Island",
                "article": "https://en.wikipedia.org/wiki/Rob_Roy_Island"
            }
        },
        {
            "type": "Feature",
            "geometry": {
                "type": "Point",
                "coordinates": [
                    158.13583333,
                    -8.765
                ]
            },
            "properties": {
                "name": "Penjuku",
                "article": "https://en.wikipedia.org/wiki/Penjuku"
            }
        },
        {
            "type": "Feature",
            "geometry": {
                "type": "Point",
                "coordinates": [
                    162.94147222,
                    -8.4115
                ]
            },
            "properties": {
                "name": "Faore",
                "article": "https://en.wikipedia.org/wiki/Faore"
            }
        },
        {
            "type": "Feature",
            "geometry": {
                "type": "Point",
                "coordinates": [
                    170.2,
                    -11.916666666
                ]
            },
            "properties": {
                "name": "Fatutaka",
                "article": "https://en.wikipedia.org/wiki/Fatutaka"
            }
        },
        {
            "type": "Feature",
            "geometry": {
                "type": "Point",
                "coordinates": [
                    156.396388888,
                    -6.711388888
                ]
            },
            "properties": {
                "name": "Taro Island",
                "article": "https://en.wikipedia.org/wiki/Taro_Island"
            }
        },
        {
            "type": "Feature",
            "geometry": {
                "type": "Point",
                "coordinates": [
                    157.075277777,
                    -8.233611111
                ]
            },
            "properties": {
                "name": "Vonavona",
                "article": "https://en.wikipedia.org/wiki/Vonavona"
            }
        },
        {
            "type": "Feature",
            "geometry": {
                "type": "Point",
                "coordinates": [
                    160.188888888,
                    -9.116666666
                ]
            },
            "properties": {
                "name": "Gavutu",
                "article": "https://en.wikipedia.org/wiki/Gavutu"
            }
        },
        {
            "type": "Feature",
            "geometry": {
                "type": "Point",
                "coordinates": [
                    155.560556,
                    -7.368611
                ]
            },
            "properties": {
                "name": "Mono Island",
                "article": "https://en.wikipedia.org/wiki/Mono_Island"
            }
        },
        {
            "type": "Feature",
            "geometry": {
                "type": "Point",
                "coordinates": [
                    166.966666666,
                    -11.616666666
                ]
            },
            "properties": {
                "name": "Vanikoro",
                "article": "https://en.wikipedia.org/wiki/Vanikoro"
            }
        },
        {
            "type": "Feature",
            "geometry": {
                "type": "Point",
                "coordinates": [
                    156.568,
                    -8.062
                ]
            },
            "properties": {
                "name": "Ranongga",
                "article": "https://en.wikipedia.org/wiki/Ranongga"
            }
        },
        {
            "type": "Feature",
            "geometry": {
                "type": "Point",
                "coordinates": [
                    161.467,
                    -9.546
                ]
            },
            "properties": {
                "name": "South Malaita Island",
                "article": "https://en.wikipedia.org/wiki/South_Malaita_Island"
            }
        },
        {
            "type": "Feature",
            "geometry": {
                "type": "Point",
                "coordinates": [
                    161.95,
                    -9.766666666
                ]
            },
            "properties": {
                "name": "Ulawa Island",
                "article": "https://en.wikipedia.org/wiki/Ulawa_Island"
            }
        },
        {
            "type": "Feature",
            "geometry": {
                "type": "Point",
                "coordinates": [
                    160.184722222,
                    -9.111111111
                ]
            },
            "properties": {
                "name": "Tanambogo",
                "article": "https://en.wikipedia.org/wiki/Tanambogo"
            }
        },
        {
            "type": "Feature",
            "geometry": {
                "type": "Point",
                "coordinates": [
                    155.575277777,
                    -7.411944444
                ]
            },
            "properties": {
                "name": "Stirling Island",
                "article": "https://en.wikipedia.org/wiki/Stirling_Island"
            }
        },
        {
            "type": "Feature",
            "geometry": {
                "type": "Point",
                "coordinates": [
                    156.54,
                    -7.821
                ]
            },
            "properties": {
                "name": "Mbava",
                "article": "https://en.wikipedia.org/wiki/Mbava"
            }
        },
        {
            "type": "Feature",
            "geometry": {
                "type": "Point",
                "coordinates": [
                    156.866666666,
                    -8.1
                ]
            },
            "properties": {
                "name": "Nusatupe",
                "article": "https://en.wikipedia.org/wiki/Nusatupe"
            }
        },
        {
            "type": "Feature",
            "geometry": {
                "type": "Point",
                "coordinates": [
                    156.86333333,
                    -8.09777778
                ]
            },
            "properties": {
                "name": "Nusatupe",
                "article": "https://en.wikipedia.org/wiki/Nusatupe"
            }
        },
        {
            "type": "Feature",
            "geometry": {
                "type": "Point",
                "coordinates": [
                    160.6163889,
                    -9.50666667
                ]
            },
            "properties": {
                "name": "Q1794207",
                "article": null
            }
        },
        {
            "type": "Feature",
            "geometry": {
                "type": "Point",
                "coordinates": [
                    160.866666,
                    -9.816666
                ]
            },
            "properties": {
                "name": "Marapa",
                "article": "https://en.wikipedia.org/wiki/Marapa"
            }
        },
        {
            "type": "Feature",
            "geometry": {
                "type": "Point",
                "coordinates": [
                    166.967,
                    -11.633
                ]
            },
            "properties": {
                "name": "Teanu",
                "article": "https://en.wikipedia.org/wiki/Teanu_(island)"
            }
        },
        {
            "type": "Feature",
            "geometry": {
                "type": "Point",
                "coordinates": [
                    165.793991666,
                    -10.697044444
                ]
            },
            "properties": {
                "name": "Malo",
                "article": "https://en.wikipedia.org/wiki/Malo_(Solomon_Islands)"
            }
        },
        {
            "type": "Feature",
            "geometry": {
                "type": "Point",
                "coordinates": [
                    167.216666666,
                    -9.95
                ]
            },
            "properties": {
                "name": "Taumako",
                "article": "https://en.wikipedia.org/wiki/Taumako"
            }
        },
        {
            "type": "Feature",
            "geometry": {
                "type": "Point",
                "coordinates": [
                    166.25,
                    -10.25
                ]
            },
            "properties": {
                "name": "Fenualoa",
                "article": "https://en.wikipedia.org/wiki/Fenualoa"
            }
        },
        {
            "type": "Feature",
            "geometry": {
                "type": "Point",
                "coordinates": [
                    161.9253,
                    -10.1396
                ]
            },
            "properties": {
                "name": "Ali'ite",
                "article": "https://en.wikipedia.org/wiki/Ali%27ite"
            }
        },
        {
            "type": "Feature",
            "geometry": {
                "type": "Point",
                "coordinates": [
                    160.733333333,
                    -8.9
                ]
            },
            "properties": {
                "name": "Alite Island",
                "article": "https://en.wikipedia.org/wiki/Alite_Island"
            }
        },
        {
            "type": "Feature",
            "geometry": {
                "type": "Point",
                "coordinates": [
                    161.263,
                    -9.166
                ]
            },
            "properties": {
                "name": "Anuta Paina",
                "article": "https://en.wikipedia.org/wiki/Anuta_Paina"
            }
        },
        {
            "type": "Feature",
            "geometry": {
                "type": "Point",
                "coordinates": [
                    155.8815,
                    -6.989
                ]
            },
            "properties": {
                "name": "Balalae Island",
                "article": "https://en.wikipedia.org/wiki/Balalae_Island"
            }
        },
        {
            "type": "Feature",
            "geometry": {
                "type": "Point",
                "coordinates": [
                    166.266666666,
                    -10.283333333
                ]
            },
            "properties": {
                "name": "Lomlom",
                "article": "https://en.wikipedia.org/wiki/Lomlom"
            }
        },
        {
            "type": "Feature",
            "geometry": {
                "type": "Point",
                "coordinates": [
                    156.183333333,
                    -6.85
                ]
            },
            "properties": {
                "name": "Cyprian Bridge Island",
                "article": "https://en.wikipedia.org/wiki/Cyprian_Bridge_Island"
            }
        },
        {
            "type": "Feature",
            "geometry": {
                "type": "Point",
                "coordinates": [
                    159.59,
                    -8.10944444
                ]
            },
            "properties": {
                "name": "Fera Island",
                "article": "https://en.wikipedia.org/wiki/Fera_Island"
            }
        },
        {
            "type": "Feature",
            "geometry": {
                "type": "Point",
                "coordinates": [
                    159.595,
                    -8.1072
                ]
            },
            "properties": {
                "name": "Fera Island",
                "article": "https://en.wikipedia.org/wiki/Fera_Island"
            }
        },
        {
            "type": "Feature",
            "geometry": {
                "type": "Point",
                "coordinates": [
                    160.816666666,
                    -8.4
                ]
            },
            "properties": {
                "name": "Funaafou",
                "article": "https://en.wikipedia.org/wiki/Funaafou"
            }
        },
        {
            "type": "Feature",
            "geometry": {
                "type": "Point",
                "coordinates": [
                    159.1,
                    -8.13333333
                ]
            },
            "properties": {
                "name": "Furona Island",
                "article": "https://en.wikipedia.org/wiki/Furona_Island"
            }
        },
        {
            "type": "Feature",
            "geometry": {
                "type": "Point",
                "coordinates": [
                    156.533333333,
                    -7.933333333
                ]
            },
            "properties": {
                "name": "Ghoi",
                "article": "https://en.wikipedia.org/wiki/Ghoi"
            }
        },
        {
            "type": "Feature",
            "geometry": {
                "type": "Point",
                "coordinates": [
                    159.95,
                    -9.433333
                ]
            },
            "properties": {
                "name": "Honiara",
                "article": "https://en.wikipedia.org/wiki/Honiara"
            }
        },
        {
            "type": "Feature",
            "geometry": {
                "type": "Point",
                "coordinates": [
                    160.166666666,
                    -11.666666666
                ]
            },
            "properties": {
                "name": "Rennell Island",
                "article": "https://en.wikipedia.org/wiki/Rennell_Island"
            }
        },
        {
            "type": "Feature",
            "geometry": {
                "type": "Point",
                "coordinates": [
                    158.74,
                    -9.02
                ]
            },
            "properties": {
                "name": "Mborokua",
                "article": "https://en.wikipedia.org/wiki/Mborokua"
            }
        },
        {
            "type": "Feature",
            "geometry": {
                "type": "Point",
                "coordinates": [
                    161.75,
                    -10.25
                ]
            },
            "properties": {
                "name": "Uki Ni Masi",
                "article": "https://en.wikipedia.org/wiki/Ugi_Island"
            }
        },
        {
            "type": "Feature",
            "geometry": {
                "type": "Point",
                "coordinates": [
                    162.87077778,
                    -8.42291667
                ]
            },
            "properties": {
                "name": "Matuavi",
                "article": "https://en.wikipedia.org/wiki/Matuavi"
            }
        },
        {
            "type": "Feature",
            "geometry": {
                "type": "Point",
                "coordinates": [
                    160.343055555,
                    -9.284444444
                ]
            },
            "properties": {
                "name": "Nughu",
                "article": "https://en.wikipedia.org/wiki/Nughu"
            }
        },
        {
            "type": "Feature",
            "geometry": {
                "type": "Point",
                "coordinates": [
                    166.0503,
                    -10.0818
                ]
            },
            "properties": {
                "name": "Nukapu",
                "article": "https://en.wikipedia.org/wiki/Nukapu"
            }
        },
        {
            "type": "Feature",
            "geometry": {
                "type": "Point",
                "coordinates": [
                    158.022,
                    -7.453
                ]
            },
            "properties": {
                "name": "Kerehikapa",
                "article": "https://en.wikipedia.org/wiki/Kerehikapa"
            }
        },
        {
            "type": "Feature",
            "geometry": {
                "type": "Point",
                "coordinates": [
                    162.463611111,
                    -10.828333333
                ]
            },
            "properties": {
                "name": "Owaraha",
                "article": "https://en.wikipedia.org/wiki/Owaraha"
            }
        },
        {
            "type": "Feature",
            "geometry": {
                "type": "Point",
                "coordinates": [
                    162.446,
                    -10.892
                ]
            },
            "properties": {
                "name": "Owariki",
                "article": "https://en.wikipedia.org/wiki/Owariki"
            }
        },
        {
            "type": "Feature",
            "geometry": {
                "type": "Point",
                "coordinates": [
                    166.483333333,
                    -11.25
                ]
            },
            "properties": {
                "name": "Utupua Island",
                "article": "https://en.wikipedia.org/wiki/Utupua"
            }
        },
        {
            "type": "Feature",
            "geometry": {
                "type": "Point",
                "coordinates": [
                    159.17277778,
                    -8.95972222
                ]
            },
            "properties": {
                "name": "Aeaun",
                "article": "https://en.wikipedia.org/wiki/Aeaun"
            }
        },
        {
            "type": "Feature",
            "geometry": {
                "type": "Point",
                "coordinates": [
                    159.381388888,
                    -6.227777777
                ]
            },
            "properties": {
                "name": "Roncador Reef",
                "article": "https://en.wikipedia.org/wiki/Roncador_Reef"
            }
        },
        {
            "type": "Feature",
            "geometry": {
                "type": "Point",
                "coordinates": [
                    157.976,
                    -7.445
                ]
            },
            "properties": {
                "name": "Sikopo",
                "article": "https://en.wikipedia.org/wiki/Sikopo"
            }
        },
        {
            "type": "Feature",
            "geometry": {
                "type": "Point",
                "coordinates": [
                    159.81743,
                    -8.41093
                ]
            },
            "properties": {
                "name": "Q2372884",
                "article": null
            }
        },
        {
            "type": "Feature",
            "geometry": {
                "type": "Point",
                "coordinates": [
                    160.85,
                    -9.826
                ]
            },
            "properties": {
                "name": "Tavanipupu",
                "article": "https://en.wikipedia.org/wiki/Tavanipupu"
            }
        },
        {
            "type": "Feature",
            "geometry": {
                "type": "Point",
                "coordinates": [
                    166.233333333,
                    -10.183333333
                ]
            },
            "properties": {
                "name": "Nifiloli",
                "article": "https://en.wikipedia.org/wiki/Nifiloli"
            }
        },
        {
            "type": "Feature",
            "geometry": {
                "type": "Point",
                "coordinates": [
                    159.194,
                    -9.098
                ]
            },
            "properties": {
                "name": "Mbanika",
                "article": "https://en.wikipedia.org/wiki/Mbanika"
            }
        },
        {
            "type": "Feature",
            "geometry": {
                "type": "Point",
                "coordinates": [
                    166.9,
                    -11.65
                ]
            },
            "properties": {
                "name": "Banie",
                "article": "https://en.wikipedia.org/wiki/Banie_(island)"
            }
        },
        {
            "type": "Feature",
            "geometry": {
                "type": "Point",
                "coordinates": [
                    165.8075,
                    -10.676389
                ]
            },
            "properties": {
                "name": "Q3014134",
                "article": null
            }
        },
        {
            "type": "Feature",
            "geometry": {
                "type": "Point",
                "coordinates": [
                    160.85,
                    -8.45
                ]
            },
            "properties": {
                "name": "Sulufou",
                "article": "https://en.wikipedia.org/wiki/Sulufou"
            }
        },
        {
            "type": "Feature",
            "geometry": {
                "type": "Point",
                "coordinates": [
                    155.869444444,
                    -7.070833333
                ]
            },
            "properties": {
                "name": "Faisi",
                "article": "https://en.wikipedia.org/wiki/Faisi"
            }
        },
        {
            "type": "Feature",
            "geometry": {
                "type": "Point",
                "coordinates": [
                    160.85,
                    -8.433333333
                ]
            },
            "properties": {
                "name": "Adagege",
                "article": "https://en.wikipedia.org/wiki/Adagege"
            }
        },
        {
            "type": "Feature",
            "geometry": {
                "type": "Point",
                "coordinates": [
                    160.746263888,
                    -8.878672222
                ]
            },
            "properties": {
                "name": "Laulasi Island",
                "article": "https://en.wikipedia.org/wiki/Laulasi_Island"
            }
        },
        {
            "type": "Feature",
            "geometry": {
                "type": "Point",
                "coordinates": [
                    160.7471,
                    -8.8785
                ]
            },
            "properties": {
                "name": "Laulasi Island",
                "article": "https://en.wikipedia.org/wiki/Laulasi_Island"
            }
        },
        {
            "type": "Feature",
            "geometry": {
                "type": "Point",
                "coordinates": [
                    160.197,
                    -9.0722
                ]
            },
            "properties": {
                "name": "Nggela Sule Island",
                "article": null
            }
        },
        {
            "type": "Feature",
            "geometry": {
                "type": "Point",
                "coordinates": [
                    160.320555555,
                    -9.133333333
                ]
            },
            "properties": {
                "name": "Nggela Pile Island",
                "article": null
            }
        },
        {
            "type": "Feature",
            "geometry": {
                "type": "Point",
                "coordinates": [
                    160.35,
                    -9.1441
                ]
            },
            "properties": {
                "name": "Nggela Pile Island",
                "article": null
            }
        },
        {
            "type": "Feature",
            "geometry": {
                "type": "Point",
                "coordinates": [
                    157.270833333,
                    -8.328055555
                ]
            },
            "properties": {
                "name": "Kiambe",
                "article": "https://en.wikipedia.org/wiki/Kiambe"
            }
        },
        {
            "type": "Feature",
            "geometry": {
                "type": "Point",
                "coordinates": [
                    158.125,
                    -8.764
                ]
            },
            "properties": {
                "name": "Kingguru",
                "article": "https://en.wikipedia.org/wiki/Kingguru"
            }
        },
        {
            "type": "Feature",
            "geometry": {
                "type": "Point",
                "coordinates": [
                    160.425328,
                    -9.925657
                ]
            },
            "properties": {
                "name": "Korasahalu",
                "article": "https://en.wikipedia.org/wiki/Korasahalu"
            }
        },
        {
            "type": "Feature",
            "geometry": {
                "type": "Point",
                "coordinates": [
                    160.745,
                    -8.8775
                ]
            },
            "properties": {
                "name": "Langa Langa Lagoon",
                "article": "https://en.wikipedia.org/wiki/Langa_Langa_Lagoon"
            }
        },
        {
            "type": "Feature",
            "geometry": {
                "type": "Point",
                "coordinates": [
                    156.711,
                    -7.953
                ]
            },
            "properties": {
                "name": "Liapari",
                "article": "https://en.wikipedia.org/wiki/Liapari"
            }
        },
        {
            "type": "Feature",
            "geometry": {
                "type": "Point",
                "coordinates": [
                    157.166666666,
                    -8.3
                ]
            },
            "properties": {
                "name": "Lola Island",
                "article": "https://en.wikipedia.org/wiki/Lola_Island"
            }
        },
        {
            "type": "Feature",
            "geometry": {
                "type": "Point",
                "coordinates": [
                    161.97,
                    -10.248
                ]
            },
            "properties": {
                "name": "Malaupaina",
                "article": "https://en.wikipedia.org/wiki/Malaupaina"
            }
        },
        {
            "type": "Feature",
            "geometry": {
                "type": "Point",
                "coordinates": [
                    161.946,
                    -10.186
                ]
            },
            "properties": {
                "name": "Malaulalo",
                "article": "https://en.wikipedia.org/wiki/Malaulalo"
            }
        },
        {
            "type": "Feature",
            "geometry": {
                "type": "Point",
                "coordinates": [
                    158.0506,
                    -7.4838
                ]
            },
            "properties": {
                "name": "Maleivona",
                "article": "https://en.wikipedia.org/wiki/Maleivona"
            }
        },
        {
            "type": "Feature",
            "geometry": {
                "type": "Point",
                "coordinates": [
                    160.843333333,
                    -9.804444444
                ]
            },
            "properties": {
                "name": "Marau Sound",
                "article": "https://en.wikipedia.org/wiki/Marau_Sound"
            }
        },
        {
            "type": "Feature",
            "geometry": {
                "type": "Point",
                "coordinates": [
                    158.0,
                    -8.5
                ]
            },
            "properties": {
                "name": "Marovo Island",
                "article": "https://en.wikipedia.org/wiki/Marovo_Island"
            }
        },
        {
            "type": "Feature",
            "geometry": {
                "type": "Point",
                "coordinates": [
                    166.184,
                    -10.293
                ]
            },
            "properties": {
                "name": "Matema Island",
                "article": "https://en.wikipedia.org/wiki/Matema_Island"
            }
        },
        {
            "type": "Feature",
            "geometry": {
                "type": "Point",
                "coordinates": [
                    157.9818,
                    -8.6259
                ]
            },
            "properties": {
                "name": "Matikuri",
                "article": "https://en.wikipedia.org/wiki/Matikuri"
            }
        },
        {
            "type": "Feature",
            "geometry": {
                "type": "Point",
                "coordinates": [
                    160.582,
                    -8.311
                ]
            },
            "properties": {
                "name": "Mbasakana",
                "article": "https://en.wikipedia.org/wiki/Mbasakana"
            }
        },
        {
            "type": "Feature",
            "geometry": {
                "type": "Point",
                "coordinates": [
                    158.283333333,
                    -8.766666666
                ]
            },
            "properties": {
                "name": "Mbulo Island",
                "article": "https://en.wikipedia.org/wiki/Mbulo_Island"
            }
        },
        {
            "type": "Feature",
            "geometry": {
                "type": "Point",
                "coordinates": [
                    157.9818,
                    -8.6259
                ]
            },
            "properties": {
                "name": "Mondomondo",
                "article": "https://en.wikipedia.org/wiki/Mondomondo"
            }
        },
        {
            "type": "Feature",
            "geometry": {
                "type": "Point",
                "coordinates": [
                    157.075,
                    -7.95
                ]
            },
            "properties": {
                "name": "Mount Veve",
                "article": "https://en.wikipedia.org/wiki/Mount_Veve"
            }
        },
        {
            "type": "Feature",
            "geometry": {
                "type": "Point",
                "coordinates": [
                    156.495277777,
                    -7.885555555
                ]
            },
            "properties": {
                "name": "Nakaza Island",
                "article": "https://en.wikipedia.org/wiki/Nakaza_Island"
            }
        },
        {
            "type": "Feature",
            "geometry": {
                "type": "Point",
                "coordinates": [
                    156.483333333,
                    -7.85
                ]
            },
            "properties": {
                "name": "Nakaza Island",
                "article": "https://en.wikipedia.org/wiki/Nakaza_Island"
            }
        },
        {
            "type": "Feature",
            "geometry": {
                "type": "Point",
                "coordinates": [
                    160.616666666,
                    -7.9
                ]
            },
            "properties": {
                "name": "Ndai",
                "article": "https://en.wikipedia.org/wiki/Ndai"
            }
        },
        {
            "type": "Feature",
            "geometry": {
                "type": "Point",
                "coordinates": [
                    157.161108333,
                    -7.124005555
                ]
            },
            "properties": {
                "name": "Nuatambu",
                "article": "https://en.wikipedia.org/wiki/Nuatambu"
            }
        },
        {
            "type": "Feature",
            "geometry": {
                "type": "Point",
                "coordinates": [
                    166.116666666,
                    -9.716666666
                ]
            },
            "properties": {
                "name": "Patteson Shoal",
                "article": "https://en.wikipedia.org/wiki/Patteson_Shoal"
            }
        },
        {
            "type": "Feature",
            "geometry": {
                "type": "Point",
                "coordinates": [
                    166.295,
                    -10.3035
                ]
            },
            "properties": {
                "name": "Pigeon Island",
                "article": "https://en.wikipedia.org/wiki/Pigeon_Island_(Solomon_Islands)"
            }
        },
        {
            "type": "Feature",
            "geometry": {
                "type": "Point",
                "coordinates": [
                    161.683333333,
                    -10.166666666
                ]
            },
            "properties": {
                "name": "Pio Island",
                "article": "https://en.wikipedia.org/wiki/Pio_Island"
            }
        },
        {
            "type": "Feature",
            "geometry": {
                "type": "Point",
                "coordinates": [
                    157.65337,
                    -8.1745
                ]
            },
            "properties": {
                "name": "Ramata Island",
                "article": "https://en.wikipedia.org/wiki/Ramata_Island"
            }
        },
        {
            "type": "Feature",
            "geometry": {
                "type": "Point",
                "coordinates": [
                    160.183333333,
                    -8.25
                ]
            },
            "properties": {
                "name": "Ramos Island",
                "article": "https://en.wikipedia.org/wiki/Ramos_Island"
            }
        },
        {
            "type": "Feature",
            "geometry": {
                "type": "Point",
                "coordinates": [
                    160.65,
                    -9.9
                ]
            },
            "properties": {
                "name": "Telina",
                "article": "https://en.wikipedia.org/wiki/Telina"
            }
        },
        {
            "type": "Feature",
            "geometry": {
                "type": "Point",
                "coordinates": [
                    161.983,
                    -9.98333
                ]
            },
            "properties": {
                "name": "Teonimanu",
                "article": "https://en.wikipedia.org/wiki/Teonimanu"
            }
        },
        {
            "type": "Feature",
            "geometry": {
                "type": "Point",
                "coordinates": [
                    157.94,
                    -8.422
                ]
            },
            "properties": {
                "name": "Uepi",
                "article": "https://en.wikipedia.org/wiki/Uepi"
            }
        },
        {
            "type": "Feature",
            "geometry": {
                "type": "Point",
                "coordinates": [
                    160.477231,
                    -9.497678
                ]
            },
            "properties": {
                "name": "Vulelua",
                "article": "https://en.wikipedia.org/wiki/Vulelua"
            }
        },
        {
            "type": "Feature",
            "geometry": {
                "type": "Point",
                "coordinates": [
                    159.216666666,
                    -9.116666666
                ]
            },
            "properties": {
                "name": "Yandina",
                "article": "https://en.wikipedia.org/wiki/Yandina,_Solomon_Islands"
            }
        },
        {
            "type": "Feature",
            "geometry": {
                "type": "Point",
                "coordinates": [
                    157.31025,
                    -8.40303333
                ]
            },
            "properties": {
                "name": "Lumbari Island",
                "article": "https://en.wikipedia.org/wiki/Lumbari_Island"
            }
        },
        {
            "type": "Feature",
            "geometry": {
                "type": "Point",
                "coordinates": [
                    160.794,
                    -8.306
                ]
            },
            "properties": {
                "name": "Maana'omba",
                "article": "https://en.wikipedia.org/wiki/Maana%27omba"
            }
        },
        {
            "type": "Feature",
            "geometry": {
                "type": "Point",
                "coordinates": [
                    166.2002,
                    -10.1686
                ]
            },
            "properties": {
                "name": "Makalom",
                "article": "https://en.wikipedia.org/wiki/Makalom"
            }
        },
        {
            "type": "Feature",
            "geometry": {
                "type": "Point",
                "coordinates": [
                    156.846388888,
                    -8.092222222
                ]
            },
            "properties": {
                "name": "Logha",
                "article": "https://en.wikipedia.org/wiki/Logha"
            }
        },
        {
            "type": "Feature",
            "geometry": {
                "type": "Point",
                "coordinates": [
                    160.83333333,
                    -8.78333333
                ]
            },
            "properties": {
                "name": "Mount Kalourat",
                "article": "https://en.wikipedia.org/wiki/Mount_Kalourat"
            }
        },
        {
            "type": "Feature",
            "geometry": {
                "type": "Point",
                "coordinates": [
                    160.198055555,
                    -9.692222222
                ]
            },
            "properties": {
                "name": "Mount Vuro",
                "article": null
            }
        },
        {
            "type": "Feature",
            "geometry": {
                "type": "Point",
                "coordinates": [
                    160.266666666,
                    -9.65
                ]
            },
            "properties": {
                "name": "Vungana",
                "article": null
            }
        },
        {
            "type": "Feature",
            "geometry": {
                "type": "Point",
                "coordinates": [
                    160.523611111,
                    -9.733055555
                ]
            },
            "properties": {
                "name": "Mount Vausu",
                "article": null
            }
        },
        {
            "type": "Feature",
            "geometry": {
                "type": "Point",
                "coordinates": [
                    160.329166666,
                    -9.745833333
                ]
            },
            "properties": {
                "name": "Mount Vatutora",
                "article": null
            }
        },
        {
            "type": "Feature",
            "geometry": {
                "type": "Point",
                "coordinates": [
                    159.975277777,
                    -9.749722222
                ]
            },
            "properties": {
                "name": "Mount Vatusuangaghi",
                "article": null
            }
        },
        {
            "type": "Feature",
            "geometry": {
                "type": "Point",
                "coordinates": [
                    160.432222222,
                    -9.693055555
                ]
            },
            "properties": {
                "name": "Mount Vatupochau",
                "article": null
            }
        },
        {
            "type": "Feature",
            "geometry": {
                "type": "Point",
                "coordinates": [
                    159.884166666,
                    -9.606944444
                ]
            },
            "properties": {
                "name": "Mount Vatunjae",
                "article": null
            }
        },
        {
            "type": "Feature",
            "geometry": {
                "type": "Point",
                "coordinates": [
                    160.0,
                    -9.733333333
                ]
            },
            "properties": {
                "name": "Mount Vatumangau",
                "article": null
            }
        },
        {
            "type": "Feature",
            "geometry": {
                "type": "Point",
                "coordinates": [
                    160.05,
                    -9.683333333
                ]
            },
            "properties": {
                "name": "Vatulumalolongguha",
                "article": null
            }
        },
        {
            "type": "Feature",
            "geometry": {
                "type": "Point",
                "coordinates": [
                    160.383055555,
                    -9.774166666
                ]
            },
            "properties": {
                "name": "Mount Vatu Horoi",
                "article": null
            }
        },
        {
            "type": "Feature",
            "geometry": {
                "type": "Point",
                "coordinates": [
                    160.089166666,
                    -9.752777777
                ]
            },
            "properties": {
                "name": "Mount Vatuchichi",
                "article": null
            }
        },
        {
            "type": "Feature",
            "geometry": {
                "type": "Point",
                "coordinates": [
                    160.7025,
                    -9.843055555
                ]
            },
            "properties": {
                "name": "Mount Valivalisi",
                "article": null
            }
        },
        {
            "type": "Feature",
            "geometry": {
                "type": "Point",
                "coordinates": [
                    159.714444444,
                    -9.641944444
                ]
            },
            "properties": {
                "name": "Tughuruloki Mountain",
                "article": null
            }
        },
        {
            "type": "Feature",
            "geometry": {
                "type": "Point",
                "coordinates": [
                    160.424166666,
                    -9.762777777
                ]
            },
            "properties": {
                "name": "Mount Tohasa",
                "article": null
            }
        },
        {
            "type": "Feature",
            "geometry": {
                "type": "Point",
                "coordinates": [
                    160.11763,
                    -9.77213
                ]
            },
            "properties": {
                "name": "Toghatogha",
                "article": null
            }
        },
        {
            "type": "Feature",
            "geometry": {
                "type": "Point",
                "coordinates": [
                    160.416666666,
                    -9.75
                ]
            },
            "properties": {
                "name": "Mount Toghasa",
                "article": null
            }
        },
        {
            "type": "Feature",
            "geometry": {
                "type": "Point",
                "coordinates": [
                    160.190277777,
                    -9.736388888
                ]
            },
            "properties": {
                "name": "Tingge Tingge",
                "article": null
            }
        },
        {
            "type": "Feature",
            "geometry": {
                "type": "Point",
                "coordinates": [
                    160.158333333,
                    -9.7325
                ]
            },
            "properties": {
                "name": "Tavisana",
                "article": null
            }
        },
        {
            "type": "Feature",
            "geometry": {
                "type": "Point",
                "coordinates": [
                    160.174444444,
                    -9.6725
                ]
            },
            "properties": {
                "name": "Mount Tatuve",
                "article": null
            }
        },
        {
            "type": "Feature",
            "geometry": {
                "type": "Point",
                "coordinates": [
                    159.868611111,
                    -9.740555555
                ]
            },
            "properties": {
                "name": "Mount Tasambagha",
                "article": null
            }
        },
        {
            "type": "Feature",
            "geometry": {
                "type": "Point",
                "coordinates": [
                    159.683333333,
                    -9.366666666
                ]
            },
            "properties": {
                "name": "Mount Tangi",
                "article": null
            }
        },
        {
            "type": "Feature",
            "geometry": {
                "type": "Point",
                "coordinates": [
                    160.083055555,
                    -9.726666666
                ]
            },
            "properties": {
                "name": "Mount Tanareirei",
                "article": null
            }
        },
        {
            "type": "Feature",
            "geometry": {
                "type": "Point",
                "coordinates": [
                    159.953611111,
                    -9.775833333
                ]
            },
            "properties": {
                "name": "Mount Tananggoranggora",
                "article": null
            }
        },
        {
            "type": "Feature",
            "geometry": {
                "type": "Point",
                "coordinates": [
                    159.977222222,
                    -9.655
                ]
            },
            "properties": {
                "name": "Mount Tambunanguu",
                "article": null
            }
        },
        {
            "type": "Feature",
            "geometry": {
                "type": "Point",
                "coordinates": [
                    160.159166666,
                    -9.630555555
                ]
            },
            "properties": {
                "name": "Mount Taluva",
                "article": null
            }
        },
        {
            "type": "Feature",
            "geometry": {
                "type": "Point",
                "coordinates": [
                    160.301111111,
                    -9.565555555
                ]
            },
            "properties": {
                "name": "Mount Supue",
                "article": null
            }
        },
        {
            "type": "Feature",
            "geometry": {
                "type": "Point",
                "coordinates": [
                    160.164166666,
                    -9.749722222
                ]
            },
            "properties": {
                "name": "Mount Kemau",
                "article": null
            }
        },
        {
            "type": "Feature",
            "geometry": {
                "type": "Point",
                "coordinates": [
                    159.834166666,
                    -8.536111111
                ]
            },
            "properties": {
                "name": "Mount Kamaru",
                "article": null
            }
        },
        {
            "type": "Feature",
            "geometry": {
                "type": "Point",
                "coordinates": [
                    160.507222222,
                    -9.783888888
                ]
            },
            "properties": {
                "name": "Mount Kaichui",
                "article": null
            }
        },
        {
            "type": "Feature",
            "geometry": {
                "type": "Point",
                "coordinates": [
                    159.633333333,
                    -9.483333333
                ]
            },
            "properties": {
                "name": "Hat Hill",
                "article": null
            }
        },
        {
            "type": "Feature",
            "geometry": {
                "type": "Point",
                "coordinates": [
                    160.493333333,
                    -9.745
                ]
            },
            "properties": {
                "name": "Mount Hanihanikaro",
                "article": null
            }
        },
        {
            "type": "Feature",
            "geometry": {
                "type": "Point",
                "coordinates": [
                    159.840833333,
                    -8.538888888
                ]
            },
            "properties": {
                "name": "Mount Ghomba",
                "article": null
            }
        },
        {
            "type": "Feature",
            "geometry": {
                "type": "Point",
                "coordinates": [
                    159.733055555,
                    -9.356944444
                ]
            },
            "properties": {
                "name": "Mount Gallego",
                "article": null
            }
        },
        {
            "type": "Feature",
            "geometry": {
                "type": "Point",
                "coordinates": [
                    159.699444444,
                    -9.270277777
                ]
            },
            "properties": {
                "name": "Mount Esperance",
                "article": null
            }
        },
        {
            "type": "Feature",
            "geometry": {
                "type": "Point",
                "coordinates": [
                    160.240277777,
                    -9.750555555
                ]
            },
            "properties": {
                "name": "Chupu Tambu",
                "article": null
            }
        },
        {
            "type": "Feature",
            "geometry": {
                "type": "Point",
                "coordinates": [
                    160.163888888,
                    -9.690277777
                ]
            },
            "properties": {
                "name": "Chupu Na Ndoli",
                "article": null
            }
        },
        {
            "type": "Feature",
            "geometry": {
                "type": "Point",
                "coordinates": [
                    159.75,
                    -9.35
                ]
            },
            "properties": {
                "name": "Choilo",
                "article": null
            }
        },
        {
            "type": "Feature",
            "geometry": {
                "type": "Point",
                "coordinates": [
                    159.698888888,
                    -9.260833333
                ]
            },
            "properties": {
                "name": "Mount Chiromaghati",
                "article": null
            }
        },
        {
            "type": "Feature",
            "geometry": {
                "type": "Point",
                "coordinates": [
                    160.112777777,
                    -9.644444444
                ]
            },
            "properties": {
                "name": "Mount Chaunapaho",
                "article": null
            }
        },
        {
            "type": "Feature",
            "geometry": {
                "type": "Point",
                "coordinates": [
                    160.032,
                    -9.7721
                ]
            },
            "properties": {
                "name": "Mount Chakachaka",
                "article": null
            }
        },
        {
            "type": "Feature",
            "geometry": {
                "type": "Point",
                "coordinates": [
                    159.984166666,
                    -9.480833333
                ]
            },
            "properties": {
                "name": "Mount Austen",
                "article": null
            }
        },
        {
            "type": "Feature",
            "geometry": {
                "type": "Point",
                "coordinates": [
                    159.808055555,
                    -8.511111111
                ]
            },
            "properties": {
                "name": "Mount Ala'ala",
                "article": null
            }
        },
        {
            "type": "Feature",
            "geometry": {
                "type": "Point",
                "coordinates": [
                    156.75,
                    -6.933333333
                ]
            },
            "properties": {
                "name": "Vuasa",
                "article": null
            }
        },
        {
            "type": "Feature",
            "geometry": {
                "type": "Point",
                "coordinates": [
                    156.535833333,
                    -7.971388888
                ]
            },
            "properties": {
                "name": "Mount Tuara",
                "article": null
            }
        },
        {
            "type": "Feature",
            "geometry": {
                "type": "Point",
                "coordinates": [
                    157.249166666,
                    -7.3325
                ]
            },
            "properties": {
                "name": "Mount Tombo",
                "article": null
            }
        },
        {
            "type": "Feature",
            "geometry": {
                "type": "Point",
                "coordinates": [
                    159.565555555,
                    -8.458888888
                ]
            },
            "properties": {
                "name": "Mount Tohebakala",
                "article": null
            }
        },
        {
            "type": "Feature",
            "geometry": {
                "type": "Point",
                "coordinates": [
                    159.764166666,
                    -8.371666666
                ]
            },
            "properties": {
                "name": "Mount Tiromola",
                "article": null
            }
        },
        {
            "type": "Feature",
            "geometry": {
                "type": "Point",
                "coordinates": [
                    157.344722222,
                    -8.487222222
                ]
            },
            "properties": {
                "name": "Mount Tiroana",
                "article": null
            }
        },
        {
            "type": "Feature",
            "geometry": {
                "type": "Point",
                "coordinates": [
                    156.7,
                    -6.783333333
                ]
            },
            "properties": {
                "name": "Tarumba",
                "article": null
            }
        },
        {
            "type": "Feature",
            "geometry": {
                "type": "Point",
                "coordinates": [
                    156.665,
                    -6.780833333
                ]
            },
            "properties": {
                "name": "Mount Tandora",
                "article": null
            }
        },
        {
            "type": "Feature",
            "geometry": {
                "type": "Point",
                "coordinates": [
                    159.518055555,
                    -8.221111111
                ]
            },
            "properties": {
                "name": "Mount Taghuaba",
                "article": null
            }
        },
        {
            "type": "Feature",
            "geometry": {
                "type": "Point",
                "coordinates": [
                    156.611388888,
                    -6.748055555
                ]
            },
            "properties": {
                "name": "Mount Suaka",
                "article": null
            }
        },
        {
            "type": "Feature",
            "geometry": {
                "type": "Point",
                "coordinates": [
                    159.554722222,
                    -8.174444444
                ]
            },
            "properties": {
                "name": "Mount Sasari",
                "article": null
            }
        },
        {
            "type": "Feature",
            "geometry": {
                "type": "Point",
                "coordinates": [
                    156.7325,
                    -6.9175
                ]
            },
            "properties": {
                "name": "Sangambangara",
                "article": null
            }
        },
        {
            "type": "Feature",
            "geometry": {
                "type": "Point",
                "coordinates": [
                    157.145,
                    -7.314722222
                ]
            },
            "properties": {
                "name": "Mount Sambe",
                "article": null
            }
        },
        {
            "type": "Feature",
            "geometry": {
                "type": "Point",
                "coordinates": [
                    157.061666666,
                    -7.99
                ]
            },
            "properties": {
                "name": "Mount Rano",
                "article": null
            }
        },
        {
            "type": "Feature",
            "geometry": {
                "type": "Point",
                "coordinates": [
                    160.275833333,
                    -9.086111111
                ]
            },
            "properties": {
                "name": "Mount Perry",
                "article": null
            }
        },
        {
            "type": "Feature",
            "geometry": {
                "type": "Point",
                "coordinates": [
                    156.078333333,
                    -6.914166666
                ]
            },
            "properties": {
                "name": "Mount Pauboleala",
                "article": null
            }
        },
        {
            "type": "Feature",
            "geometry": {
                "type": "Point",
                "coordinates": [
                    160.124444444,
                    -9.050277777
                ]
            },
            "properties": {
                "name": "Mount Pata",
                "article": null
            }
        },
        {
            "type": "Feature",
            "geometry": {
                "type": "Point",
                "coordinates": [
                    160.066666666,
                    -9.009444444
                ]
            },
            "properties": {
                "name": "Mount Panamanauvi",
                "article": null
            }
        },
        {
            "type": "Feature",
            "geometry": {
                "type": "Point",
                "coordinates": [
                    157.050277777,
                    -7.974444444
                ]
            },
            "properties": {
                "name": "Mount Mbatuvana",
                "article": null
            }
        },
        {
            "type": "Feature",
            "geometry": {
                "type": "Point",
                "coordinates": [
                    159.55,
                    -8.2
                ]
            },
            "properties": {
                "name": "Mount Marescot",
                "article": null
            }
        },
        {
            "type": "Feature",
            "geometry": {
                "type": "Point",
                "coordinates": [
                    155.569166666,
                    -7.373333333
                ]
            },
            "properties": {
                "name": "Mount Maoria'ang",
                "article": null
            }
        },
        {
            "type": "Feature",
            "geometry": {
                "type": "Point",
                "coordinates": [
                    157.7935,
                    -8.4248
                ]
            },
            "properties": {
                "name": "Mount Mahimba",
                "article": null
            }
        },
        {
            "type": "Feature",
            "geometry": {
                "type": "Point",
                "coordinates": [
                    155.569166666,
                    -7.373333333
                ]
            },
            "properties": {
                "name": "Mount Maoria'ang",
                "article": null
            }
        },
        {
            "type": "Feature",
            "geometry": {
                "type": "Point",
                "coordinates": [
                    157.7935,
                    -8.4248
                ]
            },
            "properties": {
                "name": "Mount Mahimba",
                "article": null
            }
        },
        {
            "type": "Feature",
            "geometry": {
                "type": "Point",
                "coordinates": [
                    157.006111111,
                    -7.085
                ]
            },
            "properties": {
                "name": "Mount Maetambe",
                "article": null
            }
        },
        {
            "type": "Feature",
            "geometry": {
                "type": "Point",
                "coordinates": [
                    157.416666666,
                    -8.024722222
                ]
            },
            "properties": {
                "name": "Mount Maerivi",
                "article": null
            }
        },
        {
            "type": "Feature",
            "geometry": {
                "type": "Point",
                "coordinates": [
                    157.366666666,
                    -8.466666666
                ]
            },
            "properties": {
                "name": "Mount Longguoreke",
                "article": null
            }
        },
        {
            "type": "Feature",
            "geometry": {
                "type": "Point",
                "coordinates": [
                    160.0316,
                    -8.8968
                ]
            },
            "properties": {
                "name": "Loki Mountain",
                "article": null
            }
        },
        {
            "type": "Feature",
            "geometry": {
                "type": "Point",
                "coordinates": [
                    157.6524,
                    -8.3436
                ]
            },
            "properties": {
                "name": "Mount Lambe",
                "article": null
            }
        },
        {
            "type": "Feature",
            "geometry": {
                "type": "Point",
                "coordinates": [
                    156.076111111,
                    -6.920277777
                ]
            },
            "properties": {
                "name": "Mount Lalauka",
                "article": null
            }
        },
        {
            "type": "Feature",
            "geometry": {
                "type": "Point",
                "coordinates": [
                    157.85,
                    -8.516666666
                ]
            },
            "properties": {
                "name": "Mount Kutelike",
                "article": null
            }
        },
        {
            "type": "Feature",
            "geometry": {
                "type": "Point",
                "coordinates": [
                    156.716666666,
                    -6.933333333
                ]
            },
            "properties": {
                "name": "Korosekana",
                "article": null
            }
        },
        {
            "type": "Feature",
            "geometry": {
                "type": "Point",
                "coordinates": [
                    155.5825,
                    -7.375277777
                ]
            },
            "properties": {
                "name": "Mount Kohalia",
                "article": null
            }
        },
        {
            "type": "Feature",
            "geometry": {
                "type": "Point",
                "coordinates": [
                    156.7642,
                    -6.7983
                ]
            },
            "properties": {
                "name": "Mount Kivilae",
                "article": null
            }
        },
        {
            "type": "Feature",
            "geometry": {
                "type": "Point",
                "coordinates": [
                    156.7,
                    -6.766666666
                ]
            },
            "properties": {
                "name": "Mount Kisa",
                "article": null
            }
        },
        {
            "type": "Feature",
            "geometry": {
                "type": "Point",
                "coordinates": [
                    157.233888888,
                    -7.325
                ]
            },
            "properties": {
                "name": "Mount Keleve",
                "article": null
            }
        },
        {
            "type": "Feature",
            "geometry": {
                "type": "Point",
                "coordinates": [
                    156.563611111,
                    -8.056111111
                ]
            },
            "properties": {
                "name": "Mount Kela",
                "article": null
            }
        },
        {
            "type": "Feature",
            "geometry": {
                "type": "Point",
                "coordinates": [
                    157.803333333,
                    -8.449444444
                ]
            },
            "properties": {
                "name": "Mount Kanekolo",
                "article": null
            }
        },
        {
            "type": "Feature",
            "geometry": {
                "type": "Point",
                "coordinates": [
                    159.5826,
                    -8.2715
                ]
            },
            "properties": {
                "name": "Mount Julaka",
                "article": null
            }
        },
        {
            "type": "Feature",
            "geometry": {
                "type": "Point",
                "coordinates": [
                    161.075833333,
                    -9.166388888
                ]
            },
            "properties": {
                "name": "Mount Ire",
                "article": null
            }
        },
        {
            "type": "Feature",
            "geometry": {
                "type": "Point",
                "coordinates": [
                    161.016666666,
                    -8.969166666
                ]
            },
            "properties": {
                "name": "Mount Ile Nggwari",
                "article": null
            }
        },
        {
            "type": "Feature",
            "geometry": {
                "type": "Point",
                "coordinates": [
                    157.658611111,
                    -8.359444444
                ]
            },
            "properties": {
                "name": "Mount Hengene",
                "article": null
            }
        },
        {
            "type": "Feature",
            "geometry": {
                "type": "Point",
                "coordinates": [
                    160.091111111,
                    -9.066944444
                ]
            },
            "properties": {
                "name": "Mount Harold",
                "article": null
            }
        },
        {
            "type": "Feature",
            "geometry": {
                "type": "Point",
                "coordinates": [
                    158.908888888,
                    -7.822222222
                ]
            },
            "properties": {
                "name": "Mount Gatere",
                "article": null
            }
        },
        {
            "type": "Feature",
            "geometry": {
                "type": "Point",
                "coordinates": [
                    156.8,
                    -6.8427
                ]
            },
            "properties": {
                "name": "Ghatapale",
                "article": null
            }
        },
        {
            "type": "Feature",
            "geometry": {
                "type": "Point",
                "coordinates": [
                    160.328611111,
                    -9.1525
                ]
            },
            "properties": {
                "name": "Ghalagheo Mountain",
                "article": null
            }
        },
        {
            "type": "Feature",
            "geometry": {
                "type": "Point",
                "coordinates": [
                    156.4975,
                    -6.6925
                ]
            },
            "properties": {
                "name": "Mount Gaili",
                "article": null
            }
        },
        {
            "type": "Feature",
            "geometry": {
                "type": "Point",
                "coordinates": [
                    160.6125,
                    -8.385833333
                ]
            },
            "properties": {
                "name": "Mount Fauiwane",
                "article": null
            }
        },
        {
            "type": "Feature",
            "geometry": {
                "type": "Point",
                "coordinates": [
                    160.849722222,
                    -8.835277777
                ]
            },
            "properties": {
                "name": "Mount Fauagwafi",
                "article": null
            }
        },
        {
            "type": "Feature",
            "geometry": {
                "type": "Point",
                "coordinates": [
                    157.7083,
                    -8.2433
                ]
            },
            "properties": {
                "name": "Mount Evorai",
                "article": null
            }
        },
        {
            "type": "Feature",
            "geometry": {
                "type": "Point",
                "coordinates": [
                    160.346666666,
                    -9.1325
                ]
            },
            "properties": {
                "name": "Dome Mountain",
                "article": null
            }
        },
        {
            "type": "Feature",
            "geometry": {
                "type": "Point",
                "coordinates": [
                    158.929722222,
                    -7.972222222
                ]
            },
            "properties": {
                "name": "Tugele Buse",
                "article": null
            }
        },
        {
            "type": "Feature",
            "geometry": {
                "type": "Point",
                "coordinates": [
                    158.217777777,
                    -7.440555555
                ]
            },
            "properties": {
                "name": "Mount Beaumont",
                "article": null
            }
        },
        {
            "type": "Feature",
            "geometry": {
                "type": "Point",
                "coordinates": [
                    156.473,
                    -6.6562
                ]
            },
            "properties": {
                "name": "Arara",
                "article": null
            }
        },
        {
            "type": "Feature",
            "geometry": {
                "type": "Point",
                "coordinates": [
                    159.796111111,
                    -8.451666666
                ]
            },
            "properties": {
                "name": "Mount Anuha",
                "article": null
            }
        },
        {
            "type": "Feature",
            "geometry": {
                "type": "Point",
                "coordinates": [
                    160.8463,
                    -8.8434
                ]
            },
            "properties": {
                "name": "Mount Alite",
                "article": null
            }
        },
        {
            "type": "Feature",
            "geometry": {
                "type": "Point",
                "coordinates": [
                    157.05,
                    -8.066666666
                ]
            },
            "properties": {
                "name": "Square Top",
                "article": null
            }
        },
        {
            "type": "Feature",
            "geometry": {
                "type": "Point",
                "coordinates": [
                    166.5,
                    -11.258611111
                ]
            },
            "properties": {
                "name": "Mount Royal",
                "article": null
            }
        },
        {
            "type": "Feature",
            "geometry": {
                "type": "Point",
                "coordinates": [
                    166.89355,
                    -11.63531
                ]
            },
            "properties": {
                "name": "Mount Popokia",
                "article": null
            }
        },
        {
            "type": "Feature",
            "geometry": {
                "type": "Point",
                "coordinates": [
                    161.545555555,
                    -10.501944444
                ]
            },
            "properties": {
                "name": "Mount Philip",
                "article": null
            }
        },
        {
            "type": "Feature",
            "geometry": {
                "type": "Point",
                "coordinates": [
                    162.244444444,
                    -10.735
                ]
            },
            "properties": {
                "name": "Mount Erskine",
                "article": null
            }
        },
        {
            "type": "Feature",
            "geometry": {
                "type": "Point",
                "coordinates": [
                    161.671944444,
                    -10.370833333
                ]
            },
            "properties": {
                "name": "Castle Peak",
                "article": null
            }
        },
        {
            "type": "Feature",
            "geometry": {
                "type": "Point",
                "coordinates": [
                    157.382,
                    -7.358
                ]
            },
            "properties": {
                "name": "Mount Ririe",
                "article": null
            }
        },
        {
            "type": "Feature",
            "geometry": {
                "type": "Point",
                "coordinates": [
                    157.0349,
                    -7.184
                ]
            },
            "properties": {
                "name": "Mount Vela",
                "article": null
            }
        },
        {
            "type": "Feature",
            "geometry": {
                "type": "Point",
                "coordinates": [
                    161.200555555,
                    -9.031111111
                ]
            },
            "properties": {
                "name": "'Aio",
                "article": "https://en.wikipedia.org/wiki/Aio_Island"
            }
        },
        {
            "type": "Feature",
            "geometry": {
                "type": "Point",
                "coordinates": [
                    161.45,
                    -9.433333333
                ]
            },
            "properties": {
                "name": "A'uru Rock",
                "article": null
            }
        },
        {
            "type": "Feature",
            "geometry": {
                "type": "Point",
                "coordinates": [
                    160.758333333,
                    -8.9475
                ]
            },
            "properties": {
                "name": "Abuabua Island",
                "article": null
            }
        },
        {
            "type": "Feature",
            "geometry": {
                "type": "Point",
                "coordinates": [
                    156.028333333,
                    -6.985833333
                ]
            },
            "properties": {
                "name": "Ae Island",
                "article": null
            }
        },
        {
            "type": "Feature",
            "geometry": {
                "type": "Point",
                "coordinates": [
                    155.621111111,
                    -7.011388888
                ]
            },
            "properties": {
                "name": "Aelaunu Island",
                "article": null
            }
        },
        {
            "type": "Feature",
            "geometry": {
                "type": "Point",
                "coordinates": [
                    157.280555555,
                    -8.463611111
                ]
            },
            "properties": {
                "name": "Aghana Island",
                "article": null
            }
        },
        {
            "type": "Feature",
            "geometry": {
                "type": "Point",
                "coordinates": [
                    155.695833333,
                    -7.006388888
                ]
            },
            "properties": {
                "name": "Ahiriri Island",
                "article": null
            }
        },
        {
            "type": "Feature",
            "geometry": {
                "type": "Point",
                "coordinates": [
                    161.269166666,
                    -9.208333333
                ]
            },
            "properties": {
                "name": "Ai'ura Island",
                "article": null
            }
        },
        {
            "type": "Feature",
            "geometry": {
                "type": "Point",
                "coordinates": [
                    155.634166666,
                    -7.013333333
                ]
            },
            "properties": {
                "name": "Aikiki Island",
                "article": null
            }
        },
        {
            "type": "Feature",
            "geometry": {
                "type": "Point",
                "coordinates": [
                    161.1075,
                    -9.338055555
                ]
            },
            "properties": {
                "name": "Ainiau Island",
                "article": null
            }
        },
        {
            "type": "Feature",
            "geometry": {
                "type": "Point",
                "coordinates": [
                    161.2,
                    -9.1
                ]
            },
            "properties": {
                "name": "Airata Island",
                "article": null
            }
        },
        {
            "type": "Feature",
            "geometry": {
                "type": "Point",
                "coordinates": [
                    159.336111111,
                    -5.029722222
                ]
            },
            "properties": {
                "name": "Akoulana Island",
                "article": null
            }
        },
        {
            "type": "Feature",
            "geometry": {
                "type": "Point",
                "coordinates": [
                    155.702777777,
                    -7.013611111
                ]
            },
            "properties": {
                "name": "Alealelena Island",
                "article": null
            }
        },
        {
            "type": "Feature",
            "geometry": {
                "type": "Point",
                "coordinates": [
                    155.645277777,
                    -7.066666666
                ]
            },
            "properties": {
                "name": "Aloataghala Island",
                "article": null
            }
        },
        {
            "type": "Feature",
            "geometry": {
                "type": "Point",
                "coordinates": [
                    159.123333333,
                    -9.145555555
                ]
            },
            "properties": {
                "name": "Alokan Island",
                "article": null
            }
        },
        {
            "type": "Feature",
            "geometry": {
                "type": "Point",
                "coordinates": [
                    155.556944444,
                    -7.409722222
                ]
            },
            "properties": {
                "name": "Alua Island",
                "article": null
            }
        },
        {
            "type": "Feature",
            "geometry": {
                "type": "Point",
                "coordinates": [
                    158.016666666,
                    -8.516666666
                ]
            },
            "properties": {
                "name": "Anghana Island",
                "article": null
            }
        },
        {
            "type": "Feature",
            "geometry": {
                "type": "Point",
                "coordinates": [
                    158.507222222,
                    -7.686944444
                ]
            },
            "properties": {
                "name": "Anker Island",
                "article": null
            }
        },
        {
            "type": "Feature",
            "geometry": {
                "type": "Point",
                "coordinates": [
                    160.223055555,
                    -8.9975
                ]
            },
            "properties": {
                "name": "Anuha Island",
                "article": null
            }
        },
        {
            "type": "Feature",
            "geometry": {
                "type": "Point",
                "coordinates": [
                    161.361388888,
                    -10.345
                ]
            },
            "properties": {
                "name": "Anuta Island",
                "article": null
            }
        },
        {
            "type": "Feature",
            "geometry": {
                "type": "Point",
                "coordinates": [
                    161.302777777,
                    -9.331111111
                ]
            },
            "properties": {
                "name": "Anuta Ni'ia",
                "article": null
            }
        },
        {
            "type": "Feature",
            "geometry": {
                "type": "Point",
                "coordinates": [
                    156.008333333,
                    -6.991111111
                ]
            },
            "properties": {
                "name": "Aoa Island",
                "article": null
            }
        },
        {
            "type": "Feature",
            "geometry": {
                "type": "Point",
                "coordinates": [
                    157.868055555,
                    -8.361388888
                ]
            },
            "properties": {
                "name": "Areke Island",
                "article": null
            }
        },
        {
            "type": "Feature",
            "geometry": {
                "type": "Point",
                "coordinates": [
                    160.807222222,
                    -9.74
                ]
            },
            "properties": {
                "name": "Arona",
                "article": null
            }
        },
        {
            "type": "Feature",
            "geometry": {
                "type": "Point",
                "coordinates": [
                    156.023055555,
                    -6.874444444
                ]
            },
            "properties": {
                "name": "Asie Island",
                "article": null
            }
        },
        {
            "type": "Feature",
            "geometry": {
                "type": "Point",
                "coordinates": [
                    159.384722222,
                    -8.328333333
                ]
            },
            "properties": {
                "name": "Aubohi Island",
                "article": null
            }
        },