{
    "type": "FeatureCollection",
    "features": [
        {
            "type": "Feature",
            "geometry": {
                "type": "Point",
                "coordinates": [
                    31.866666666,
                    13.016666666
                ]
            },
            "properties": {
                "name": "Tandalti",
                "article": "https://en.wikipedia.org/wiki/Tandalti"
            }
        },
        {
            "type": "Feature",
            "geometry": {
                "type": "Point",
                "coordinates": [
                    33.931111111,
                    13.148333333
                ]
            },
            "properties": {
                "name": "Singa",
                "article": "https://en.wikipedia.org/wiki/Singa,_Sudan"
            }
        },
        {
            "type": "Feature",
            "geometry": {
                "type": "Point",
                "coordinates": [
                    30.57778,
                    21.00694
                ]
            },
            "properties": {
                "name": "Meinarti",
                "article": "https://en.wikipedia.org/wiki/Meinarti"
            }
        },
        {
            "type": "Feature",
            "geometry": {
                "type": "Point",
                "coordinates": [
                    30.57778,
                    21.00694
                ]
            },
            "properties": {
                "name": "Meinarti",
                "article": "https://en.wikipedia.org/wiki/Meinarti"
            }
        },
        {
            "type": "Feature",
            "geometry": {
                "type": "Point",
                "coordinates": [
                    32.462887,
                    15.683517
                ]
            },
            "properties": {
                "name": "Omdurman",
                "article": "https://en.wikipedia.org/wiki/Omdurman"
            }
        },
        {
            "type": "Feature",
            "geometry": {
                "type": "Point",
                "coordinates": [
                    33.32361111,
                    16.41583333
                ]
            },
            "properties": {
                "name": "Musawarat",
                "article": "https://en.wikipedia.org/wiki/Musawwarat_es-Sufra"
            }
        },
        {
            "type": "Feature",
            "geometry": {
                "type": "Point",
                "coordinates": [
                    26.15,
                    11.433333333
                ]
            },
            "properties": {
                "name": "Ed Daein",
                "article": "https://en.wikipedia.org/wiki/Ed_Daein"
            }
        },
        {
            "type": "Feature",
            "geometry": {
                "type": "Point",
                "coordinates": [
                    28.4,
                    11.8
                ]
            },
            "properties": {
                "name": "Al-Fulah",
                "article": "https://en.wikipedia.org/wiki/Al-Fulah"
            }
        },
        {
            "type": "Feature",
            "geometry": {
                "type": "Point",
                "coordinates": [
                    30.216666666,
                    13.183333333
                ]
            },
            "properties": {
                "name": "El-Obeid",
                "article": "https://en.wikipedia.org/wiki/El-Obeid"
            }
        },
        {
            "type": "Feature",
            "geometry": {
                "type": "Point",
                "coordinates": [
                    32.633333333,
                    15.633333333
                ]
            },
            "properties": {
                "name": "Khartoum North",
                "article": "https://en.wikipedia.org/wiki/Khartoum_North"
            }
        },
        {
            "type": "Feature",
            "geometry": {
                "type": "Point",
                "coordinates": [
                    35.383333333,
                    14.033333333
                ]
            },
            "properties": {
                "name": "Al Qadarif",
                "article": "https://en.wikipedia.org/wiki/El-Gadarif"
            }
        },
        {
            "type": "Feature",
            "geometry": {
                "type": "Point",
                "coordinates": [
                    30.65,
                    12.44
                ]
            },
            "properties": {
                "name": "Jebel Dair",
                "article": "https://en.wikipedia.org/wiki/Jebel_Dair"
            }
        },
        {
            "type": "Feature",
            "geometry": {
                "type": "Point",
                "coordinates": [
                    31.626,
                    17.551167
                ]
            },
            "properties": {
                "name": "Al-Meragh",
                "article": "https://en.wikipedia.org/wiki/Al-Meragh"
            }
        },
        {
            "type": "Feature",
            "geometry": {
                "type": "Point",
                "coordinates": [
                    30.743888888,
                    18.223055555
                ]
            },
            "properties": {
                "name": "Old Dongola",
                "article": "https://en.wikipedia.org/wiki/Old_Dongola"
            }
        },
        {
            "type": "Feature",
            "geometry": {
                "type": "Point",
                "coordinates": [
                    33.983333,
                    17.65
                ]
            },
            "properties": {
                "name": "Alodia",
                "article": "https://en.wikipedia.org/wiki/Alodia"
            }
        },
        {
            "type": "Feature",
            "geometry": {
                "type": "Point",
                "coordinates": [
                    30.38333333,
                    20.83333333
                ]
            },
            "properties": {
                "name": "Amara, Nubia",
                "article": "https://en.wikipedia.org/wiki/Amara,_Nubia"
            }
        },
        {
            "type": "Feature",
            "geometry": {
                "type": "Point",
                "coordinates": [
                    33.74916667,
                    16.93833333
                ]
            },
            "properties": {
                "name": "Pyramids of Meroe",
                "article": "https://en.wikipedia.org/wiki/Pyramids_of_Mero%C3%AB"
            }
        },
        {
            "type": "Feature",
            "geometry": {
                "type": "Point",
                "coordinates": [
                    32.513333,
                    15.599167
                ]
            },
            "properties": {
                "name": "Sudan University of Science and Technology",
                "article": "https://en.wikipedia.org/wiki/Sudan_University_of_Science_and_Technology"
            }
        },
        {
            "type": "Feature",
            "geometry": {
                "type": "Point",
                "coordinates": [
                    31.83055833,
                    18.53513889
                ]
            },
            "properties": {
                "name": "Temple of Amun, Jebel Barkal",
                "article": "https://en.wikipedia.org/wiki/Temple_of_Amun,_Jebel_Barkal"
            }
        },
        {
            "type": "Feature",
            "geometry": {
                "type": "Point",
                "coordinates": [
                    31.8276,
                    18.5368
                ]
            },
            "properties": {
                "name": "Jebel Barkal",
                "article": "https://en.wikipedia.org/wiki/Jebel_Barkal"
            }
        },
        {
            "type": "Feature",
            "geometry": {
                "type": "Point",
                "coordinates": [
                    31.8276,
                    18.5368
                ]
            },
            "properties": {
                "name": "Jebel Barkal",
                "article": "https://en.wikipedia.org/wiki/Jebel_Barkal"
            }
        },
        {
            "type": "Feature",
            "geometry": {
                "type": "Point",
                "coordinates": [
                    37.33,
                    19.1025
                ]
            },
            "properties": {
                "name": "Suakin",
                "article": "https://en.wikipedia.org/wiki/Suakin"
            }
        },
        {
            "type": "Feature",
            "geometry": {
                "type": "Point",
                "coordinates": [
                    31.46,
                    22.2
                ]
            },
            "properties": {
                "name": "Faras",
                "article": "https://en.wikipedia.org/wiki/Faras"
            }
        },
        {
            "type": "Feature",
            "geometry": {
                "type": "Point",
                "coordinates": [
                    30.65,
                    12.716666666
                ]
            },
            "properties": {
                "name": "Ar Rahad",
                "article": "https://en.wikipedia.org/wiki/Er_Rahad"
            }
        },
        {
            "type": "Feature",
            "geometry": {
                "type": "Point",
                "coordinates": [
                    36.4,
                    15.45
                ]
            },
            "properties": {
                "name": "Kassala",
                "article": "https://en.wikipedia.org/wiki/Kassala"
            }
        },
        {
            "type": "Feature",
            "geometry": {
                "type": "Point",
                "coordinates": [
                    31.3775,
                    21.792777777
                ]
            },
            "properties": {
                "name": "Wadi Halfa",
                "article": "https://en.wikipedia.org/wiki/Wadi_Halfa"
            }
        },
        {
            "type": "Feature",
            "geometry": {
                "type": "Point",
                "coordinates": [
                    31.81666667,
                    18.53333333
                ]
            },
            "properties": {
                "name": "Napata",
                "article": "https://en.wikipedia.org/wiki/Napata"
            }
        },
        {
            "type": "Feature",
            "geometry": {
                "type": "Point",
                "coordinates": [
                    31.81666667,
                    18.53333333
                ]
            },
            "properties": {
                "name": "Napata",
                "article": "https://en.wikipedia.org/wiki/Napata"
            }
        },
        {
            "type": "Feature",
            "geometry": {
                "type": "Point",
                "coordinates": [
                    33.983333333,
                    17.716666666
                ]
            },
            "properties": {
                "name": "Atbarah",
                "article": "https://en.wikipedia.org/wiki/Atbara"
            }
        },
        {
            "type": "Feature",
            "geometry": {
                "type": "Point",
                "coordinates": [
                    30.483888888,
                    19.176944444
                ]
            },
            "properties": {
                "name": "Dongola",
                "article": "https://en.wikipedia.org/wiki/Dongola"
            }
        },
        {
            "type": "Feature",
            "geometry": {
                "type": "Point",
                "coordinates": [
                    24.883333333,
                    12.05
                ]
            },
            "properties": {
                "name": "Nyala",
                "article": "https://en.wikipedia.org/wiki/Nyala,_South_Darfur"
            }
        },
        {
            "type": "Feature",
            "geometry": {
                "type": "Point",
                "coordinates": [
                    33.51,
                    14.4
                ]
            },
            "properties": {
                "name": "Wad Madani",
                "article": "https://en.wikipedia.org/wiki/Wad_Madani"
            }
        },
        {
            "type": "Feature",
            "geometry": {
                "type": "Point",
                "coordinates": [
                    30.96666667,
                    21.5
                ]
            },
            "properties": {
                "name": "Kumma",
                "article": "https://en.wikipedia.org/wiki/Kumma_(Nubia)"
            }
        },
        {
            "type": "Feature",
            "geometry": {
                "type": "Point",
                "coordinates": [
                    31.04027778,
                    21.54166667
                ]
            },
            "properties": {
                "name": "Shalfak",
                "article": "https://en.wikipedia.org/wiki/Shalfak"
            }
        },
        {
            "type": "Feature",
            "geometry": {
                "type": "Point",
                "coordinates": [
                    31.28333333,
                    21.91666667
                ]
            },
            "properties": {
                "name": "Buhen",
                "article": "https://en.wikipedia.org/wiki/Buhen"
            }
        },
        {
            "type": "Feature",
            "geometry": {
                "type": "Point",
                "coordinates": [
                    29.716666666,
                    11.016666666
                ]
            },
            "properties": {
                "name": "Kaduqli",
                "article": "https://en.wikipedia.org/wiki/Kadugli"
            }
        },
        {
            "type": "Feature",
            "geometry": {
                "type": "Point",
                "coordinates": [
                    30.409731,
                    19.600802
                ]
            },
            "properties": {
                "name": "Kerma",
                "article": "https://en.wikipedia.org/wiki/Kerma"
            }
        },
        {
            "type": "Feature",
            "geometry": {
                "type": "Point",
                "coordinates": [
                    32.520132,
                    15.751945
                ]
            },
            "properties": {
                "name": "Battle of Omdurman",
                "article": "https://en.wikipedia.org/wiki/Battle_of_Omdurman"
            }
        },
        {
            "type": "Feature",
            "geometry": {
                "type": "Point",
                "coordinates": [
                    35.1396,
                    21.9473
                ]
            },
            "properties": {
                "name": "Berenice Panchrysos",
                "article": "https://en.wikipedia.org/wiki/Berenice_Panchrysos"
            }
        },
        {
            "type": "Feature",
            "geometry": {
                "type": "Point",
                "coordinates": [
                    35.1396,
                    21.9473
                ]
            },
            "properties": {
                "name": "Berenice Panchrysos",
                "article": "https://en.wikipedia.org/wiki/Berenice_Panchrysos"
            }
        },
        {
            "type": "Feature",
            "geometry": {
                "type": "Point",
                "coordinates": [
                    31.76667,
                    18.4
                ]
            },
            "properties": {
                "name": "El-Kurru",
                "article": "https://en.wikipedia.org/wiki/El-Kurru"
            }
        },
        {
            "type": "Feature",
            "geometry": {
                "type": "Point",
                "coordinates": [
                    31.88333333,
                    18.55
                ]
            },
            "properties": {
                "name": "El-Kurru",
                "article": "https://en.wikipedia.org/wiki/El-Kurru"
            }
        },
        {
            "type": "Feature",
            "geometry": {
                "type": "Point",
                "coordinates": [
                    31.9167,
                    18.5667
                ]
            },
            "properties": {
                "name": "Nuri",
                "article": "https://en.wikipedia.org/wiki/Nuri"
            }
        },
        {
            "type": "Feature",
            "geometry": {
                "type": "Point",
                "coordinates": [
                    33.78277778,
                    15.51055556
                ]
            },
            "properties": {
                "name": "Q2121505",
                "article": null
            }
        },
        {
            "type": "Feature",
            "geometry": {
                "type": "Point",
                "coordinates": [
                    30.54305556,
                    20.10972222
                ]
            },
            "properties": {
                "name": "Sesebi",
                "article": "https://en.wikipedia.org/wiki/Sesebi"
            }
        },
        {
            "type": "Feature",
            "geometry": {
                "type": "Point",
                "coordinates": [
                    30.42672222,
                    19.48466667
                ]
            },
            "properties": {
                "name": "Tabo",
                "article": "https://en.wikipedia.org/wiki/Tabo_(Nubia)"
            }
        },
        {
            "type": "Feature",
            "geometry": {
                "type": "Point",
                "coordinates": [
                    31.33333333,
                    21.98333333
                ]
            },
            "properties": {
                "name": "Cemetery 117",
                "article": "https://en.wikipedia.org/wiki/Jebel_Sahaba"
            }
        },
        {
            "type": "Feature",
            "geometry": {
                "type": "Point",
                "coordinates": [
                    33.3275,
                    19.5375
                ]
            },
            "properties": {
                "name": "Abu Hamad",
                "article": "https://en.wikipedia.org/wiki/Abu_Hamad"
            }
        },
        {
            "type": "Feature",
            "geometry": {
                "type": "Point",
                "coordinates": [
                    27.9509,
                    14.2358
                ]
            },
            "properties": {
                "name": "Q2478526",
                "article": null
            }
        },
        {
            "type": "Feature",
            "geometry": {
                "type": "Point",
                "coordinates": [
                    31.215555555,
                    12.905833333
                ]
            },
            "properties": {
                "name": "Umm Ruwaba",
                "article": "https://en.wikipedia.org/wiki/Umm_Ruwaba"
            }
        },
        {
            "type": "Feature",
            "geometry": {
                "type": "Point",
                "coordinates": [
                    32.75,
                    18.333333333
                ]
            },
            "properties": {
                "name": "Bayuda Volcanic Field",
                "article": "https://en.wikipedia.org/wiki/Bayuda_volcanic_field"
            }
        },
        {
            "type": "Feature",
            "geometry": {
                "type": "Point",
                "coordinates": [
                    34.387746,
                    11.863337
                ]
            },
            "properties": {
                "name": "Er Roseires",
                "article": "https://en.wikipedia.org/wiki/Er_Roseires"
            }
        },
        {
            "type": "Feature",
            "geometry": {
                "type": "Point",
                "coordinates": [
                    32.49694444,
                    15.24527778
                ]
            },
            "properties": {
                "name": "Jabal Awliya",
                "article": "https://en.wikipedia.org/wiki/Jabal_Awliya"
            }
        },
        {
            "type": "Feature",
            "geometry": {
                "type": "Point",
                "coordinates": [
                    24.65,
                    14.20555556
                ]
            },
            "properties": {
                "name": "Kutum",
                "article": "https://en.wikipedia.org/wiki/Kutum"
            }
        },
        {
            "type": "Feature",
            "geometry": {
                "type": "Point",
                "coordinates": [
                    26.466666666,
                    15.316666666
                ]
            },
            "properties": {
                "name": "Meidob Volcanic Field",
                "article": "https://en.wikipedia.org/wiki/Meidob_volcanic_field"
            }
        },
        {
            "type": "Feature",
            "geometry": {
                "type": "Point",
                "coordinates": [
                    38.434722222,
                    18.155555555
                ]
            },
            "properties": {
                "name": "Badi",
                "article": "https://en.wikipedia.org/wiki/Badi,_Sudan"
            }
        },
        {
            "type": "Feature",
            "geometry": {
                "type": "Point",
                "coordinates": [
                    32.807222222,
                    12.585277777
                ]
            },
            "properties": {
                "name": "Al Jabalayn",
                "article": "https://en.wikipedia.org/wiki/Al_Jabalayn"
            }
        },
        {
            "type": "Feature",
            "geometry": {
                "type": "Point",
                "coordinates": [
                    36.396944444,
                    18.346111111
                ]
            },
            "properties": {
                "name": "Hayya",
                "article": "https://en.wikipedia.org/wiki/Hayya,_Sudan"
            }
        },
        {
            "type": "Feature",
            "geometry": {
                "type": "Point",
                "coordinates": [
                    33.477235396,
                    19.230771352
                ]
            },
            "properties": {
                "name": "Kurgus",
                "article": "https://en.wikipedia.org/wiki/Kanisah_Kurgus"
            }
        },
        {
            "type": "Feature",
            "geometry": {
                "type": "Point",
                "coordinates": [
                    32.52654,
                    15.60308
                ]
            },
            "properties": {
                "name": "Khartoum",
                "article": "https://en.wikipedia.org/wiki/Khartoum"
            }
        },
        {
            "type": "Feature",
            "geometry": {
                "type": "Point",
                "coordinates": [
                    30.325,
                    20.70833333
                ]
            },
            "properties": {
                "name": "Saï",
                "article": "https://en.wikipedia.org/wiki/Sa%C3%AF_(island)"
            }
        },
        {
            "type": "Feature",
            "geometry": {
                "type": "Point",
                "coordinates": [
                    30.325,
                    20.70833333
                ]
            },
            "properties": {
                "name": "Saï",
                "article": "https://en.wikipedia.org/wiki/Sa%C3%AF_(island)"
            }
        },
        {
            "type": "Feature",
            "geometry": {
                "type": "Point",
                "coordinates": [
                    26.0,
                    19.5
                ]
            },
            "properties": {
                "name": "Lake Ptolemy",
                "article": "https://en.wikipedia.org/wiki/Lake_Ptolemy"
            }
        },
        {
            "type": "Feature",
            "geometry": {
                "type": "Point",
                "coordinates": [
                    31.81914167,
                    18.48343611
                ]
            },
            "properties": {
                "name": "Sanam",
                "article": "https://en.wikipedia.org/wiki/Sanam,_Sudan"
            }
        },
        {
            "type": "Feature",
            "geometry": {
                "type": "Point",
                "coordinates": [
                    31.77138889,
                    18.41
                ]
            },
            "properties": {
                "name": "Q1430459",
                "article": null
            }
        },
        {
            "type": "Feature",
            "geometry": {
                "type": "Point",
                "coordinates": [
                    24.922222222,
                    21.919444444
                ]
            },
            "properties": {
                "name": "Jebel Uweinat",
                "article": "https://en.wikipedia.org/wiki/Gabal_El_Uweinat"
            }
        },
        {
            "type": "Feature",
            "geometry": {
                "type": "Point",
                "coordinates": [
                    30.38333,
                    19.7
                ]
            },
            "properties": {
                "name": "Tombos",
                "article": "https://en.wikipedia.org/wiki/Tombos_(Nubia)"
            }
        },
        {
            "type": "Feature",
            "geometry": {
                "type": "Point",
                "coordinates": [
                    30.38333,
                    19.7
                ]
            },
            "properties": {
                "name": "Tombos",
                "article": "https://en.wikipedia.org/wiki/Tombos_(Nubia)"
            }
        },
        {
            "type": "Feature",
            "geometry": {
                "type": "Point",
                "coordinates": [
                    30.33333333,
                    20.43333333
                ]
            },
            "properties": {
                "name": "Soleb",
                "article": "https://en.wikipedia.org/wiki/Soleb"
            }
        },
        {
            "type": "Feature",
            "geometry": {
                "type": "Point",
                "coordinates": [
                    33.29888889,
                    13.46083333
                ]
            },
            "properties": {
                "name": "Q1689527",
                "article": null
            }
        },
        {
            "type": "Feature",
            "geometry": {
                "type": "Point",
                "coordinates": [
                    30.409731,
                    19.600802
                ]
            },
            "properties": {
                "name": "Kerma kingdom",
                "article": "https://en.wikipedia.org/wiki/Kerma_culture"
            }
        },
        {
            "type": "Feature",
            "geometry": {
                "type": "Point",
                "coordinates": [
                    33.275,
                    16.269444
                ]
            },
            "properties": {
                "name": "Naqa",
                "article": "https://en.wikipedia.org/wiki/Naqa"
            }
        },
        {
            "type": "Feature",
            "geometry": {
                "type": "Point",
                "coordinates": [
                    25.25,
                    10.71666667
                ]
            },
            "properties": {
                "name": "Lake Kundi",
                "article": "https://en.wikipedia.org/wiki/Lake_Kundi"
            }
        },
        {
            "type": "Feature",
            "geometry": {
                "type": "Point",
                "coordinates": [
                    30.326042,
                    20.3849
                ]
            },
            "properties": {
                "name": "Sedeinga",
                "article": "https://en.wikipedia.org/wiki/Sedeinga_pyramids"
            }
        },
        {
            "type": "Feature",
            "geometry": {
                "type": "Point",
                "coordinates": [
                    23.483333333,
                    12.9
                ]
            },
            "properties": {
                "name": "Zalingei",
                "article": "https://en.wikipedia.org/wiki/Zalingei"
            }
        },
        {
            "type": "Feature",
            "geometry": {
                "type": "Point",
                "coordinates": [
                    30.45,
                    19.416667
                ]
            },
            "properties": {
                "name": "Argo Island",
                "article": "https://en.wikipedia.org/wiki/Argo_Island"
            }
        },
        {
            "type": "Feature",
            "geometry": {
                "type": "Point",
                "coordinates": [
                    30.387227,
                    19.654566
                ]
            },
            "properties": {
                "name": "Badien Island",
                "article": "https://en.wikipedia.org/wiki/Badien_Island"
            }
        },
        {
            "type": "Feature",
            "geometry": {
                "type": "Point",
                "coordinates": [
                    33.83333333,
                    18.16666667
                ]
            },
            "properties": {
                "name": "Jebel Umm Arafieb",
                "article": "https://en.wikipedia.org/wiki/Jebel_Umm_Arafieb"
            }
        },
        {
            "type": "Feature",
            "geometry": {
                "type": "Point",
                "coordinates": [
                    32.8,
                    16.48333333
                ]
            },
            "properties": {
                "name": "Omjerky",
                "article": "https://en.wikipedia.org/wiki/Omjerky"
            }
        },
        {
            "type": "Feature",
            "geometry": {
                "type": "Point",
                "coordinates": [
                    30.55,
                    19.93333
                ]
            },
            "properties": {
                "name": "Sabu, Sudan",
                "article": "https://en.wikipedia.org/wiki/Sabu,_Sudan"
            }
        },
        {
            "type": "Feature",
            "geometry": {
                "type": "Point",
                "coordinates": [
                    36.83277778,
                    18.83722222
                ]
            },
            "properties": {
                "name": "Sinkat",
                "article": "https://en.wikipedia.org/wiki/Sinkat,_Sudan"
            }
        },
        {
            "type": "Feature",
            "geometry": {
                "type": "Point",
                "coordinates": [
                    36.836482,
                    18.837976
                ]
            },
            "properties": {
                "name": "Sinkat",
                "article": "https://en.wikipedia.org/wiki/Sinkat,_Sudan"
            }
        },
        {
            "type": "Feature",
            "geometry": {
                "type": "Point",
                "coordinates": [
                    27.943333333,
                    13.093055555
                ]
            },
            "properties": {
                "name": "Wad Banda",
                "article": "https://en.wikipedia.org/wiki/Wad_Banda"
            }
        },
        {
            "type": "Feature",
            "geometry": {
                "type": "Point",
                "coordinates": [
                    33.642222222,
                    13.768055555
                ]
            },
            "properties": {
                "name": "Wad al-'Abbas",
                "article": "https://en.wikipedia.org/wiki/Wad_al-%27Abbas"
            }
        },
        {
            "type": "Feature",
            "geometry": {
                "type": "Point",
                "coordinates": [
                    31.26556,
                    21.840269
                ]
            },
            "properties": {
                "name": "Dorginarti",
                "article": null
            }
        },
        {
            "type": "Feature",
            "geometry": {
                "type": "Point",
                "coordinates": [
                    33.4496,
                    16.67
                ]
            },
            "properties": {
                "name": "Ghaba",
                "article": "https://en.wikipedia.org/wiki/Ghaba"
            }
        },
        {
            "type": "Feature",
            "geometry": {
                "type": "Point",
                "coordinates": [
                    36.136569,
                    15.809998
                ]
            },
            "properties": {
                "name": "Aroma",
                "article": "https://en.wikipedia.org/wiki/Aroma,_Sudan"
            }
        },
        {
            "type": "Feature",
            "geometry": {
                "type": "Point",
                "coordinates": [
                    25.55,
                    14.13333
                ]
            },
            "properties": {
                "name": "Mellit",
                "article": "https://en.wikipedia.org/wiki/Mellit_District"
            }
        },
        {
            "type": "Feature",
            "geometry": {
                "type": "Point",
                "coordinates": [
                    25.148333333,
                    21.972777777
                ]
            },
            "properties": {
                "name": "Karkur Talh",
                "article": null
            }
        },
        {
            "type": "Feature",
            "geometry": {
                "type": "Point",
                "coordinates": [
                    27.96305556,
                    13.85916667
                ]
            },
            "properties": {
                "name": "Zankor",
                "article": null
            }
        },
        {
            "type": "Feature",
            "geometry": {
                "type": "Point",
                "coordinates": [
                    29.25,
                    16.58333333
                ]
            },
            "properties": {
                "name": "Gebel al-Ain",
                "article": "https://en.wikipedia.org/wiki/Gebel_al-Ain"
            }
        },
        {
            "type": "Feature",
            "geometry": {
                "type": "Point",
                "coordinates": [
                    29.25333333,
                    16.58333333
                ]
            },
            "properties": {
                "name": "Gebel al-Ain",
                "article": "https://en.wikipedia.org/wiki/Gebel_al-Ain"
            }
        },
        {
            "type": "Feature",
            "geometry": {
                "type": "Point",
                "coordinates": [
                    34.949213,
                    13.631784
                ]
            },
            "properties": {
                "name": "Qalaʻ an Naḥl",
                "article": null
            }
        },
        {
            "type": "Feature",
            "geometry": {
                "type": "Point",
                "coordinates": [
                    24.090251,
                    13.650321
                ]
            },
            "properties": {
                "name": "Kebkabiya",
                "article": "https://en.wikipedia.org/wiki/Kabkabiya_District"
            }
        },
        {
            "type": "Feature",
            "geometry": {
                "type": "Point",
                "coordinates": [
                    33.694216,
                    16.89279
                ]
            },
            "properties": {
                "name": "Kabushiyah",
                "article": null
            }
        },
        {
            "type": "Feature",
            "geometry": {
                "type": "Point",
                "coordinates": [
                    34.1,
                    11.28333333
                ]
            },
            "properties": {
                "name": "Q16122766",
                "article": null
            }
        },
        {
            "type": "Feature",
            "geometry": {
                "type": "Point",
                "coordinates": [
                    30.412737063,
                    19.610020044
                ]
            },
            "properties": {
                "name": "Dokki Gel",
                "article": "https://en.wikipedia.org/wiki/Doukki_Gel"
            }
        },
        {
            "type": "Feature",
            "geometry": {
                "type": "Point",
                "coordinates": [
                    30.3,
                    20.5
                ]
            },
            "properties": {
                "name": "Jebel Dosha",
                "article": "https://en.wikipedia.org/wiki/Jebel_Dosha"
            }
        },
        {
            "type": "Feature",
            "geometry": {
                "type": "Point",
                "coordinates": [
                    29.98,
                    10.27972222
                ]
            },
            "properties": {
                "name": "Q20914803",
                "article": null
            }
        },
        {
            "type": "Feature",
            "geometry": {
                "type": "Point",
                "coordinates": [
                    30.323,
                    19.553
                ]
            },
            "properties": {
                "name": "Sabu-Jaddi",
                "article": "https://en.wikipedia.org/wiki/Sabu-Jaddi"
            }
        },
        {
            "type": "Feature",
            "geometry": {
                "type": "Point",
                "coordinates": [
                    30.541667,
                    19.925
                ]
            },
            "properties": {
                "name": "Sabu-Jaddi",
                "article": "https://en.wikipedia.org/wiki/Sabu-Jaddi"
            }
        },
        {
            "type": "Feature",
            "geometry": {
                "type": "Point",
                "coordinates": [
                    37.26361111,
                    20.8
                ]
            },
            "properties": {
                "name": "Q25929263",
                "article": null
            }
        },
        {
            "type": "Feature",
            "geometry": {
                "type": "Point",
                "coordinates": [
                    36.669631,
                    20.344322
                ]
            },
            "properties": {
                "name": "Jebel Oda",
                "article": null
            }
        },
        {
            "type": "Feature",
            "geometry": {
                "type": "Point",
                "coordinates": [
                    24.367777777,
                    13.043611111
                ]
            },
            "properties": {
                "name": "Jabal Uwo",
                "article": null
            }
        },
        {
            "type": "Feature",
            "geometry": {
                "type": "Point",
                "coordinates": [
                    26.552777777,
                    15.307777777
                ]
            },
            "properties": {
                "name": "Jabal Ubbor",
                "article": null
            }
        },
        {
            "type": "Feature",
            "geometry": {
                "type": "Point",
                "coordinates": [
                    31.15,
                    12.15
                ]
            },
            "properties": {
                "name": "Jabal Ţurayfī",
                "article": null
            }
        },
        {
            "type": "Feature",
            "geometry": {
                "type": "Point",
                "coordinates": [
                    31.133333333,
                    12.05
                ]
            },
            "properties": {
                "name": "Jabal Tingal",
                "article": null
            }
        },
        {
            "type": "Feature",
            "geometry": {
                "type": "Point",
                "coordinates": [
                    31.083333333,
                    11.983333333
                ]
            },
            "properties": {
                "name": "Jabal Temading",
                "article": null
            }
        },
        {
            "type": "Feature",
            "geometry": {
                "type": "Point",
                "coordinates": [
                    24.379722222,
                    13.470277777
                ]
            },
            "properties": {
                "name": "Jabal Tanga",
                "article": null
            }
        },
        {
            "type": "Feature",
            "geometry": {
                "type": "Point",
                "coordinates": [
                    24.544444444,
                    13.056388888
                ]
            },
            "properties": {
                "name": "Jabal Nyaertunga",
                "article": null
            }
        },
        {
            "type": "Feature",
            "geometry": {
                "type": "Point",
                "coordinates": [
                    24.389722222,
                    13.248055555
                ]
            },
            "properties": {
                "name": "Jabal Nāmī",
                "article": null
            }
        },
        {
            "type": "Feature",
            "geometry": {
                "type": "Point",
                "coordinates": [
                    24.385277777,
                    13.371944444
                ]
            },
            "properties": {
                "name": "Jabal Kurru",
                "article": null
            }
        },
        {
            "type": "Feature",
            "geometry": {
                "type": "Point",
                "coordinates": [
                    24.3725,
                    13.028611111
                ]
            },
            "properties": {
                "name": "Jabal Korong Tong",
                "article": null
            }
        },
        {
            "type": "Feature",
            "geometry": {
                "type": "Point",
                "coordinates": [
                    26.618055555,
                    15.413888888
                ]
            },
            "properties": {
                "name": "Jabal Eggendarno",
                "article": null
            }
        },
        {
            "type": "Feature",
            "geometry": {
                "type": "Point",
                "coordinates": [
                    24.432222222,
                    13.454444444
                ]
            },
            "properties": {
                "name": "Jabal Deidu",
                "article": null
            }
        },
        {
            "type": "Feature",
            "geometry": {
                "type": "Point",
                "coordinates": [
                    24.265277777,
                    12.813055555
                ]
            },
            "properties": {
                "name": "Dada",
                "article": null
            }
        },
        {
            "type": "Feature",
            "geometry": {
                "type": "Point",
                "coordinates": [
                    24.438055555,
                    13.179722222
                ]
            },
            "properties": {
                "name": "Jabal Burei",
                "article": null
            }
        },
        {
            "type": "Feature",
            "geometry": {
                "type": "Point",
                "coordinates": [
                    26.506666666,
                    15.419166666
                ]
            },
            "properties": {
                "name": "Jabal Allor",
                "article": null
            }
        },
        {
            "type": "Feature",
            "geometry": {
                "type": "Point",
                "coordinates": [
                    31.064166666,
                    11.995
                ]
            },
            "properties": {
                "name": "Jabal Tōrai",
                "article": null
            }
        },
        {
            "type": "Feature",
            "geometry": {
                "type": "Point",
                "coordinates": [
                    31.059444444,
                    11.893055555
                ]
            },
            "properties": {
                "name": "Jabal Tuwwa",
                "article": null
            }
        },
        {
            "type": "Feature",
            "geometry": {
                "type": "Point",
                "coordinates": [
                    31.075555555,
                    11.893611111
                ]
            },
            "properties": {
                "name": "Jabal Tādor",
                "article": null
            }
        },
        {
            "type": "Feature",
            "geometry": {
                "type": "Point",
                "coordinates": [
                    31.054166666,
                    11.887777777
                ]
            },
            "properties": {
                "name": "Jabal Abu Shok",
                "article": null
            }
        },
        {
            "type": "Feature",
            "geometry": {
                "type": "Point",
                "coordinates": [
                    24.323333333,
                    12.923333333
                ]
            },
            "properties": {
                "name": "Mogulduma",
                "article": null
            }
        },
        {
            "type": "Feature",
            "geometry": {
                "type": "Point",
                "coordinates": [
                    24.450555555,
                    12.933055555
                ]
            },
            "properties": {
                "name": "Jabal Dara",
                "article": null
            }
        },
        {
            "type": "Feature",
            "geometry": {
                "type": "Point",
                "coordinates": [
                    24.345555555,
                    12.954444444
                ]
            },
            "properties": {
                "name": "Kirsin Tonga",
                "article": null
            }
        },
        {
            "type": "Feature",
            "geometry": {
                "type": "Point",
                "coordinates": [
                    24.406111111,
                    12.919166666
                ]
            },
            "properties": {
                "name": "Buro",
                "article": null
            }
        },
        {
            "type": "Feature",
            "geometry": {
                "type": "Point",
                "coordinates": [
                    24.4092,
                    12.8826
                ]
            },
            "properties": {
                "name": "Dala",
                "article": null
            }
        },
        {
            "type": "Feature",
            "geometry": {
                "type": "Point",
                "coordinates": [
                    24.305277777,
                    12.863888888
                ]
            },
            "properties": {
                "name": "Koni",
                "article": null
            }
        },
        {
            "type": "Feature",
            "geometry": {
                "type": "Point",
                "coordinates": [
                    24.307222222,
                    12.883055555
                ]
            },
            "properties": {
                "name": "Tubul",
                "article": null
            }
        },
        {
            "type": "Feature",
            "geometry": {
                "type": "Point",
                "coordinates": [
                    24.236111111,
                    12.995277777
                ]
            },
            "properties": {
                "name": "Idwa",
                "article": null
            }
        },
        {
            "type": "Feature",
            "geometry": {
                "type": "Point",
                "coordinates": [
                    24.340555555,
                    13.0
                ]
            },
            "properties": {
                "name": "Sudamo",
                "article": null
            }
        },
        {
            "type": "Feature",
            "geometry": {
                "type": "Point",
                "coordinates": [
                    24.328888888,
                    12.983055555
                ]
            },
            "properties": {
                "name": "Tereng",
                "article": null
            }
        },
        {
            "type": "Feature",
            "geometry": {
                "type": "Point",
                "coordinates": [
                    24.37,
                    12.924722222
                ]
            },
            "properties": {
                "name": "Uguduma",
                "article": null
            }
        },
        {
            "type": "Feature",
            "geometry": {
                "type": "Point",
                "coordinates": [
                    24.1814,
                    12.9687
                ]
            },
            "properties": {
                "name": "Jabal Fada",
                "article": null
            }
        },
        {
            "type": "Feature",
            "geometry": {
                "type": "Point",
                "coordinates": [
                    24.209444444,
                    12.946666666
                ]
            },
            "properties": {
                "name": "Jabal Gaur",
                "article": null
            }
        },
        {
            "type": "Feature",
            "geometry": {
                "type": "Point",
                "coordinates": [
                    24.145833333,
                    12.954166666
                ]
            },
            "properties": {
                "name": "Jabal Daldu",
                "article": null
            }
        },
        {
            "type": "Feature",
            "geometry": {
                "type": "Point",
                "coordinates": [
                    26.413055555,
                    15.403055555
                ]
            },
            "properties": {
                "name": "Jabal Keilor",
                "article": null
            }
        },
        {
            "type": "Feature",
            "geometry": {
                "type": "Point",
                "coordinates": [
                    26.508333333,
                    15.366111111
                ]
            },
            "properties": {
                "name": "Jabal Aidingalo",
                "article": null
            }
        },
        {
            "type": "Feature",
            "geometry": {
                "type": "Point",
                "coordinates": [
                    26.443333333,
                    15.357777777
                ]
            },
            "properties": {
                "name": "Jabal Gudergi",
                "article": null
            }
        },
        {
            "type": "Feature",
            "geometry": {
                "type": "Point",
                "coordinates": [
                    26.543055555,
                    15.353611111
                ]
            },
            "properties": {
                "name": "Jabal Salur",
                "article": null
            }
        },
        {
            "type": "Feature",
            "geometry": {
                "type": "Point",
                "coordinates": [
                    26.589722222,
                    15.361944444
                ]
            },
            "properties": {
                "name": "Jabal Bangasanur",
                "article": null
            }
        },
        {
            "type": "Feature",
            "geometry": {
                "type": "Point",
                "coordinates": [
                    26.670277777,
                    15.3775
                ]
            },
            "properties": {
                "name": "Jabal Artinur",
                "article": null
            }
        },
        {
            "type": "Feature",
            "geometry": {
                "type": "Point",
                "coordinates": [
                    26.632222222,
                    15.342777777
                ]
            },
            "properties": {
                "name": "Jabal Tarnur",
                "article": null
            }
        },
        {
            "type": "Feature",
            "geometry": {
                "type": "Point",
                "coordinates": [
                    26.738611111,
                    15.400555555
                ]
            },
            "properties": {
                "name": "Jabal Dirra",
                "article": null
            }
        },
        {
            "type": "Feature",
            "geometry": {
                "type": "Point",
                "coordinates": [
                    26.708611111,
                    15.411666666
                ]
            },
            "properties": {
                "name": "Jabal Organdarur",
                "article": null
            }
        },
        {
            "type": "Feature",
            "geometry": {
                "type": "Point",
                "coordinates": [
                    26.706388888,
                    15.296388888
                ]
            },
            "properties": {
                "name": "Jabal Soyumbud",
                "article": null
            }
        },
        {
            "type": "Feature",
            "geometry": {
                "type": "Point",
                "coordinates": [
                    26.749166666,
                    15.297222222
                ]
            },
            "properties": {
                "name": "Jabal Hartaro",
                "article": null
            }
        },
        {
            "type": "Feature",
            "geometry": {
                "type": "Point",
                "coordinates": [
                    26.583888888,
                    15.274444444
                ]
            },
            "properties": {
                "name": "Jabal Tarbir",
                "article": null
            }
        },
        {
            "type": "Feature",
            "geometry": {
                "type": "Point",
                "coordinates": [
                    26.578055555,
                    15.232777777
                ]
            },
            "properties": {
                "name": "Jabal Tonjyi",
                "article": null
            }
        },
        {
            "type": "Feature",
            "geometry": {
                "type": "Point",
                "coordinates": [
                    26.586666666,
                    15.257777777
                ]
            },
            "properties": {
                "name": "Jabal Tairo",
                "article": null
            }
        },
        {
            "type": "Feature",
            "geometry": {
                "type": "Point",
                "coordinates": [
                    26.642222222,
                    15.23
                ]
            },
            "properties": {
                "name": "Jabal Tannur",
                "article": null
            }
        },
        {
            "type": "Feature",
            "geometry": {
                "type": "Point",
                "coordinates": [
                    26.467222222,
                    15.331388888
                ]
            },
            "properties": {
                "name": "Jabal Asor",
                "article": null
            }
        },
        {
            "type": "Feature",
            "geometry": {
                "type": "Point",
                "coordinates": [
                    26.489722222,
                    15.248888888
                ]
            },
            "properties": {
                "name": "Jabal Gergur",
                "article": null
            }
        },
        {
            "type": "Feature",
            "geometry": {
                "type": "Point",
                "coordinates": [
                    26.508055555,
                    15.276111111
                ]
            },
            "properties": {
                "name": "Jabal Wullor",
                "article": null
            }
        },
        {
            "type": "Feature",
            "geometry": {
                "type": "Point",
                "coordinates": [
                    26.461944444,
                    15.185277777
                ]
            },
            "properties": {
                "name": "Jabal Kuwandat",
                "article": null
            }
        },
        {
            "type": "Feature",
            "geometry": {
                "type": "Point",
                "coordinates": [
                    26.698888888,
                    15.161944444
                ]
            },
            "properties": {
                "name": "Jabal Tutuchi",
                "article": null
            }
        },
        {
            "type": "Feature",
            "geometry": {
                "type": "Point",
                "coordinates": [
                    26.671666666,
                    15.157777777
                ]
            },
            "properties": {
                "name": "Jabal Amurti",
                "article": null
            }
        },
        {
            "type": "Feature",
            "geometry": {
                "type": "Point",
                "coordinates": [
                    26.419166666,
                    15.163333333
                ]
            },
            "properties": {
                "name": "Jabal Bungessi",
                "article": null
            }
        },
        {
            "type": "Feature",
            "geometry": {
                "type": "Point",
                "coordinates": [
                    26.634722222,
                    15.286111111
                ]
            },
            "properties": {
                "name": "Jabal Pudror",
                "article": null
            }
        },
        {
            "type": "Feature",
            "geometry": {
                "type": "Point",
                "coordinates": [
                    26.445277777,
                    15.12
                ]
            },
            "properties": {
                "name": "Jabal Dogeshi",
                "article": null
            }
        },
        {
            "type": "Feature",
            "geometry": {
                "type": "Point",
                "coordinates": [
                    24.38,
                    13.455277777
                ]
            },
            "properties": {
                "name": "Jabal Uyu",
                "article": null
            }
        },
        {
            "type": "Feature",
            "geometry": {
                "type": "Point",
                "coordinates": [
                    24.344444444,
                    13.170277777
                ]
            },
            "properties": {
                "name": "Kome",
                "article": null
            }
        },
        {
            "type": "Feature",
            "geometry": {
                "type": "Point",
                "coordinates": [
                    24.367222222,
                    13.153055555
                ]
            },
            "properties": {
                "name": "Jabal Ju",
                "article": null
            }
        },
        {
            "type": "Feature",
            "geometry": {
                "type": "Point",
                "coordinates": [
                    24.345277777,
                    13.155833333
                ]
            },
            "properties": {
                "name": "Jabal Wera",
                "article": null
            }
        },
        {
            "type": "Feature",
            "geometry": {
                "type": "Point",
                "coordinates": [
                    24.315277777,
                    13.018888888
                ]
            },
            "properties": {
                "name": "Jabal Kerru",
                "article": null
            }
        },
        {
            "type": "Feature",
            "geometry": {
                "type": "Point",
                "coordinates": [
                    24.308611111,
                    13.014444444
                ]
            },
            "properties": {
                "name": "Jabal Tirreing",
                "article": null
            }
        },
        {
            "type": "Feature",
            "geometry": {
                "type": "Point",
                "coordinates": [
                    24.254722222,
                    13.011944444
                ]
            },
            "properties": {
                "name": "Jabal Teina",
                "article": null
            }
        },
        {
            "type": "Feature",
            "geometry": {
                "type": "Point",
                "coordinates": [
                    24.3,
                    13.050277777
                ]
            },
            "properties": {
                "name": "Jabal Banser",
                "article": null
            }
        },
        {
            "type": "Feature",
            "geometry": {
                "type": "Point",
                "coordinates": [
                    33.747777777,
                    10.834444444
                ]
            },
            "properties": {
                "name": "Jabal Mara",
                "article": null
            }
        },
        {
            "type": "Feature",
            "geometry": {
                "type": "Point",
                "coordinates": [
                    35.915,
                    18.8308
                ]
            },
            "properties": {
                "name": "Jabal al Aḩmar",
                "article": null
            }
        },
        {
            "type": "Feature",
            "geometry": {
                "type": "Point",
                "coordinates": [
                    36.1525,
                    21.3367
                ]
            },
            "properties": {
                "name": "Jabal Aguisan",
                "article": null
            }
        },
        {
            "type": "Feature",
            "geometry": {
                "type": "Point",
                "coordinates": [
                    30.85,
                    21.1
                ]
            },
            "properties": {
                "name": "Jabal Ago",
                "article": null
            }
        },
        {
            "type": "Feature",
            "geometry": {
                "type": "Point",
                "coordinates": [
                    38.2675,
                    17.7317
                ]
            },
            "properties": {
                "name": "Aghatab",
                "article": null
            }
        },
        {
            "type": "Feature",
            "geometry": {
                "type": "Point",
                "coordinates": [
                    37.2,
                    18.133333333
                ]
            },
            "properties": {
                "name": "Jabal Agabateit",
                "article": null
            }
        },
        {
            "type": "Feature",
            "geometry": {
                "type": "Point",
                "coordinates": [
                    28.4167,
                    13.5017
                ]
            },
            "properties": {
                "name": "Jabal al ‘Afārīt",
                "article": null
            }
        },
        {
            "type": "Feature",
            "geometry": {
                "type": "Point",
                "coordinates": [
                    38.0517,
                    17.6067
                ]
            },
            "properties": {
                "name": "Jabal Adrau",
                "article": null
            }
        },
        {
            "type": "Feature",
            "geometry": {
                "type": "Point",
                "coordinates": [
                    37.4175,
                    17.135277777
                ]
            },
            "properties": {
                "name": "Jabal Adirfa",
                "article": null
            }
        },
        {
            "type": "Feature",
            "geometry": {
                "type": "Point",
                "coordinates": [
                    36.616666666,
                    21.5
                ]
            },
            "properties": {
                "name": "Jabal Adashia",
                "article": null
            }
        },
        {
            "type": "Feature",
            "geometry": {
                "type": "Point",
                "coordinates": [
                    36.6225,
                    22.0458
                ]
            },
            "properties": {
                "name": "Jebel Adarot Moi",
                "article": null
            }
        },
        {
            "type": "Feature",
            "geometry": {
                "type": "Point",
                "coordinates": [
                    36.0167,
                    21.7192
                ]
            },
            "properties": {
                "name": "Jabal Adarotmoi",
                "article": null
            }
        },
        {
            "type": "Feature",
            "geometry": {
                "type": "Point",
                "coordinates": [
                    36.433333333,
                    19.65
                ]
            },
            "properties": {
                "name": "Jabal Adaribab",
                "article": null
            }
        },
        {
            "type": "Feature",
            "geometry": {
                "type": "Point",
                "coordinates": [
                    36.67,
                    21.1092
                ]
            },
            "properties": {
                "name": "Jebel Adariba",
                "article": null
            }
        },
        {
            "type": "Feature",
            "geometry": {
                "type": "Point",
                "coordinates": [
                    36.141388888,
                    17.219444444
                ]
            },
            "properties": {
                "name": "Jabal Adar Rabāb",
                "article": null
            }
        },
        {
            "type": "Feature",
            "geometry": {
                "type": "Point",
                "coordinates": [
                    35.3258,
                    22.2475
                ]
            },
            "properties": {
                "name": "Jabal Adar Gwagwa",
                "article": null
            }
        },
        {
            "type": "Feature",
            "geometry": {
                "type": "Point",
                "coordinates": [
                    36.7063,
                    20.2059
                ]
            },
            "properties": {
                "name": "Jabal Adarfu",
                "article": null
            }
        },
        {
            "type": "Feature",
            "geometry": {
                "type": "Point",
                "coordinates": [
                    37.05,
                    19.266666666
                ]
            },
            "properties": {
                "name": "Adarawei",
                "article": null
            }
        },
        {
            "type": "Feature",
            "geometry": {
                "type": "Point",
                "coordinates": [
                    35.9,
                    22.1817
                ]
            },
            "properties": {
                "name": "Jebel ‘Adar Aweb",
                "article": null
            }
        },
        {
            "type": "Feature",
            "geometry": {
                "type": "Point",
                "coordinates": [
                    36.25,
                    21.283333333
                ]
            },
            "properties": {
                "name": "Jebel Adar Aweb",
                "article": null
            }
        },
        {
            "type": "Feature",
            "geometry": {
                "type": "Point",
                "coordinates": [
                    33.8297,
                    17.1711
                ]
            },
            "properties": {
                "name": "Jebel Adarara",
                "article": null
            }
        },
        {
            "type": "Feature",
            "geometry": {
                "type": "Point",
                "coordinates": [
                    35.6683,
                    22.3
                ]
            },
            "properties": {
                "name": "Jebel ‘Adar Agdeib",
                "article": null
            }
        },
        {
            "type": "Feature",
            "geometry": {
                "type": "Point",
                "coordinates": [
                    37.2975,
                    18.1342
                ]
            },
            "properties": {
                "name": "Jebel Adalod",
                "article": null
            }
        },
        {
            "type": "Feature",
            "geometry": {
                "type": "Point",
                "coordinates": [
                    36.816666666,
                    17.95
                ]
            },
            "properties": {
                "name": "Jabal Adalaweb",
                "article": null
            }
        },
        {
            "type": "Feature",
            "geometry": {
                "type": "Point",
                "coordinates": [
                    36.9181,
                    19.6914
                ]
            },
            "properties": {
                "name": "Jabal Adalaueb",
                "article": null
            }
        },
        {
            "type": "Feature",
            "geometry": {
                "type": "Point",
                "coordinates": [
                    36.5997,
                    19.2046
                ]
            },
            "properties": {
                "name": "Jabal Adār Awēb",
                "article": null
            }
        },
        {
            "type": "Feature",
            "geometry": {
                "type": "Point",
                "coordinates": [
                    29.016666666,
                    17.833333333
                ]
            },
            "properties": {
                "name": "Jabal Abyaḑ",
                "article": null
            }
        },
        {
            "type": "Feature",
            "geometry": {
                "type": "Point",
                "coordinates": [
                    31.566666666,
                    11.866666666
                ]
            },
            "properties": {
                "name": "Ḩajar al Abyaḑ",
                "article": null
            }
        },
        {
            "type": "Feature",
            "geometry": {
                "type": "Point",
                "coordinates": [
                    31.36,
                    16.1275
                ]
            },
            "properties": {
                "name": "Jebel Abu ‘Uruf",
                "article": null
            }
        },
        {
            "type": "Feature",
            "geometry": {
                "type": "Point",
                "coordinates": [
                    36.2183,
                    18.1342
                ]
            },
            "properties": {
                "name": "Jebel Abutikr",
                "article": null
            }
        },
        {
            "type": "Feature",
            "geometry": {
                "type": "Point",
                "coordinates": [
                    34.206111111,
                    21.452777777
                ]
            },
            "properties": {
                "name": "Abu Tabaqend",
                "article": null
            }
        },
        {
            "type": "Feature",
            "geometry": {
                "type": "Point",
                "coordinates": [
                    29.9358,
                    13.3375
                ]
            },
            "properties": {
                "name": "Jabal Abū Sinun",
                "article": null
            }
        },
        {
            "type": "Feature",
            "geometry": {
                "type": "Point",
                "coordinates": [
                    33.55356,
                    21.72476
                ]
            },
            "properties": {
                "name": "Gabal Bartazuga",
                "article": null
            }
        },
        {
            "type": "Feature",
            "geometry": {
                "type": "Point",
                "coordinates": [
                    24.6833,
                    14.1292
                ]
            },
            "properties": {
                "name": "Jabal Barranga",
                "article": null
            }
        },
        {
            "type": "Feature",
            "geometry": {
                "type": "Point",
                "coordinates": [
                    33.1825,
                    17.635
                ]
            },
            "properties": {
                "name": "Jebel Barqat esh Shabaki",
                "article": null
            }
        },
        {
            "type": "Feature",
            "geometry": {
                "type": "Point",
                "coordinates": [
                    32.95,
                    19.5
                ]
            },
            "properties": {
                "name": "Jebel Barqat Bint Rahma",
                "article": null
            }
        },
        {
            "type": "Feature",
            "geometry": {
                "type": "Point",
                "coordinates": [
                    31.8383,
                    18.6833
                ]
            },
            "properties": {
                "name": "Jebel Barqa Abban",
                "article": null
            }
        },
        {
            "type": "Feature",
            "geometry": {
                "type": "Point",
                "coordinates": [
                    33.7642,
                    18.5525
                ]
            },
            "properties": {
                "name": "Jebel el Barka",
                "article": null
            }
        },
        {
            "type": "Feature",
            "geometry": {
                "type": "Point",
                "coordinates": [
                    31.883333333,
                    18.083333333
                ]
            },
            "properties": {
                "name": "Jebel Bargat es Suleim",
                "article": null
            }
        },
        {
            "type": "Feature",
            "geometry": {
                "type": "Point",
                "coordinates": [
                    22.9542,
                    12.4745
                ]
            },
            "properties": {
                "name": "Jabal Tuming",
                "article": null
            }
        },
        {
            "type": "Feature",
            "geometry": {
                "type": "Point",
                "coordinates": [
                    24.2642,
                    13.53
                ]
            },
            "properties": {
                "name": "Jabal Bārah Sunbul",
                "article": null
            }
        },
        {
            "type": "Feature",
            "geometry": {
                "type": "Point",
                "coordinates": [
                    24.225,
                    13.825
                ]
            },
            "properties": {
                "name": "Jabal Bara Diu",
                "article": null
            }
        },
        {
            "type": "Feature",
            "geometry": {
                "type": "Point",
                "coordinates": [
                    37.052777777,
                    19.080555555
                ]
            },
            "properties": {
                "name": "Jabal Bānī",
                "article": null
            }
        },
        {
            "type": "Feature",
            "geometry": {
                "type": "Point",
                "coordinates": [
                    37.481111111,
                    18.163611111
                ]
            },
            "properties": {
                "name": "Jabal Banid Owin",
                "article": null
            }
        },
        {
            "type": "Feature",
            "geometry": {
                "type": "Point",
                "coordinates": [
                    35.966666666,
                    22.233333333
                ]
            },
            "properties": {
                "name": "Jebel Balatida",
                "article": null
            }
        },
        {
            "type": "Feature",
            "geometry": {
                "type": "Point",
                "coordinates": [
                    36.585,
                    22.055
                ]
            },
            "properties": {
                "name": "Jebel Baladok",
                "article": null
            }
        },
        {
            "type": "Feature",
            "geometry": {
                "type": "Point",
                "coordinates": [
                    22.6614,
                    11.6099
                ]
            },
            "properties": {
                "name": "Jabal Bala",
                "article": null
            }
        },
        {
            "type": "Feature",
            "geometry": {
                "type": "Point",
                "coordinates": [
                    36.7833,
                    16.5958
                ]
            },
            "properties": {
                "name": "Jabal Bakwitne",
                "article": null
            }
        },
        {
            "type": "Feature",
            "geometry": {
                "type": "Point",
                "coordinates": [
                    33.4333,
                    20.93
                ]
            },
            "properties": {
                "name": "Jabal Bailateb",
                "article": null
            }
        },
        {
            "type": "Feature",
            "geometry": {
                "type": "Point",
                "coordinates": [
                    35.170277777,
                    21.607777777
                ]
            },
            "properties": {
                "name": "Jabal Tō'iyā",
                "article": null
            }
        },
        {
            "type": "Feature",
            "geometry": {
                "type": "Point",
                "coordinates": [
                    35.286666666,
                    21.817777777
                ]
            },
            "properties": {
                "name": "Jabal Warannak",
                "article": null
            }
        },
        {
            "type": "Feature",
            "geometry": {
                "type": "Point",
                "coordinates": [
                    35.463055555,
                    21.619444444
                ]
            },
            "properties": {
                "name": "Jabal Dirāgīt",
                "article": null
            }
        },
        {
            "type": "Feature",
            "geometry": {
                "type": "Point",
                "coordinates": [
                    35.593611111,
                    21.294166666
                ]
            },
            "properties": {
                "name": "Jabal Tūkwākwī",
                "article": null
            }
        },
        {
            "type": "Feature",
            "geometry": {
                "type": "Point",
                "coordinates": [
                    36.546111111,
                    21.498333333
                ]
            },
            "properties": {
                "name": "Jabal Irirbā",
                "article": null
            }
        },
        {
            "type": "Feature",
            "geometry": {
                "type": "Point",
                "coordinates": [
                    36.599166666,
                    21.477222222
                ]
            },
            "properties": {
                "name": "Jabal Kaddō",
                "article": null
            }
        },
        {
            "type": "Feature",
            "geometry": {
                "type": "Point",
                "coordinates": [
                    36.687777777,
                    21.496388888
                ]
            },
            "properties": {
                "name": "Jibāl Ra'adāb",
                "article": null
            }
        },
        {
            "type": "Feature",
            "geometry": {
                "type": "Point",
                "coordinates": [
                    36.609722222,
                    21.460833333
                ]
            },
            "properties": {
                "name": "Jabal Humārokshānēb",
                "article": null
            }
        },
        {
            "type": "Feature",
            "geometry": {
                "type": "Point",
                "coordinates": [
                    36.587777777,
                    21.448333333
                ]
            },
            "properties": {
                "name": "Jabal Alōt",
                "article": null
            }
        },
        {
            "type": "Feature",
            "geometry": {
                "type": "Point",
                "coordinates": [
                    36.545277777,
                    21.448055555
                ]
            },
            "properties": {
                "name": "Jabal Oshigēg",
                "article": null
            }
        },
        {
            "type": "Feature",
            "geometry": {
                "type": "Point",
                "coordinates": [
                    36.681944444,
                    21.342777777
                ]
            },
            "properties": {
                "name": "Jabal Adār Gogwā",
                "article": null
            }
        },
        {
            "type": "Feature",
            "geometry": {
                "type": "Point",
                "coordinates": [
                    36.756388888,
                    21.29
                ]
            },
            "properties": {
                "name": "Jabal Batan",
                "article": null
            }
        },
        {
            "type": "Feature",
            "geometry": {
                "type": "Point",
                "coordinates": [
                    36.598888888,
                    21.287222222
                ]
            },
            "properties": {
                "name": "Jibāl Lāshāy",
                "article": null
            }
        },
        {
            "type": "Feature",
            "geometry": {
                "type": "Point",
                "coordinates": [
                    36.734,
                    21.1763
                ]
            },
            "properties": {
                "name": "Jabal Ewōy",
                "article": null
            }
        },
        {
            "type": "Feature",
            "geometry": {
                "type": "Point",
                "coordinates": [
                    36.713611111,
                    21.180277777
                ]
            },
            "properties": {
                "name": "Jabal Kōl Ambīg",
                "article": null
            }
        },
        {
            "type": "Feature",
            "geometry": {
                "type": "Point",
                "coordinates": [
                    36.6812,
                    20.2494
                ]
            },
            "properties": {
                "name": "Jabal Ōlīg",
                "article": null
            }
        },
        {
            "type": "Feature",
            "geometry": {
                "type": "Point",
                "coordinates": [
                    36.882777777,
                    20.447777777
                ]
            },
            "properties": {
                "name": "Jabal Ēwīt",
                "article": null
            }
        },
        {
            "type": "Feature",
            "geometry": {
                "type": "Point",
                "coordinates": [
                    36.831111111,
                    20.431111111
                ]
            },
            "properties": {
                "name": "Jabal Naggārāb",
                "article": null
            }
        },
        {
            "type": "Feature",
            "geometry": {
                "type": "Point",
                "coordinates": [
                    36.871666666,
                    20.430833333
                ]
            },
            "properties": {
                "name": "Jabal Milādyēy",
                "article": null
            }
        },
        {
            "type": "Feature",
            "geometry": {
                "type": "Point",
                "coordinates": [
                    36.901666666,
                    20.423888888
                ]
            },
            "properties": {
                "name": "Jabal Ēbshūm Aswad",
                "article": null
            }
        },
        {
            "type": "Feature",
            "geometry": {
                "type": "Point",
                "coordinates": [
                    36.898611111,
                    20.411111111
                ]
            },
            "properties": {
                "name": "Jabal Hāysōyit",
                "article": null
            }
        },
        {
            "type": "Feature",
            "geometry": {
                "type": "Point",
                "coordinates": [
                    36.884166666,
                    20.404444444
                ]
            },
            "properties": {
                "name": "Jabal Tōbar",
                "article": null
            }
        },
        {
            "type": "Feature",
            "geometry": {
                "type": "Point",
                "coordinates": [
                    36.901388888,
                    20.394444444
                ]
            },
            "properties": {
                "name": "Jabal Ēbshūm Abyad",
                "article": null
            }
        },
        {
            "type": "Feature",
            "geometry": {
                "type": "Point",
                "coordinates": [
                    36.910277777,
                    20.373611111
                ]
            },
            "properties": {
                "name": "Jabal Ēwīt",
                "article": null
            }
        },
        {
            "type": "Feature",
            "geometry": {
                "type": "Point",
                "coordinates": [
                    36.896388888,
                    20.37
                ]
            },
            "properties": {
                "name": "Jabal Līlawīt",
                "article": null
            }
        },
        {
            "type": "Feature",
            "geometry": {
                "type": "Point",
                "coordinates": [
                    36.906111111,
                    20.363611111
                ]
            },
            "properties": {
                "name": "Jabal Hamrūrīt",
                "article": null
            }
        },
        {
            "type": "Feature",
            "geometry": {
                "type": "Point",
                "coordinates": [
                    36.907222222,
                    20.349166666
                ]
            },
            "properties": {
                "name": "Jabal Kayīs",
                "article": null
            }
        },
        {
            "type": "Feature",
            "geometry": {
                "type": "Point",
                "coordinates": [
                    36.918055555,
                    20.353888888
                ]
            },
            "properties": {
                "name": "Jabal Arīt",
                "article": null
            }
        },
        {
            "type": "Feature",
            "geometry": {
                "type": "Point",
                "coordinates": [
                    36.8486,
                    20.3182
                ]
            },
            "properties": {
                "name": "Jabal Adarōt Ribāt",
                "article": null
            }
        },
        {
            "type": "Feature",
            "geometry": {
                "type": "Point",
                "coordinates": [
                    36.938888888,
                    20.271388888
                ]
            },
            "properties": {
                "name": "Jabal Hawāy Ribāb",
                "article": null
            }
        },
        {
            "type": "Feature",
            "geometry": {
                "type": "Point",
                "coordinates": [
                    36.978888888,
                    20.195
                ]
            },
            "properties": {
                "name": "Jabal Gulāl",
                "article": null
            }
        },
        {
            "type": "Feature",
            "geometry": {
                "type": "Point",
                "coordinates": [
                    36.98,
                    20.167777777
                ]
            },
            "properties": {
                "name": "Jabal Bālyāy",
                "article": null
            }
        },
        {
            "type": "Feature",
            "geometry": {
                "type": "Point",
                "coordinates": [
                    36.982222222,
                    20.16
                ]
            },
            "properties": {
                "name": "Jabal Adār Layēb",
                "article": null
            }
        },
        {
            "type": "Feature",
            "geometry": {
                "type": "Point",
                "coordinates": [
                    36.9251,
                    20.1609
                ]
            },
            "properties": {
                "name": "Jabal Unantēb",
                "article": null
            }
        },
        {
            "type": "Feature",
            "geometry": {
                "type": "Point",
                "coordinates": [
                    36.953888888,
                    20.134166666
                ]
            },
            "properties": {
                "name": "Jabal Unantēb",
                "article": null
            }
        },
        {
            "type": "Feature",
            "geometry": {
                "type": "Point",
                "coordinates": [
                    36.8717,
                    20.0848
                ]
            },
            "properties": {
                "name": "Jabal Adarōt Ribāt",
                "article": null
            }
        },
        {
            "type": "Feature",
            "geometry": {
                "type": "Point",
                "coordinates": [
                    36.8427,
                    20.1118
                ]
            },
            "properties": {
                "name": "Jabal Hadārbāb",
                "article": null
            }
        },
        {
            "type": "Feature",
            "geometry": {
                "type": "Point",
                "coordinates": [
                    36.870277777,
                    20.491111111
                ]
            },
            "properties": {
                "name": "Jabal Aradāyēt",
                "article": null
            }
        },
        {
            "type": "Feature",
            "geometry": {
                "type": "Point",
                "coordinates": [
                    36.746944444,
                    20.457777777
                ]
            },
            "properties": {
                "name": "Jabal Gūrībāb",
                "article": null
            }
        },
        {
            "type": "Feature",
            "geometry": {
                "type": "Point",
                "coordinates": [
                    36.771666666,
                    20.427222222
                ]
            },
            "properties": {
                "name": "Jabal Nehāyēb",
                "article": null
            }
        },
        {
            "type": "Feature",
            "geometry": {
                "type": "Point",
                "coordinates": [
                    36.765,
                    20.307777777
                ]
            },
            "properties": {
                "name": "Jabal Shinnāyēt",
                "article": null
            }
        },
        {
            "type": "Feature",
            "geometry": {
                "type": "Point",
                "coordinates": [
                    32.585,
                    18.45
                ]
            },
            "properties": {
                "name": "Jebel Badi",
                "article": null
            }
        },
        {
            "type": "Feature",
            "geometry": {
                "type": "Point",
                "coordinates": [
                    22.266666666,
                    13.587777777
                ]
            },
            "properties": {
                "name": "Jabal Babux",
                "article": null
            }
        },
        {
            "type": "Feature",
            "geometry": {
                "type": "Point",
                "coordinates": [
                    31.333333333,
                    12.0
                ]
            },
            "properties": {
                "name": "Jabal ‘Azib",
                "article": null
            }
        },
        {
            "type": "Feature",
            "geometry": {
                "type": "Point",
                "coordinates": [
                    29.222777777,
                    16.606111111
                ]
            },
            "properties": {
                "name": "Jebel El ‘Ein",
                "article": null
            }
        },
        {
            "type": "Feature",
            "geometry": {
                "type": "Point",
                "coordinates": [
                    38.135,
                    17.82
                ]
            },
            "properties": {
                "name": "Jabal Aweirib",
                "article": null
            }
        },
        {
            "type": "Feature",
            "geometry": {
                "type": "Point",
                "coordinates": [
                    30.9983,
                    21.3492
                ]
            },
            "properties": {
                "name": "Jabal Attiri",
                "article": null
            }
        },
        {
            "type": "Feature",
            "geometry": {
                "type": "Point",
                "coordinates": [
                    36.3889,
                    18.2519
                ]
            },
            "properties": {
                "name": "Jebel Asoteriba",
                "article": null
            }
        },
        {
            "type": "Feature",
            "geometry": {
                "type": "Point",
                "coordinates": [
                    32.133333333,
                    18.683333333
                ]
            },
            "properties": {
                "name": "Jebel el Asfar",
                "article": null
            }
        },
        {
            "type": "Feature",
            "geometry": {
                "type": "Point",
                "coordinates": [
                    31.0992,
                    21.3983
                ]
            },
            "properties": {
                "name": "Jabal ‘Arūsah",
                "article": null
            }
        },
        {
            "type": "Feature",
            "geometry": {
                "type": "Point",
                "coordinates": [
                    37.316666666,
                    18.433333333
                ]
            },
            "properties": {
                "name": "Jabal Arbanteil Whashia",
                "article": null
            }
        },
        {
            "type": "Feature",
            "geometry": {
                "type": "Point",
                "coordinates": [
                    36.3708,
                    21.8033
                ]
            },
            "properties": {
                "name": "Jabal Arau",
                "article": null
            }
        },
        {
            "type": "Feature",
            "geometry": {
                "type": "Point",
                "coordinates": [
                    32.1103,
                    14.1689
                ]
            },
            "properties": {
                "name": "Jabal al ‘Arashkol",
                "article": null
            }
        },
        {
            "type": "Feature",
            "geometry": {
                "type": "Point",
                "coordinates": [
                    37.62,
                    17.4275
                ]
            },
            "properties": {
                "name": "Jabal ‘Ār",
                "article": null
            }
        },
        {
            "type": "Feature",
            "geometry": {
                "type": "Point",
                "coordinates": [
                    34.8333,
                    22.4108
                ]
            },
            "properties": {
                "name": "Jabal Anweiyib",
                "article": null
            }
        },
        {
            "type": "Feature",
            "geometry": {
                "type": "Point",
                "coordinates": [
                    36.0011,
                    21.3431
                ]
            },
            "properties": {
                "name": "Jabal Ankur",
                "article": null
            }
        },