{
    "type": "FeatureCollection",
    "features": [
        {
            "type": "Feature",
            "geometry": {
                "type": "Point",
                "coordinates": [
                    -55.0875,
                    5.688055555
                ]
            },
            "properties": {
                "name": "Domburg",
                "article": "https://en.wikipedia.org/wiki/Domburg,_Suriname"
            }
        },
        {
            "type": "Feature",
            "geometry": {
                "type": "Point",
                "coordinates": [
                    -56.172222222,
                    3.908333333
                ]
            },
            "properties": {
                "name": "Tafelberg",
                "article": "https://en.wikipedia.org/wiki/Tafelberg,_Suriname"
            }
        },
        {
            "type": "Feature",
            "geometry": {
                "type": "Point",
                "coordinates": [
                    -55.088611111,
                    5.885833333
                ]
            },
            "properties": {
                "name": "Nieuw Amsterdam",
                "article": "https://en.wikipedia.org/wiki/Nieuw_Amsterdam,_Suriname"
            }
        },
        {
            "type": "Feature",
            "geometry": {
                "type": "Point",
                "coordinates": [
                    -55.083333333,
                    5.883333333
                ]
            },
            "properties": {
                "name": "Nieuw Amsterdam",
                "article": "https://en.wikipedia.org/wiki/Nieuw_Amsterdam,_Suriname"
            }
        },
        {
            "type": "Feature",
            "geometry": {
                "type": "Point",
                "coordinates": [
                    -55.399722222,
                    4.370555555
                ]
            },
            "properties": {
                "name": "Aurora",
                "article": "https://en.wikipedia.org/wiki/Aurora,_Suriname"
            }
        },
        {
            "type": "Feature",
            "geometry": {
                "type": "Point",
                "coordinates": [
                    -56.535555555,
                    3.682777777
                ]
            },
            "properties": {
                "name": "Julianatop",
                "article": "https://en.wikipedia.org/wiki/Julianatop"
            }
        },
        {
            "type": "Feature",
            "geometry": {
                "type": "Point",
                "coordinates": [
                    -55.15127222,
                    5.82681389
                ]
            },
            "properties": {
                "name": "Presidential Palace of Suriname",
                "article": "https://en.wikipedia.org/wiki/Presidential_Palace_of_Suriname"
            }
        },
        {
            "type": "Feature",
            "geometry": {
                "type": "Point",
                "coordinates": [
                    -55.153114,
                    5.825231
                ]
            },
            "properties": {
                "name": "Waterkant",
                "article": "https://en.wikipedia.org/wiki/Waterkant"
            }
        },
        {
            "type": "Feature",
            "geometry": {
                "type": "Point",
                "coordinates": [
                    -55.019444444,
                    5.781666666
                ]
            },
            "properties": {
                "name": "Tamanredjo",
                "article": "https://en.wikipedia.org/wiki/Tamanredjo"
            }
        },
        {
            "type": "Feature",
            "geometry": {
                "type": "Point",
                "coordinates": [
                    -55.16185,
                    5.83236
                ]
            },
            "properties": {
                "name": "Henck Arron Street",
                "article": null
            }
        },
        {
            "type": "Feature",
            "geometry": {
                "type": "Point",
                "coordinates": [
                    -56.339722222,
                    5.883333333
                ]
            },
            "properties": {
                "name": "Friendship",
                "article": "https://en.wikipedia.org/wiki/Friendship,_Suriname"
            }
        },
        {
            "type": "Feature",
            "geometry": {
                "type": "Point",
                "coordinates": [
                    -55.7667,
                    2.43333
                ]
            },
            "properties": {
                "name": "Q3611803",
                "article": null
            }
        },
        {
            "type": "Feature",
            "geometry": {
                "type": "Point",
                "coordinates": [
                    -54.2167,
                    3.4
                ]
            },
            "properties": {
                "name": "Q3703970",
                "article": null
            }
        },
        {
            "type": "Feature",
            "geometry": {
                "type": "Point",
                "coordinates": [
                    -56.196111111,
                    4.194444444
                ]
            },
            "properties": {
                "name": "Hendrik Top",
                "article": "https://en.wikipedia.org/wiki/Hendriktop"
            }
        },
        {
            "type": "Feature",
            "geometry": {
                "type": "Point",
                "coordinates": [
                    -54.75,
                    4.25
                ]
            },
            "properties": {
                "name": "Q3830098",
                "article": null
            }
        },
        {
            "type": "Feature",
            "geometry": {
                "type": "Point",
                "coordinates": [
                    -54.6167,
                    4.8
                ]
            },
            "properties": {
                "name": "Q3870510",
                "article": null
            }
        },
        {
            "type": "Feature",
            "geometry": {
                "type": "Point",
                "coordinates": [
                    -55.1594,
                    5.82833
                ]
            },
            "properties": {
                "name": "Keizerstraat",
                "article": "https://en.wikipedia.org/wiki/Keizerstraat"
            }
        },
        {
            "type": "Feature",
            "geometry": {
                "type": "Point",
                "coordinates": [
                    -55.667222222,
                    4.354722222
                ]
            },
            "properties": {
                "name": "Ebbatop",
                "article": "https://en.wikipedia.org/wiki/Ebbatop"
            }
        },
        {
            "type": "Feature",
            "geometry": {
                "type": "Point",
                "coordinates": [
                    -54.581111111,
                    4.190277777
                ]
            },
            "properties": {
                "name": "Draai",
                "article": null
            }
        },
        {
            "type": "Feature",
            "geometry": {
                "type": "Point",
                "coordinates": [
                    -57.1,
                    5.85
                ]
            },
            "properties": {
                "name": "Papegaaien Eiland",
                "article": null
            }
        },
        {
            "type": "Feature",
            "geometry": {
                "type": "Point",
                "coordinates": [
                    -55.0708,
                    4.7863
                ]
            },
            "properties": {
                "name": "Kwana Island",
                "article": "https://en.wikipedia.org/wiki/Kwana_Island"
            }
        },
        {
            "type": "Feature",
            "geometry": {
                "type": "Point",
                "coordinates": [
                    -54.599444444,
                    4.183333333
                ]
            },
            "properties": {
                "name": "Pauwie",
                "article": null
            }
        },
        {
            "type": "Feature",
            "geometry": {
                "type": "Point",
                "coordinates": [
                    -55.626667,
                    5.145278
                ]
            },
            "properties": {
                "name": "Goliathberg",
                "article": null
            }
        },
        {
            "type": "Feature",
            "geometry": {
                "type": "Point",
                "coordinates": [
                    -56.184166666,
                    4.6775
                ]
            },
            "properties": {
                "name": "Volzberg",
                "article": "https://en.wikipedia.org/wiki/Voltzberg"
            }
        },
        {
            "type": "Feature",
            "geometry": {
                "type": "Point",
                "coordinates": [
                    -55.410833333,
                    2.979722222
                ]
            },
            "properties": {
                "name": "Kasikasima",
                "article": "https://en.wikipedia.org/wiki/Kasikasima"
            }
        },
        {
            "type": "Feature",
            "geometry": {
                "type": "Point",
                "coordinates": [
                    -55.068634,
                    5.135741
                ]
            },
            "properties": {
                "name": "Berg en Dal",
                "article": null
            }
        },
        {
            "type": "Feature",
            "geometry": {
                "type": "Point",
                "coordinates": [
                    -54.8721,
                    4.949
                ]
            },
            "properties": {
                "name": "Wintiewaai Gebergte",
                "article": null
            }
        },
        {
            "type": "Feature",
            "geometry": {
                "type": "Point",
                "coordinates": [
                    -56.134166666,
                    4.677222222
                ]
            },
            "properties": {
                "name": "Van Stockum Berg",
                "article": "https://en.wikipedia.org/wiki/Van_Stockumberg"
            }
        },
        {
            "type": "Feature",
            "geometry": {
                "type": "Point",
                "coordinates": [
                    -56.2704,
                    4.5309
                ]
            },
            "properties": {
                "name": "Van der Wijck Top",
                "article": null
            }
        },
        {
            "type": "Feature",
            "geometry": {
                "type": "Point",
                "coordinates": [
                    -54.1308,
                    3.7708
                ]
            },
            "properties": {
                "name": "Michelbaka Top",
                "article": null
            }
        },
        {
            "type": "Feature",
            "geometry": {
                "type": "Point",
                "coordinates": [
                    -55.2208,
                    4.9297
                ]
            },
            "properties": {
                "name": "Mazaronitop",
                "article": null
            }
        },
        {
            "type": "Feature",
            "geometry": {
                "type": "Point",
                "coordinates": [
                    -55.3707,
                    4.8858
                ]
            },
            "properties": {
                "name": "Majordam Gebergte",
                "article": null
            }
        },
        {
            "type": "Feature",
            "geometry": {
                "type": "Point",
                "coordinates": [
                    -54.2992,
                    3.8992
                ]
            },
            "properties": {
                "name": "Langatetei Gebergte",
                "article": null
            }
        },
        {
            "type": "Feature",
            "geometry": {
                "type": "Point",
                "coordinates": [
                    -56.4107,
                    4.4374
                ]
            },
            "properties": {
                "name": "Kroetoe Berg",
                "article": null
            }
        },
        {
            "type": "Feature",
            "geometry": {
                "type": "Point",
                "coordinates": [
                    -55.331,
                    4.9607
                ]
            },
            "properties": {
                "name": "Kraboedoin Gebergte",
                "article": null
            }
        },
        {
            "type": "Feature",
            "geometry": {
                "type": "Point",
                "coordinates": [
                    -54.504444444,
                    2.466111111
                ]
            },
            "properties": {
                "name": "Knopaiamoi",
                "article": "https://en.wikipedia.org/wiki/Knopaiamoi"
            }
        },
        {
            "type": "Feature",
            "geometry": {
                "type": "Point",
                "coordinates": [
                    -55.648,
                    4.6966
                ]
            },
            "properties": {
                "name": "Janbasigado",
                "article": null
            }
        },
        {
            "type": "Feature",
            "geometry": {
                "type": "Point",
                "coordinates": [
                    -54.770555555,
                    4.967222222
                ]
            },
            "properties": {
                "name": "Hok-A-Hing Gebergte",
                "article": null
            }
        },
        {
            "type": "Feature",
            "geometry": {
                "type": "Point",
                "coordinates": [
                    -56.5588,
                    4.4233
                ]
            },
            "properties": {
                "name": "Hebiwerie",
                "article": null
            }
        },
        {
            "type": "Feature",
            "geometry": {
                "type": "Point",
                "coordinates": [
                    -55.6325,
                    5.1459
                ]
            },
            "properties": {
                "name": "Goliath Berg",
                "article": null
            }
        },
        {
            "type": "Feature",
            "geometry": {
                "type": "Point",
                "coordinates": [
                    -54.166666666,
                    3.633333333
                ]
            },
            "properties": {
                "name": "Fatoeswietie Gebergte",
                "article": "https://en.wikipedia.org/wiki/Fatoe_Switie_Mountains"
            }
        },
        {
            "type": "Feature",
            "geometry": {
                "type": "Point",
                "coordinates": [
                    -56.0733,
                    3.7833
                ]
            },
            "properties": {
                "name": "De Kock Berg",
                "article": null
            }
        },
        {
            "type": "Feature",
            "geometry": {
                "type": "Point",
                "coordinates": [
                    -55.6266,
                    4.898
                ]
            },
            "properties": {
                "name": "Bemau",
                "article": null
            }
        },
        {
            "type": "Feature",
            "geometry": {
                "type": "Point",
                "coordinates": [
                    -55.638888888,
                    3.5625
                ]
            },
            "properties": {
                "name": "Ananas Berg",
                "article": null
            }
        },
        {
            "type": "Feature",
            "geometry": {
                "type": "Point",
                "coordinates": [
                    -54.7332,
                    5.0616
                ]
            },
            "properties": {
                "name": "Adelaars Top",
                "article": null
            }
        },
        {
            "type": "Feature",
            "geometry": {
                "type": "Point",
                "coordinates": [
                    -54.9792,
                    4.9348
                ]
            },
            "properties": {
                "name": "Moengo Top",
                "article": null
            }
        },
        {
            "type": "Feature",
            "geometry": {
                "type": "Point",
                "coordinates": [
                    -55.766666666,
                    4.433333333
                ]
            },
            "properties": {
                "name": "Akredibotto Prati",
                "article": null
            }
        },
        {
            "type": "Feature",
            "geometry": {
                "type": "Point",
                "coordinates": [
                    -55.733333333,
                    4.516666666
                ]
            },
            "properties": {
                "name": "Alobbienni Prati",
                "article": null
            }
        },
        {
            "type": "Feature",
            "geometry": {
                "type": "Point",
                "coordinates": [
                    -57.501944444,
                    5.006944444
                ]
            },
            "properties": {
                "name": "Araparisie Eiland",
                "article": null
            }
        },
        {
            "type": "Feature",
            "geometry": {
                "type": "Point",
                "coordinates": [
                    -54.033333333,
                    5.583333333
                ]
            },
            "properties": {
                "name": "Aroeaba Tabbetje",
                "article": null
            }
        },
        {
            "type": "Feature",
            "geometry": {
                "type": "Point",
                "coordinates": [
                    -54.016666666,
                    5.616666666
                ]
            },
            "properties": {
                "name": "Arouaba Noord",
                "article": null
            }
        },
        {
            "type": "Feature",
            "geometry": {
                "type": "Point",
                "coordinates": [
                    -54.016666666,
                    5.583333333
                ]
            },
            "properties": {
                "name": "Arouaba Oost",
                "article": null
            }
        },
        {
            "type": "Feature",
            "geometry": {
                "type": "Point",
                "coordinates": [
                    -54.033333333,
                    5.583333333
                ]
            },
            "properties": {
                "name": "Arouaba Tabbetje",
                "article": null
            }
        },
        {
            "type": "Feature",
            "geometry": {
                "type": "Point",
                "coordinates": [
                    -54.016666666,
                    5.566666666
                ]
            },
            "properties": {
                "name": "Arouaba Zuid",
                "article": null
            }
        },
        {
            "type": "Feature",
            "geometry": {
                "type": "Point",
                "coordinates": [
                    -54.425833333,
                    5.049444444
                ]
            },
            "properties": {
                "name": "Asabobi Tabbetje",
                "article": null
            }
        },
        {
            "type": "Feature",
            "geometry": {
                "type": "Point",
                "coordinates": [
                    -53.992222222,
                    3.579166666
                ]
            },
            "properties": {
                "name": "Assadam Tabriki",
                "article": null
            }
        },
        {
            "type": "Feature",
            "geometry": {
                "type": "Point",
                "coordinates": [
                    -57.766666666,
                    4.916666666
                ]
            },
            "properties": {
                "name": "Assipoya Eiland",
                "article": null
            }
        },
        {
            "type": "Feature",
            "geometry": {
                "type": "Point",
                "coordinates": [
                    -57.2475,
                    5.259722222
                ]
            },
            "properties": {
                "name": "Assirikamo Eiland",
                "article": null
            }
        },
        {
            "type": "Feature",
            "geometry": {
                "type": "Point",
                "coordinates": [
                    -55.542222222,
                    4.985
                ]
            },
            "properties": {
                "name": "Awallatabriki",
                "article": null
            }
        },
        {
            "type": "Feature",
            "geometry": {
                "type": "Point",
                "coordinates": [
                    -54.683333333,
                    4.1
                ]
            },
            "properties": {
                "name": "Baboen Eiland",
                "article": null
            }
        },
        {
            "type": "Feature",
            "geometry": {
                "type": "Point",
                "coordinates": [
                    -55.6,
                    4.666666666
                ]
            },
            "properties": {
                "name": "Bakama Prati",
                "article": null
            }
        },
        {
            "type": "Feature",
            "geometry": {
                "type": "Point",
                "coordinates": [
                    -57.145277777,
                    5.739722222
                ]
            },
            "properties": {
                "name": "Bonaparte Eiland",
                "article": null
            }
        },
        {
            "type": "Feature",
            "geometry": {
                "type": "Point",
                "coordinates": [
                    -55.166666666,
                    5.866666666
                ]
            },
            "properties": {
                "name": "Paramaribo",
                "article": "https://en.wikipedia.org/wiki/Paramaribo"
            }
        },
        {
            "type": "Feature",
            "geometry": {
                "type": "Point",
                "coordinates": [
                    -54.4,
                    5.616666666
                ]
            },
            "properties": {
                "name": "Moengo",
                "article": "https://en.wikipedia.org/wiki/Moengo"
            }
        },
        {
            "type": "Feature",
            "geometry": {
                "type": "Point",
                "coordinates": [
                    -56.686388888,
                    5.768888888
                ]
            },
            "properties": {
                "name": "Wageningen",
                "article": "https://en.wikipedia.org/wiki/Wageningen,_Suriname"
            }
        },
        {
            "type": "Feature",
            "geometry": {
                "type": "Point",
                "coordinates": [
                    -55.016666666,
                    5.35
                ]
            },
            "properties": {
                "name": "Worsteling Jacobs Eiland",
                "article": null
            }
        },
        {
            "type": "Feature",
            "geometry": {
                "type": "Point",
                "coordinates": [
                    -54.05,
                    3.38333
                ]
            },
            "properties": {
                "name": "Zaoe Tabriki",
                "article": null
            }
        },
        {
            "type": "Feature",
            "geometry": {
                "type": "Point",
                "coordinates": [
                    -54.327777777,
                    5.197222222
                ]
            },
            "properties": {
                "name": "Île Akinou Gadou",
                "article": null
            }
        },
        {
            "type": "Feature",
            "geometry": {
                "type": "Point",
                "coordinates": [
                    -54.315277777,
                    5.215833333
                ]
            },
            "properties": {
                "name": "Île Ponta",
                "article": null
            }
        },
        {
            "type": "Feature",
            "geometry": {
                "type": "Point",
                "coordinates": [
                    -54.395833333,
                    4.296666666
                ]
            },
            "properties": {
                "name": "Îlet Langa",
                "article": null
            }
        },
        {
            "type": "Feature",
            "geometry": {
                "type": "Point",
                "coordinates": [
                    -55.1553488,
                    5.8268939
                ]
            },
            "properties": {
                "name": "Kerkplein",
                "article": null
            }
        },
        {
            "type": "Feature",
            "geometry": {
                "type": "Point",
                "coordinates": [
                    -55.15762,
                    5.82937
                ]
            },
            "properties": {
                "name": "Bioscoop Tower",
                "article": null
            }
        },
        {
            "type": "Feature",
            "geometry": {
                "type": "Point",
                "coordinates": [
                    -55.086388888,
                    4.8825
                ]
            },
            "properties": {
                "name": "Q49634523",
                "article": null
            }
        },
        {
            "type": "Feature",
            "geometry": {
                "type": "Point",
                "coordinates": [
                    -54.440833333,
                    4.448333333
                ]
            },
            "properties": {
                "name": "Q49634524",
                "article": null
            }
        },
        {
            "type": "Feature",
            "geometry": {
                "type": "Point",
                "coordinates": [
                    -54.266666666,
                    5.283333333
                ]
            },
            "properties": {
                "name": "Q49636158",
                "article": null
            }
        },
        {
            "type": "Feature",
            "geometry": {
                "type": "Point",
                "coordinates": [
                    -57.127777777,
                    5.67
                ]
            },
            "properties": {
                "name": "Q49636365",
                "article": null
            }
        },
        {
            "type": "Feature",
            "geometry": {
                "type": "Point",
                "coordinates": [
                    -54.016666666,
                    5.55
                ]
            },
            "properties": {
                "name": "Q49637085",
                "article": null
            }
        },
        {
            "type": "Feature",
            "geometry": {
                "type": "Point",
                "coordinates": [
                    -54.004166666,
                    3.52
                ]
            },
            "properties": {
                "name": "Q49637681",
                "article": null
            }
        },
        {
            "type": "Feature",
            "geometry": {
                "type": "Point",
                "coordinates": [
                    -55.883333333,
                    4.066666666
                ]
            },
            "properties": {
                "name": "Q49637985",
                "article": null
            }
        },
        {
            "type": "Feature",
            "geometry": {
                "type": "Point",
                "coordinates": [
                    -56.200277777,
                    4.724444444
                ]
            },
            "properties": {
                "name": "Q49638304",
                "article": null
            }
        },
        {
            "type": "Feature",
            "geometry": {
                "type": "Point",
                "coordinates": [
                    -56.183333333,
                    4.583333333
                ]
            },
            "properties": {
                "name": "Q49638305",
                "article": null
            }
        },
        {
            "type": "Feature",
            "geometry": {
                "type": "Point",
                "coordinates": [
                    -54.440833333,
                    4.467777777
                ]
            },
            "properties": {
                "name": "Q49638692",
                "article": null
            }
        },
        {
            "type": "Feature",
            "geometry": {
                "type": "Point",
                "coordinates": [
                    -55.716666666,
                    4.533333333
                ]
            },
            "properties": {
                "name": "Q49638698",
                "article": null
            }
        },
        {
            "type": "Feature",
            "geometry": {
                "type": "Point",
                "coordinates": [
                    -55.566666666,
                    4.683333333
                ]
            },
            "properties": {
                "name": "Q49638702",
                "article": null
            }
        },
        {
            "type": "Feature",
            "geometry": {
                "type": "Point",
                "coordinates": [
                    -54.733333333,
                    4.116666666
                ]
            },
            "properties": {
                "name": "Q49639440",
                "article": null
            }
        },
        {
            "type": "Feature",
            "geometry": {
                "type": "Point",
                "coordinates": [
                    -54.6,
                    4.166666666
                ]
            },
            "properties": {
                "name": "Q49639465",
                "article": null
            }
        },
        {
            "type": "Feature",
            "geometry": {
                "type": "Point",
                "coordinates": [
                    -57.166666666,
                    5.533333333
                ]
            },
            "properties": {
                "name": "Q49639813",
                "article": null
            }
        },
        {
            "type": "Feature",
            "geometry": {
                "type": "Point",
                "coordinates": [
                    -54.0,
                    3.566666666
                ]
            },
            "properties": {
                "name": "Q49642536",
                "article": null
            }
        },
        {
            "type": "Feature",
            "geometry": {
                "type": "Point",
                "coordinates": [
                    -54.183333333,
                    5.333333333
                ]
            },
            "properties": {
                "name": "Q49642548",
                "article": null
            }
        },
        {
            "type": "Feature",
            "geometry": {
                "type": "Point",
                "coordinates": [
                    -55.683333333,
                    4.616666666
                ]
            },
            "properties": {
                "name": "Q49645175",
                "article": null
            }
        },
        {
            "type": "Feature",
            "geometry": {
                "type": "Point",
                "coordinates": [
                    -54.470833333,
                    4.758333333
                ]
            },
            "properties": {
                "name": "Q49645358",
                "article": null
            }
        },
        {
            "type": "Feature",
            "geometry": {
                "type": "Point",
                "coordinates": [
                    -56.25,
                    4.616666666
                ]
            },
            "properties": {
                "name": "Q49645356",
                "article": null
            }
        },
        {
            "type": "Feature",
            "geometry": {
                "type": "Point",
                "coordinates": [
                    -57.796111111,
                    4.701944444
                ]
            },
            "properties": {
                "name": "Q49645440",
                "article": null
            }
        },
        {
            "type": "Feature",
            "geometry": {
                "type": "Point",
                "coordinates": [
                    -54.4525,
                    4.933888888
                ]
            },
            "properties": {
                "name": "Q49645551",
                "article": null
            }
        },
        {
            "type": "Feature",
            "geometry": {
                "type": "Point",
                "coordinates": [
                    -55.110277777,
                    4.813611111
                ]
            },
            "properties": {
                "name": "Q49645767",
                "article": null
            }
        },
        {
            "type": "Feature",
            "geometry": {
                "type": "Point",
                "coordinates": [
                    -57.271388888,
                    5.316944444
                ]
            },
            "properties": {
                "name": "Q49646055",
                "article": null
            }
        },
        {
            "type": "Feature",
            "geometry": {
                "type": "Point",
                "coordinates": [
                    -54.7,
                    4.116666666
                ]
            },
            "properties": {
                "name": "Q49646079",
                "article": null
            }
        },
        {
            "type": "Feature",
            "geometry": {
                "type": "Point",
                "coordinates": [
                    -57.2,
                    5.533333333
                ]
            },
            "properties": {
                "name": "Q49646281",
                "article": null
            }
        },
        {
            "type": "Feature",
            "geometry": {
                "type": "Point",
                "coordinates": [
                    -56.05,
                    5.333333333
                ]
            },
            "properties": {
                "name": "Q49648064",
                "article": null
            }
        },
        {
            "type": "Feature",
            "geometry": {
                "type": "Point",
                "coordinates": [
                    -57.273333333,
                    5.115555555
                ]
            },
            "properties": {
                "name": "Q49648069",
                "article": null
            }
        },
        {
            "type": "Feature",
            "geometry": {
                "type": "Point",
                "coordinates": [
                    -56.116666666,
                    4.55
                ]
            },
            "properties": {
                "name": "Q49648083",
                "article": null
            }
        },
        {
            "type": "Feature",
            "geometry": {
                "type": "Point",
                "coordinates": [
                    -55.35,
                    4.5
                ]
            },
            "properties": {
                "name": "Q49648623",
                "article": null
            }
        },
        {
            "type": "Feature",
            "geometry": {
                "type": "Point",
                "coordinates": [
                    -57.166666666,
                    5.583333333
                ]
            },
            "properties": {
                "name": "Q49649004",
                "article": null
            }
        },
        {
            "type": "Feature",
            "geometry": {
                "type": "Point",
                "coordinates": [
                    -57.166666666,
                    5.766666666
                ]
            },
            "properties": {
                "name": "Q49649994",
                "article": null
            }
        },
        {
            "type": "Feature",
            "geometry": {
                "type": "Point",
                "coordinates": [
                    -54.440833333,
                    5.014444444
                ]
            },
            "properties": {
                "name": "Q49650328",
                "article": null
            }
        },
        {
            "type": "Feature",
            "geometry": {
                "type": "Point",
                "coordinates": [
                    -54.387777777,
                    4.27
                ]
            },
            "properties": {
                "name": "Q49650329",
                "article": null
            }
        },
        {
            "type": "Feature",
            "geometry": {
                "type": "Point",
                "coordinates": [
                    -54.199444444,
                    3.827222222
                ]
            },
            "properties": {
                "name": "Q49650587",
                "article": null
            }
        },
        {
            "type": "Feature",
            "geometry": {
                "type": "Point",
                "coordinates": [
                    -56.266666666,
                    4.65
                ]
            },
            "properties": {
                "name": "Q49651101",
                "article": null
            }
        },
        {
            "type": "Feature",
            "geometry": {
                "type": "Point",
                "coordinates": [
                    -54.155277777,
                    5.350555555
                ]
            },
            "properties": {
                "name": "Q49651199",
                "article": null
            }
        },
        {
            "type": "Feature",
            "geometry": {
                "type": "Point",
                "coordinates": [
                    -56.216666666,
                    4.7
                ]
            },
            "properties": {
                "name": "Q49651216",
                "article": null
            }
        },
        {
            "type": "Feature",
            "geometry": {
                "type": "Point",
                "coordinates": [
                    -54.354166666,
                    4.035555555
                ]
            },
            "properties": {
                "name": "Q49651301",
                "article": null
            }
        },
        {
            "type": "Feature",
            "geometry": {
                "type": "Point",
                "coordinates": [
                    -54.666666666,
                    4.116666666
                ]
            },
            "properties": {
                "name": "Q49653875",
                "article": null
            }
        },
        {
            "type": "Feature",
            "geometry": {
                "type": "Point",
                "coordinates": [
                    -57.140277777,
                    5.583888888
                ]
            },
            "properties": {
                "name": "Q49655760",
                "article": null
            }
        },
        {
            "type": "Feature",
            "geometry": {
                "type": "Point",
                "coordinates": [
                    -55.716666666,
                    4.533333333
                ]
            },
            "properties": {
                "name": "Q49655959",
                "article": null
            }
        },
        {
            "type": "Feature",
            "geometry": {
                "type": "Point",
                "coordinates": [
                    -57.75,
                    4.966666666
                ]
            },
            "properties": {
                "name": "Q49656111",
                "article": null
            }
        },
        {
            "type": "Feature",
            "geometry": {
                "type": "Point",
                "coordinates": [
                    -57.266666666,
                    5.383333333
                ]
            },
            "properties": {
                "name": "Q49656227",
                "article": null
            }
        },
        {
            "type": "Feature",
            "geometry": {
                "type": "Point",
                "coordinates": [
                    -57.333333333,
                    5.35
                ]
            },
            "properties": {
                "name": "Q49656765",
                "article": null
            }
        },
        {
            "type": "Feature",
            "geometry": {
                "type": "Point",
                "coordinates": [
                    -57.531388888,
                    5.000555555
                ]
            },
            "properties": {
                "name": "Q49657238",
                "article": null
            }
        },
        {
            "type": "Feature",
            "geometry": {
                "type": "Point",
                "coordinates": [
                    -55.633333333,
                    4.666666666
                ]
            },
            "properties": {
                "name": "Q49659092",
                "article": null
            }
        },
        {
            "type": "Feature",
            "geometry": {
                "type": "Point",
                "coordinates": [
                    -54.566666666,
                    4.183333333
                ]
            },
            "properties": {
                "name": "Q49659298",
                "article": null
            }
        },
        {
            "type": "Feature",
            "geometry": {
                "type": "Point",
                "coordinates": [
                    -54.469444444,
                    4.821666666
                ]
            },
            "properties": {
                "name": "Q49661877",
                "article": null
            }
        },
        {
            "type": "Feature",
            "geometry": {
                "type": "Point",
                "coordinates": [
                    -54.9875,
                    4.998611111
                ]
            },
            "properties": {
                "name": "Q49663035",
                "article": null
            }
        },
        {
            "type": "Feature",
            "geometry": {
                "type": "Point",
                "coordinates": [
                    -54.483333333,
                    4.283333333
                ]
            },
            "properties": {
                "name": "Q49663084",
                "article": null
            }
        },
        {
            "type": "Feature",
            "geometry": {
                "type": "Point",
                "coordinates": [
                    -54.2,
                    3.816666666
                ]
            },
            "properties": {
                "name": "Q49665456",
                "article": null
            }
        },
        {
            "type": "Feature",
            "geometry": {
                "type": "Point",
                "coordinates": [
                    -55.75,
                    4.5
                ]
            },
            "properties": {
                "name": "Q49667016",
                "article": null
            }
        },
        {
            "type": "Feature",
            "geometry": {
                "type": "Point",
                "coordinates": [
                    -57.588055555,
                    4.993888888
                ]
            },
            "properties": {
                "name": "Q49667377",
                "article": null
            }
        },
        {
            "type": "Feature",
            "geometry": {
                "type": "Point",
                "coordinates": [
                    -54.465833333,
                    4.770277777
                ]
            },
            "properties": {
                "name": "Q49667396",
                "article": null
            }
        },
        {
            "type": "Feature",
            "geometry": {
                "type": "Point",
                "coordinates": [
                    -56.083333333,
                    4.5
                ]
            },
            "properties": {
                "name": "Q49667414",
                "article": null
            }
        },
        {
            "type": "Feature",
            "geometry": {
                "type": "Point",
                "coordinates": [
                    -57.815277777,
                    4.743611111
                ]
            },
            "properties": {
                "name": "Q49668301",
                "article": null
            }
        },
        {
            "type": "Feature",
            "geometry": {
                "type": "Point",
                "coordinates": [
                    -55.716666666,
                    4.566666666
                ]
            },
            "properties": {
                "name": "Q49669297",
                "article": null
            }
        },
        {
            "type": "Feature",
            "geometry": {
                "type": "Point",
                "coordinates": [
                    -57.237777777,
                    5.443611111
                ]
            },
            "properties": {
                "name": "Q49670382",
                "article": null
            }
        },
        {
            "type": "Feature",
            "geometry": {
                "type": "Point",
                "coordinates": [
                    -57.095833333,
                    5.804444444
                ]
            },
            "properties": {
                "name": "Q49674904",
                "article": null
            }
        },
        {
            "type": "Feature",
            "geometry": {
                "type": "Point",
                "coordinates": [
                    -57.823888888,
                    4.882777777
                ]
            },
            "properties": {
                "name": "Q49677024",
                "article": null
            }
        },
        {
            "type": "Feature",
            "geometry": {
                "type": "Point",
                "coordinates": [
                    -54.296388888,
                    5.247777777
                ]
            },
            "properties": {
                "name": "Q49677294",
                "article": null
            }
        },
        {
            "type": "Feature",
            "geometry": {
                "type": "Point",
                "coordinates": [
                    -55.152306,
                    5.826667
                ]
            },
            "properties": {
                "name": "Onafhankelijkheidsplein 3, Paramaribo",
                "article": null
            }
        },
        {
            "type": "Feature",
            "geometry": {
                "type": "Point",
                "coordinates": [
                    -55.171688888,
                    5.824044444
                ]
            },
            "properties": {
                "name": "Johan Adolf Pengelstraat",
                "article": null
            }
        },
        {
            "type": "Feature",
            "geometry": {
                "type": "Point",
                "coordinates": [
                    -55.152444,
                    5.826417
                ]
            },
            "properties": {
                "name": "Onafhankelijkheidsplein 4",
                "article": null
            }
        },
        {
            "type": "Feature",
            "geometry": {
                "type": "Point",
                "coordinates": [
                    -55.16727,
                    5.83052
                ]
            },
            "properties": {
                "name": "Mr. Eduard J. Brumastraat",
                "article": null
            }
        },
        {
            "type": "Feature",
            "geometry": {
                "type": "Point",
                "coordinates": [
                    -55.167983,
                    5.821414
                ]
            },
            "properties": {
                "name": "Anton de Komstraat",
                "article": null
            }
        },
        {
            "type": "Feature",
            "geometry": {
                "type": "Point",
                "coordinates": [
                    -55.157254,
                    5.826255
                ]
            },
            "properties": {
                "name": "Heiligenweg",
                "article": null
            }
        },
        {
            "type": "Feature",
            "geometry": {
                "type": "Point",
                "coordinates": [
                    -55.15425,
                    5.825028
                ]
            },
            "properties": {
                "name": "Waag",
                "article": "https://en.wikipedia.org/wiki/Waag_(Paramaribo)"
            }
        },
        {
            "type": "Feature",
            "geometry": {
                "type": "Point",
                "coordinates": [
                    -55.153722,
                    5.825333
                ]
            },
            "properties": {
                "name": "Building of Ministery of Social Affairs",
                "article": null
            }
        },
        {
            "type": "Feature",
            "geometry": {
                "type": "Point",
                "coordinates": [
                    -55.150167,
                    5.826083
                ]
            },
            "properties": {
                "name": "Wachthuis",
                "article": null
            }
        },
        {
            "type": "Feature",
            "geometry": {
                "type": "Point",
                "coordinates": [
                    -55.154222,
                    5.828167
                ]
            },
            "properties": {
                "name": "Grote Pastorie",
                "article": null
            }
        },
        {
            "type": "Feature",
            "geometry": {
                "type": "Point",
                "coordinates": [
                    -55.149222,
                    5.826194
                ]
            },
            "properties": {
                "name": "Gebouw 1790, Fort Zeelandia, Paramaribo",
                "article": null
            }
        },
        {
            "type": "Feature",
            "geometry": {
                "type": "Point",
                "coordinates": [
                    -55.1597837,
                    5.8265138
                ]
            },
            "properties": {
                "name": "Domineestraat",
                "article": null
            }
        },
        {
            "type": "Feature",
            "geometry": {
                "type": "Point",
                "coordinates": [
                    -55.152917,
                    5.82775
                ]
            },
            "properties": {
                "name": "Bisschopshuis",
                "article": null
            }
        },
        {
            "type": "Feature",
            "geometry": {
                "type": "Point",
                "coordinates": [
                    -55.151889,
                    5.825389
                ]
            },
            "properties": {
                "name": "Waterkant 2, Paramaribo",
                "article": null
            }
        },
        {
            "type": "Feature",
            "geometry": {
                "type": "Point",
                "coordinates": [
                    -55.19955355,
                    5.815804204
                ]
            },
            "properties": {
                "name": "Jaggernath Lachmonstraat",
                "article": null
            }
        },
        {
            "type": "Feature",
            "geometry": {
                "type": "Point",
                "coordinates": [
                    -55.1631842,
                    5.8243369
                ]
            },
            "properties": {
                "name": "Zwartenhovenbrugstraat",
                "article": null
            }
        },
        {
            "type": "Feature",
            "geometry": {
                "type": "Point",
                "coordinates": [
                    -55.1480576,
                    5.8278522
                ]
            },
            "properties": {
                "name": "Kleine Waterstraat",
                "article": null
            }
        },
        {
            "type": "Feature",
            "geometry": {
                "type": "Point",
                "coordinates": [
                    -55.158028,
                    5.824056
                ]
            },
            "properties": {
                "name": "Bettencourtgebouw",
                "article": null
            }
        },
        {
            "type": "Feature",
            "geometry": {
                "type": "Point",
                "coordinates": [
                    -55.184444444,
                    5.828888888
                ]
            },
            "properties": {
                "name": "Q70006247",
                "article": null
            }
        },
        {
            "type": "Feature",
            "geometry": {
                "type": "Point",
                "coordinates": [
                    -55.462777777,
                    4.026666666
                ]
            },
            "properties": {
                "name": "Apiapaati",
                "article": null
            }
        },
        {
            "type": "Feature",
            "geometry": {
                "type": "Point",
                "coordinates": [
                    -55.151388888,
                    3.488888888
                ]
            },
            "properties": {
                "name": "Tebu Top",
                "article": "https://en.wikipedia.org/wiki/Tebutop"
            }
        },
        {
            "type": "Feature",
            "geometry": {
                "type": "Point",
                "coordinates": [
                    -55.171944444,
                    5.834444444
                ]
            },
            "properties": {
                "name": "Q79960136",
                "article": null
            }
        },
        {
            "type": "Feature",
            "geometry": {
                "type": "Point",
                "coordinates": [
                    -55.274444444,
                    3.4625
                ]
            },
            "properties": {
                "name": "Magneetrots",
                "article": "https://en.wikipedia.org/wiki/Magneetrots"
            }
        },
        {
            "type": "Feature",
            "geometry": {
                "type": "Point",
                "coordinates": [
                    -55.16314,
                    5.82719
                ]
            },
            "properties": {
                "name": "Court Charity",
                "article": "https://en.wikipedia.org/wiki/Court_Charity"
            }
        },
        {
            "type": "Feature",
            "geometry": {
                "type": "Point",
                "coordinates": [
                    -57.59944444,
                    3.2775
                ]
            },
            "properties": {
                "name": "Kasuela",
                "article": "https://en.wikipedia.org/wiki/Kasuela"
            }
        },
        {
            "type": "Feature",
            "geometry": {
                "type": "Point",
                "coordinates": [
                    -57.644722222,
                    3.541388888
                ]
            },
            "properties": {
                "name": "Arapahu Island",
                "article": null
            }
        },
        {
            "type": "Feature",
            "geometry": {
                "type": "Point",
                "coordinates": [
                    -55.613888888,
                    3.845277777
                ]
            },
            "properties": {
                "name": "Awaradam",
                "article": null
            }
        },
        {
            "type": "Feature",
            "geometry": {
                "type": "Point",
                "coordinates": [
                    -54.085277777,
                    3.679166666
                ]
            },
            "properties": {
                "name": "Tabiki",
                "article": null
            }
        },
        {
            "type": "Feature",
            "geometry": {
                "type": "Point",
                "coordinates": [
                    -56.20833333,
                    4.72277778
                ]
            },
            "properties": {
                "name": "Q97096066",
                "article": null
            }
        },
        {
            "type": "Feature",
            "geometry": {
                "type": "Point",
                "coordinates": [
                    -54.941666666,
                    4.661111111
                ]
            },
            "properties": {
                "name": "Pitean",
                "article": null
            }
        },
        {
            "type": "Feature",
            "geometry": {
                "type": "Point",
                "coordinates": [
                    -55.1589619,
                    5.8259886
                ]
            },
            "properties": {
                "name": "Jodenbreestraat",
                "article": null
            }
        },
        {
            "type": "Feature",
            "geometry": {
                "type": "Point",
                "coordinates": [
                    -55.234444,
                    5.868056
                ]
            },
            "properties": {
                "name": "Tingi Holo",
                "article": null
            }
        },
        {
            "type": "Feature",
            "geometry": {
                "type": "Point",
                "coordinates": [
                    -55.1648474,
                    5.8280131
                ]
            },
            "properties": {
                "name": "Burenstraat 46, Paramaribo",
                "article": null
            }
        },
        {
            "type": "Feature",
            "geometry": {
                "type": "Point",
                "coordinates": [
                    -55.1632511,
                    5.8271
                ]
            },
            "properties": {
                "name": "Burenstraat 24, Paramaribo",
                "article": null
            }
        },
        {
            "type": "Feature",
            "geometry": {
                "type": "Point",
                "coordinates": [
                    -55.15272,
                    5.8264
                ]
            },
            "properties": {
                "name": "Mr. F.H.R. Lim A Postraat",
                "article": null
            }
        },
        {
            "type": "Feature",
            "geometry": {
                "type": "Point",
                "coordinates": [
                    -55.1698432,
                    5.8339383
                ]
            },
            "properties": {
                "name": "Verlengde Keizerstraat",
                "article": null
            }
        },
        {
            "type": "Feature",
            "geometry": {
                "type": "Point",
                "coordinates": [
                    -55.154013245,
                    5.82614354
                ]
            },
            "properties": {
                "name": "Kromme Elleboogstraat",
                "article": null
            }
        },
        {
            "type": "Feature",
            "geometry": {
                "type": "Point",
                "coordinates": [
                    -55.15266,
                    5.82626
                ]
            },
            "properties": {
                "name": "Mr. Dr. J.C. de Mirandastraat",
                "article": null
            }
        },
        {
            "type": "Feature",
            "geometry": {
                "type": "Point",
                "coordinates": [
                    -55.1548569,
                    5.8265644
                ]
            },
            "properties": {
                "name": "Grote Hofstraat",
                "article": null
            }
        },
        {
            "type": "Feature",
            "geometry": {
                "type": "Point",
                "coordinates": [
                    -55.1565908,
                    5.8260071
                ]
            },
            "properties": {
                "name": "Knuffelsgracht",
                "article": null
            }
        },
        {
            "type": "Feature",
            "geometry": {
                "type": "Point",
                "coordinates": [
                    -55.1559074,
                    5.8264202
                ]
            },
            "properties": {
                "name": "Korte Kerkstraat",
                "article": null
            }
        },
        {
            "type": "Feature",
            "geometry": {
                "type": "Point",
                "coordinates": [
                    -55.1542066,
                    5.8265116
                ]
            },
            "properties": {
                "name": "Oude Hofstraat",
                "article": null
            }
        },
        {
            "type": "Feature",
            "geometry": {
                "type": "Point",
                "coordinates": [
                    -55.1602174,
                    5.8249814
                ]
            },
            "properties": {
                "name": "Maagdenstraat",
                "article": null
            }
        },
        {
            "type": "Feature",
            "geometry": {
                "type": "Point",
                "coordinates": [
                    -55.1566328,
                    5.8285317
                ]
            },
            "properties": {
                "name": "Heerenstraat",
                "article": null
            }
        },
        {
            "type": "Feature",
            "geometry": {
                "type": "Point",
                "coordinates": [
                    -55.1551596,
                    5.8257193
                ]
            },
            "properties": {
                "name": "Watermolenstraat",
                "article": null
            }
        },
        {
            "type": "Feature",
            "geometry": {
                "type": "Point",
                "coordinates": [
                    -55.1638009,
                    5.8324197
                ]
            },
            "properties": {
                "name": "Dr. J.F. Nassylaan",
                "article": null
            }
        },
        {
            "type": "Feature",
            "geometry": {
                "type": "Point",
                "coordinates": [
                    -55.1611797,
                    5.8314884
                ]
            },
            "properties": {
                "name": "Swalmbergstraat",
                "article": null
            }
        },
        {
            "type": "Feature",
            "geometry": {
                "type": "Point",
                "coordinates": [
                    -55.1605978,
                    5.8252982
                ]
            },
            "properties": {
                "name": "Steenbakkerijstraat",
                "article": null
            }
        },
        {
            "type": "Feature",
            "geometry": {
                "type": "Point",
                "coordinates": [
                    -55.1577265,
                    5.8287733
                ]
            },
            "properties": {
                "name": "Wagenwegstraat",
                "article": null
            }
        },
        {
            "type": "Feature",
            "geometry": {
                "type": "Point",
                "coordinates": [
                    -55.172447781,
                    5.830579157
                ]
            },
            "properties": {
                "name": "Dr. Sophie Redmondstraat",
                "article": null
            }
        },
        {
            "type": "Feature",
            "geometry": {
                "type": "Point",
                "coordinates": [
                    -55.1621806,
                    5.8231876
                ]
            },
            "properties": {
                "name": "Ladesmastraat",
                "article": null
            }
        },
        {
            "type": "Feature",
            "geometry": {
                "type": "Point",
                "coordinates": [
                    -55.1619971,
                    5.8223672
                ]
            },
            "properties": {
                "name": "Saramaccastraat",
                "article": null
            }
        },
        {
            "type": "Feature",
            "geometry": {
                "type": "Point",
                "coordinates": [
                    -55.163928977,
                    5.827499618
                ]
            },
            "properties": {
                "name": "Burenstraat",
                "article": null
            }
        },
        {
            "type": "Feature",
            "geometry": {
                "type": "Point",
                "coordinates": [
                    -55.1532208,
                    5.828949
                ]
            },
            "properties": {
                "name": "Mgr. Wulfinghstraat",
                "article": null
            }
        },
        {
            "type": "Feature",
            "geometry": {
                "type": "Point",
                "coordinates": [
                    -55.150315044,
                    5.829458287
                ]
            },
            "properties": {
                "name": "Van Roseveltkade",
                "article": null
            }
        },
        {
            "type": "Feature",
            "geometry": {
                "type": "Point",
                "coordinates": [
                    -55.1643956,
                    5.8226501
                ]
            },
            "properties": {
                "name": "Prinsenstraat",
                "article": null
            }
        },
        {
            "type": "Feature",
            "geometry": {
                "type": "Point",
                "coordinates": [
                    -55.149498672,
                    5.831474324
                ]
            },
            "properties": {
                "name": "Grote Combéweg",
                "article": null
            }
        },
        {
            "type": "Feature",
            "geometry": {
                "type": "Point",
                "coordinates": [
                    -55.153257,
                    5.8315394
                ]
            },
            "properties": {
                "name": "Koninginnestraat",
                "article": null
            }
        },
        {
            "type": "Feature",
            "geometry": {
                "type": "Point",
                "coordinates": [
                    -55.1554597,
                    5.8393195
                ]
            },
            "properties": {
                "name": "Prinsessestraat",
                "article": null
            }
        },
        {
            "type": "Feature",
            "geometry": {
                "type": "Point",
                "coordinates": [
                    -55.1508456,
                    5.832433
                ]
            },
            "properties": {
                "name": "Julianastraat",
                "article": null
            }
        },
        {
            "type": "Feature",
            "geometry": {
                "type": "Point",
                "coordinates": [
                    -55.1517244,
                    5.8322093
                ]
            },
            "properties": {
                "name": "Prins Hendrikstraat",
                "article": null
            }
        },
        {
            "type": "Feature",
            "geometry": {
                "type": "Point",
                "coordinates": [
                    -55.1591285,
                    5.8312635
                ]
            },
            "properties": {
                "name": "Stoelmanstraat",
                "article": null
            }
        },
        {
            "type": "Feature",
            "geometry": {
                "type": "Point",
                "coordinates": [
                    -55.1529058,
                    5.8334194
                ]
            },
            "properties": {
                "name": "Costerstraat",
                "article": null
            }
        },
        {
            "type": "Feature",
            "geometry": {
                "type": "Point",
                "coordinates": [
                    -55.155690009,
                    5.842244386
                ]
            },
            "properties": {
                "name": "Gongrijpstraat",
                "article": null
            }
        },
        {
            "type": "Feature",
            "geometry": {
                "type": "Point",
                "coordinates": [
                    -55.1584226,
                    5.8283615
                ]
            },
            "properties": {
                "name": "Malebatrumstraat",
                "article": null
            }
        },
        {
            "type": "Feature",
            "geometry": {
                "type": "Point",
                "coordinates": [
                    -55.176695,
                    5.8241947
                ]
            },
            "properties": {
                "name": "Gemenelandsweg",
                "article": null
            }
        },
        {
            "type": "Feature",
            "geometry": {
                "type": "Point",
                "coordinates": [
                    -55.145837169,
                    5.831644371
                ]
            },
            "properties": {
                "name": "Hofstede Crulllaan",
                "article": null
            }
        },
        {
            "type": "Feature",
            "geometry": {
                "type": "Point",
                "coordinates": [
                    -55.133177067,
                    5.833658335
                ]
            },
            "properties": {
                "name": "Anton Dragtenweg",
                "article": null
            }
        },
        {
            "type": "Feature",
            "geometry": {
                "type": "Point",
                "coordinates": [
                    -55.1648474,
                    5.8280131
                ]
            },
            "properties": {
                "name": "Burenstraat 46, Paramaribo",
                "article": null
            }
        },
        {
            "type": "Feature",
            "geometry": {
                "type": "Point",
                "coordinates": [
                    -55.1632511,
                    5.8271
                ]
            },
            "properties": {
                "name": "Burenstraat 24, Paramaribo",
                "article": null
            }
        },
        {
            "type": "Feature",
            "geometry": {
                "type": "Point",
                "coordinates": [
                    -55.370222222,
                    4.423944444
                ]
            },
            "properties": {
                "name": "Isadou",
                "article": null
            }
        },
        {
            "type": "Feature",
            "geometry": {
                "type": "Point",
                "coordinates": [
                    -55.1658726,
                    5.8223101
                ]
            },
            "properties": {
                "name": "A.L. Waaldijkstraat",
                "article": null
            }
        },
        {
            "type": "Feature",
            "geometry": {
                "type": "Point",
                "coordinates": [
                    -55.1617868,
                    5.8364512
                ]
            },
            "properties": {
                "name": "Abdool Karimsteeg",
                "article": null
            }
        },
        {
            "type": "Feature",
            "geometry": {
                "type": "Point",
                "coordinates": [
                    -55.1499485,
                    5.8256524
                ]
            },
            "properties": {
                "name": "Abraham Crijnssenweg",
                "article": null
            }
        },
        {
            "type": "Feature",
            "geometry": {
                "type": "Point",
                "coordinates": [
                    -55.1709891,
                    5.8215426
                ]
            },
            "properties": {
                "name": "Afi Jabbastraat",
                "article": null
            }
        },
        {
            "type": "Feature",
            "geometry": {
                "type": "Point",
                "coordinates": [
                    -55.1486729,
                    5.8366044
                ]
            },
            "properties": {
                "name": "Alexander Samuelsstraat",
                "article": null
            }
        },
        {
            "type": "Feature",
            "geometry": {
                "type": "Point",
                "coordinates": [
                    -55.1725374,
                    5.8280621
                ]
            },
            "properties": {
                "name": "Achtersteeg",
                "article": null
            }
        },
        {
            "type": "Feature",
            "geometry": {
                "type": "Point",
                "coordinates": [
                    -55.1691682,
                    5.8153243
                ]
            },
            "properties": {
                "name": "Adrianusstraat",
                "article": null
            }
        },
        {
            "type": "Feature",
            "geometry": {
                "type": "Point",
                "coordinates": [
                    -55.1796475,
                    5.808917
                ]
            },
            "properties": {
                "name": "Awaradam",
                "article": null
            }
        },
        {
            "type": "Feature",
            "geometry": {
                "type": "Point",
                "coordinates": [
                    -55.1659679,
                    5.8382435
                ]
            },
            "properties": {
                "name": "Catostraat",
                "article": null
            }
        },
        {
            "type": "Feature",
            "geometry": {
                "type": "Point",
                "coordinates": [
                    -55.1710211,
                    5.8326439
                ]
            },
            "properties": {
                "name": "Alexanderstraat",
                "article": null
            }
        },
        {
            "type": "Feature",
            "geometry": {
                "type": "Point",
                "coordinates": [
                    -55.1645557,
                    5.8362439
                ]
            },
            "properties": {
                "name": "Anniestraat",
                "article": null
            }
        },
        {
            "type": "Feature",
            "geometry": {
                "type": "Point",
                "coordinates": [
                    -55.1674762,
                    5.8180126
                ]
            },
            "properties": {
                "name": "Commissarisstraat",
                "article": null
            }
        },
        {
            "type": "Feature",
            "geometry": {
                "type": "Point",
                "coordinates": [
                    -55.1825469,
                    5.8072784
                ]
            },
            "properties": {
                "name": "Corantijnstraat",
                "article": null
            }
        },
        {
            "type": "Feature",
            "geometry": {
                "type": "Point",
                "coordinates": [
                    -55.1740239,
                    5.8289476
                ]
            },
            "properties": {
                "name": "Celinastraat",
                "article": null
            }
        },
        {
            "type": "Feature",
            "geometry": {
                "type": "Point",
                "coordinates": [
                    -55.1575878,
                    5.8418163
                ]
            },
            "properties": {
                "name": "Collilaan",
                "article": null
            }
        },
        {
            "type": "Feature",
            "geometry": {
                "type": "Point",
                "coordinates": [
                    -55.1433158,
                    5.8302012
                ]
            },
            "properties": {
                "name": "Cornelis Jongbawstraat",
                "article": null
            }
        },
        {
            "type": "Feature",
            "geometry": {
                "type": "Point",
                "coordinates": [
                    -55.1737745,
                    5.8163069
                ]
            },
            "properties": {
                "name": "Cornelisstraat",
                "article": null
            }
        },
        {
            "type": "Feature",
            "geometry": {
                "type": "Point",
                "coordinates": [
                    -55.1716054,
                    5.8251206
                ]
            },
            "properties": {
                "name": "Corneliastraat",
                "article": null
            }
        },
        {
            "type": "Feature",
            "geometry": {
                "type": "Point",
                "coordinates": [
                    -55.1633054,
                    5.8377958
                ]
            },
            "properties": {
                "name": "Cornelis Graanoogststraat",
                "article": null
            }
        },
        {
            "type": "Feature",
            "geometry": {
                "type": "Point",
                "coordinates": [
                    -55.1659924,
                    5.8251256
                ]
            },
            "properties": {
                "name": "Dr. Eugène Albert Gesselstraat",
                "article": null
            }
        },
        {
            "type": "Feature",
            "geometry": {
                "type": "Point",
                "coordinates": [
                    -55.1690297,
                    5.8243407
                ]
            },
            "properties": {
                "name": "Drambrandersgracht",
                "article": null
            }
        },
        {
            "type": "Feature",
            "geometry": {
                "type": "Point",
                "coordinates": [
                    -55.1466427,
                    5.8314093
                ]
            },
            "properties": {
                "name": "Crommelinstraat",
                "article": null
            }
        },
        {
            "type": "Feature",
            "geometry": {
                "type": "Point",
                "coordinates": [
                    -55.179267,
                    5.8359057
                ]
            },
            "properties": {
                "name": "Doreenstraat",
                "article": null
            }
        },
        {
            "type": "Feature",
            "geometry": {
                "type": "Point",
                "coordinates": [
                    -55.1493459,
                    5.8383718
                ]
            },
            "properties": {
                "name": "Florastraat",
                "article": null
            }
        },
        {
            "type": "Feature",
            "geometry": {
                "type": "Point",
                "coordinates": [
                    -55.145317,
                    5.8360253
                ]
            },
            "properties": {
                "name": "Eldoradolaan",
                "article": null
            }
        },
        {
            "type": "Feature",
            "geometry": {
                "type": "Point",
                "coordinates": [
                    -55.1748706,
                    5.8174206
                ]
            },
            "properties": {
                "name": "Emmastraat",
                "article": null
            }
        },
        {
            "type": "Feature",
            "geometry": {
                "type": "Point",
                "coordinates": [
                    -55.1626063,
                    5.8366438
                ]
            },
            "properties": {
                "name": "Frederikalaan",
                "article": null
            }
        },
        {
            "type": "Feature",
            "geometry": {
                "type": "Point",
                "coordinates": [
                    -55.168468,
                    5.8264793
                ]
            },
            "properties": {
                "name": "Fredericistraat",
                "article": null
            }
        },
        {
            "type": "Feature",
            "geometry": {
                "type": "Point",
                "coordinates": [
                    -55.155562,
                    5.8271234
                ]
            },
            "properties": {
                "name": "Grote Kerkstraat",
                "article": null
            }
        },
        {
            "type": "Feature",
            "geometry": {
                "type": "Point",
                "coordinates": [
                    -55.1685758,
                    5.8231787
                ]
            },
            "properties": {
                "name": "Frederik Derbystraat",
                "article": null
            }
        },
        {
            "type": "Feature",
            "geometry": {
                "type": "Point",
                "coordinates": [
                    -55.1779659,
                    5.8097301
                ]
            },
            "properties": {
                "name": "Hernhutterstraat",
                "article": null
            }
        },
        {
            "type": "Feature",
            "geometry": {
                "type": "Point",
                "coordinates": [
                    -55.1415698,
                    5.8319367
                ]
            },
            "properties": {
                "name": "Hertogstraat",
                "article": null
            }
        },
        {
            "type": "Feature",
            "geometry": {
                "type": "Point",
                "coordinates": [
                    -55.173058,
                    5.8165549
                ]
            },
            "properties": {
                "name": "Helenastraat",
                "article": null
            }
        },
        {
            "type": "Feature",
            "geometry": {
                "type": "Point",
                "coordinates": [
                    -55.1695622,
                    5.8372825
                ]
            },
            "properties": {
                "name": "Jacobstraat",
                "article": null
            }
        },
        {
            "type": "Feature",
            "geometry": {
                "type": "Point",
                "coordinates": [
                    -55.1644727,
                    5.8449998
                ]
            },
            "properties": {
                "name": "Hoenderparkweg",
                "article": null
            }
        },
        {
            "type": "Feature",
            "geometry": {
                "type": "Point",
                "coordinates": [
                    -55.1665828,
                    5.8239119
                ]
            },
            "properties": {
                "name": "Hofstraat",
                "article": null
            }
        },
        {
            "type": "Feature",
            "geometry": {
                "type": "Point",
                "coordinates": [
                    -55.1713697,
                    5.8281758
                ]
            },
            "properties": {
                "name": "Kalkbranderstraat",
                "article": null
            }
        },
        {
            "type": "Feature",
            "geometry": {
                "type": "Point",
                "coordinates": [
                    -55.1548515,
                    5.8298179
                ]
            },
            "properties": {
                "name": "Jessurunstraat",
                "article": null
            }
        },
        {
            "type": "Feature",
            "geometry": {
                "type": "Point",
                "coordinates": [
                    -55.1593985,
                    5.8424751
                ]
            },
            "properties": {
                "name": "Kamponglaan 2",
                "article": null
            }
        },
        {
            "type": "Feature",
            "geometry": {
                "type": "Point",
                "coordinates": [
                    -55.1734437,
                    5.8122618
                ]
            },
            "properties": {
                "name": "Kankantriestraat",
                "article": null
            }
        },
        {
            "type": "Feature",
            "geometry": {
                "type": "Point",
                "coordinates": [
                    -55.160121,
                    5.8421337
                ]
            },
            "properties": {
                "name": "Kamponglaan 1",
                "article": null
            }
        },
        {
            "type": "Feature",
            "geometry": {
                "type": "Point",
                "coordinates": [
                    -55.1849389,
                    5.8329565
                ]
            },
            "properties": {
                "name": "Kernkampweg",
                "article": null
            }
        },
        {
            "type": "Feature",
            "geometry": {
                "type": "Point",
                "coordinates": [
                    -55.1637998,
                    5.8358341
                ]
            },
            "properties": {
                "name": "Kartaramstraat",
                "article": null
            }
        },
        {
            "type": "Feature",
            "geometry": {
                "type": "Point",
                "coordinates": [
                    -55.1649626,
                    5.8202325
                ]
            },
            "properties": {
                "name": "Kleine Saramaccastraat",
                "article": null
            }
        },
        {
            "type": "Feature",
            "geometry": {
                "type": "Point",
                "coordinates": [
                    -55.1485748,
                    5.8289765
                ]
            },
            "properties": {
                "name": "Kleine Dwarsstraat",
                "article": null
            }
        },
        {
            "type": "Feature",
            "geometry": {
                "type": "Point",
                "coordinates": [
                    -55.1649808,
                    5.8417498
                ]
            },
            "properties": {
                "name": "Koffielaan",
                "article": null
            }
        },
        {
            "type": "Feature",
            "geometry": {
                "type": "Point",
                "coordinates": [
                    -55.1740144,
                    5.8176145
                ]
            },
            "properties": {
                "name": "Koningstraat",
                "article": null
            }
        },
        {
            "type": "Feature",
            "geometry": {
                "type": "Point",
                "coordinates": [
                    -55.1568401,
                    5.8283745
                ]
            },
            "properties": {
                "name": "Klipstenenstraat",
                "article": null
            }
        },
        {
            "type": "Feature",
            "geometry": {
                "type": "Point",
                "coordinates": [
                    -55.1751499,
                    5.8372748
                ]
            },
            "properties": {
                "name": "Kwattaweg",
                "article": null
            }
        },
        {
            "type": "Feature",
            "geometry": {
                "type": "Point",
                "coordinates": [
                    -55.1684623,
                    5.8189868
                ]
            },
            "properties": {
                "name": "Laat en Dadelstraat",
                "article": null
            }
        },
        {
            "type": "Feature",
            "geometry": {
                "type": "Point",
                "coordinates": [
                    -55.1551279,
                    5.8250628
                ]
            },
            "properties": {
                "name": "Krabbesteeg",
                "article": null
            }
        },
        {
            "type": "Feature",
            "geometry": {
                "type": "Point",
                "coordinates": [
                    -55.1714916,
                    5.8401639
                ]
            },
            "properties": {
                "name": "Leeuwensteinstraat",
                "article": null
            }
        },
        {
            "type": "Feature",
            "geometry": {
                "type": "Point",
                "coordinates": [
                    -55.1481936,
                    5.8292506
                ]
            },
            "properties": {
                "name": "Leemsteeg",
                "article": null
            }
        },
        {
            "type": "Feature",
            "geometry": {
                "type": "Point",
                "coordinates": [
                    -55.1703491,
                    5.8190689
                ]
            },
            "properties": {
                "name": "Limesgracht",
                "article": null
            }
        },
        {
            "type": "Feature",
            "geometry": {
                "type": "Point",
                "coordinates": [
                    -55.1595972,
                    5.8367421
                ]
            },
            "properties": {
                "name": "Letitia Vriesdelaan",
                "article": null
            }
        },
        {
            "type": "Feature",
            "geometry": {
                "type": "Point",
                "coordinates": [
                    -55.142891,
                    5.833206
                ]
            },
            "properties": {
                "name": "Mahonylaan",
                "article": null
            }
        },
        {
            "type": "Feature",
            "geometry": {
                "type": "Point",
                "coordinates": [
                    -55.1625386,
                    5.8438766
                ]
            },
            "properties": {
                "name": "Mangolaan",
                "article": null
            }
        },
        {
            "type": "Feature",
            "geometry": {
                "type": "Point",
                "coordinates": [
                    -55.1495698,
                    5.833284
                ]
            },
            "properties": {
                "name": "Louiselaan",
                "article": null
            }
        },
        {
            "type": "Feature",
            "geometry": {
                "type": "Point",
                "coordinates": [
                    -55.174352,
                    5.8283803
                ]
            },
            "properties": {
                "name": "Maystraat",
                "article": null
            }
        },
        {
            "type": "Feature",
            "geometry": {
                "type": "Point",
                "coordinates": [
                    -55.1731998,
                    5.8411967
                ]
            },
            "properties": {
                "name": "Mariestraat",
                "article": null
            }
        },
        {
            "type": "Feature",
            "geometry": {
                "type": "Point",
                "coordinates": [
                    -55.1429995,
                    5.83173
                ]
            },
            "properties": {
                "name": "Mauriciusstraat",
                "article": null
            }
        },
        {
            "type": "Feature",
            "geometry": {
                "type": "Point",
                "coordinates": [
                    -55.1742059,
                    5.8185385
                ]
            },
            "properties": {
                "name": "Nassaustraat",
                "article": null
            }
        },
        {
            "type": "Feature",
            "geometry": {
                "type": "Point",
                "coordinates": [
                    -55.1710339,
                    5.8181978
                ]
            },
            "properties": {
                "name": "Molenpad",
                "article": null
            }
        },
        {
            "type": "Feature",
            "geometry": {
                "type": "Point",
                "coordinates": [
                    -55.1665063,
                    5.846329
                ]
            },
            "properties": {
                "name": "Nieuwe Charlesburgweg",
                "article": null
            }
        },
        {
            "type": "Feature",
            "geometry": {
                "type": "Point",
                "coordinates": [
                    -55.1591459,
                    5.8270248
                ]
            },
            "properties": {
                "name": "Neumanpad",
                "article": null
            }
        },
        {
            "type": "Feature",
            "geometry": {
                "type": "Point",
                "coordinates": [
                    -55.1717048,
                    5.8315634
                ]
            },
            "properties": {
                "name": "Oranjestraat",
                "article": null
            }
        },
        {
            "type": "Feature",
            "geometry": {
                "type": "Point",
                "coordinates": [
                    -55.1692525,
                    5.8244169
                ]
            },
            "properties": {
                "name": "Nieuwe Domineestraat",
                "article": null
            }
        },
        {
            "type": "Feature",
            "geometry": {
                "type": "Point",
                "coordinates": [
                    -55.1547075,
                    5.8280821
                ]
            },
            "properties": {
                "name": "Noorderkerkstraat",
                "article": null
            }
        },
        {
            "type": "Feature",
            "geometry": {
                "type": "Point",
                "coordinates": [
                    -55.1649945,
                    5.8381622
                ]
            },
            "properties": {
                "name": "Oude Charlesburgweg",
                "article": null
            }
        },
        {
            "type": "Feature",
            "geometry": {
                "type": "Point",
                "coordinates": [
                    -55.1615463,
                    5.8382929
                ]
            },
            "properties": {
                "name": "Rattan Oemrawsinghstraat",
                "article": null
            }
        },
        {
            "type": "Feature",
            "geometry": {
                "type": "Point",
                "coordinates": [
                    -55.1507948,
                    5.8332039
                ]
            },
            "properties": {
                "name": "Regentessestraat",
                "article": null
            }
        },
        {
            "type": "Feature",
            "geometry": {
                "type": "Point",
                "coordinates": [
                    -55.1700982,
                    5.8349322
                ]
            },
            "properties": {
                "name": "Partikulierenweg",
                "article": null
            }
        },
        {
            "type": "Feature",
            "geometry": {
                "type": "Point",
                "coordinates": [
                    -55.1475402,
                    5.8308234
                ]
            },