{
    "type": "FeatureCollection",
    "features": [
        {
            "type": "Feature",
            "geometry": {
                "type": "Point",
                "coordinates": [
                    -173.745833333,
                    -15.852777777
                ]
            },
            "properties": {
                "name": "Tafahi",
                "article": "https://en.wikipedia.org/wiki/Tafahi"
            }
        },
        {
            "type": "Feature",
            "geometry": {
                "type": "Point",
                "coordinates": [
                    -173.745833333,
                    -15.852777777
                ]
            },
            "properties": {
                "name": "Tafahi",
                "article": "https://en.wikipedia.org/wiki/Tafahi"
            }
        },
        {
            "type": "Feature",
            "geometry": {
                "type": "Point",
                "coordinates": [
                    -176.2,
                    -22.33333
                ]
            },
            "properties": {
                "name": "ʻAta",
                "article": "https://en.wikipedia.org/wiki/%CA%BBAta"
            }
        },
        {
            "type": "Feature",
            "geometry": {
                "type": "Point",
                "coordinates": [
                    -174.937777777,
                    -21.370277777
                ]
            },
            "properties": {
                "name": "ʻEua",
                "article": "https://en.wikipedia.org/wiki/%CA%BBEua"
            }
        },
        {
            "type": "Feature",
            "geometry": {
                "type": "Point",
                "coordinates": [
                    -175.153055555,
                    -21.211388888
                ]
            },
            "properties": {
                "name": "Tongatapu",
                "article": "https://en.wikipedia.org/wiki/Tongatapu"
            }
        },
        {
            "type": "Feature",
            "geometry": {
                "type": "Point",
                "coordinates": [
                    -173.759,
                    -15.101
                ]
            },
            "properties": {
                "name": "West Mata",
                "article": "https://en.wikipedia.org/wiki/West_Mata"
            }
        },
        {
            "type": "Feature",
            "geometry": {
                "type": "Point",
                "coordinates": [
                    -174.3,
                    -19.75
                ]
            },
            "properties": {
                "name": "Foa",
                "article": "https://en.wikipedia.org/wiki/Foa"
            }
        },
        {
            "type": "Feature",
            "geometry": {
                "type": "Point",
                "coordinates": [
                    -174.41667,
                    -19.9
                ]
            },
            "properties": {
                "name": "ʻUiha",
                "article": "https://en.wikipedia.org/wiki/%CA%BBUiha"
            }
        },
        {
            "type": "Feature",
            "geometry": {
                "type": "Point",
                "coordinates": [
                    -174.407559611,
                    -19.891229388
                ]
            },
            "properties": {
                "name": "ʻUiha",
                "article": "https://en.wikipedia.org/wiki/%CA%BBUiha"
            }
        },
        {
            "type": "Feature",
            "geometry": {
                "type": "Point",
                "coordinates": [
                    -174.278,
                    -19.674
                ]
            },
            "properties": {
                "name": "Haʻano",
                "article": "https://en.wikipedia.org/wiki/Ha%CA%BBano"
            }
        },
        {
            "type": "Feature",
            "geometry": {
                "type": "Point",
                "coordinates": [
                    -174.279166666,
                    -19.671666666
                ]
            },
            "properties": {
                "name": "Haʻano",
                "article": "https://en.wikipedia.org/wiki/Ha%CA%BBano"
            }
        },
        {
            "type": "Feature",
            "geometry": {
                "type": "Point",
                "coordinates": [
                    -174.8,
                    -19.95
                ]
            },
            "properties": {
                "name": "Kotu",
                "article": "https://en.wikipedia.org/wiki/Kotu_Island"
            }
        },
        {
            "type": "Feature",
            "geometry": {
                "type": "Point",
                "coordinates": [
                    -173.779027777,
                    -15.959305555
                ]
            },
            "properties": {
                "name": "Niuatoputapu",
                "article": "https://en.wikipedia.org/wiki/Niuatoputapu"
            }
        },
        {
            "type": "Feature",
            "geometry": {
                "type": "Point",
                "coordinates": [
                    -174.366666666,
                    -19.833333333
                ]
            },
            "properties": {
                "name": "Lifuka",
                "article": "https://en.wikipedia.org/wiki/Lifuka"
            }
        },
        {
            "type": "Feature",
            "geometry": {
                "type": "Point",
                "coordinates": [
                    -175.066666666,
                    -19.75
                ]
            },
            "properties": {
                "name": "Tofua",
                "article": "https://en.wikipedia.org/wiki/Tofua"
            }
        },
        {
            "type": "Feature",
            "geometry": {
                "type": "Point",
                "coordinates": [
                    -175.066666666,
                    -19.75
                ]
            },
            "properties": {
                "name": "Tofua",
                "article": "https://en.wikipedia.org/wiki/Tofua"
            }
        },
        {
            "type": "Feature",
            "geometry": {
                "type": "Point",
                "coordinates": [
                    -174.325,
                    -18.024
                ]
            },
            "properties": {
                "name": "Fonualei",
                "article": "https://en.wikipedia.org/wiki/Fonualei"
            }
        },
        {
            "type": "Feature",
            "geometry": {
                "type": "Point",
                "coordinates": [
                    -175.42,
                    -20.32
                ]
            },
            "properties": {
                "name": "Fonuafoʻou",
                "article": "https://en.wikipedia.org/wiki/Fonuafo%CA%BBou"
            }
        },
        {
            "type": "Feature",
            "geometry": {
                "type": "Point",
                "coordinates": [
                    -175.016666666,
                    -19.666666666
                ]
            },
            "properties": {
                "name": "Kao",
                "article": "https://en.wikipedia.org/wiki/Kao_(island)"
            }
        },
        {
            "type": "Feature",
            "geometry": {
                "type": "Point",
                "coordinates": [
                    -175.016666666,
                    -19.666666666
                ]
            },
            "properties": {
                "name": "Kao",
                "article": "https://en.wikipedia.org/wiki/Kao_(island)"
            }
        },
        {
            "type": "Feature",
            "geometry": {
                "type": "Point",
                "coordinates": [
                    -174.8,
                    -20.25
                ]
            },
            "properties": {
                "name": "Nomuka",
                "article": "https://en.wikipedia.org/wiki/Nomuka"
            }
        },
        {
            "type": "Feature",
            "geometry": {
                "type": "Point",
                "coordinates": [
                    -174.800833333,
                    -20.245555555
                ]
            },
            "properties": {
                "name": "Nomuka",
                "article": "https://en.wikipedia.org/wiki/Nomuka"
            }
        },
        {
            "type": "Feature",
            "geometry": {
                "type": "Point",
                "coordinates": [
                    -173.67,
                    -15.62
                ]
            },
            "properties": {
                "name": "Curacoa volcano",
                "article": "https://en.wikipedia.org/wiki/Curacoa_volcano"
            }
        },
        {
            "type": "Feature",
            "geometry": {
                "type": "Point",
                "coordinates": [
                    -174.482222222,
                    -19.965833333
                ]
            },
            "properties": {
                "name": "Uonukuhahake",
                "article": "https://en.wikipedia.org/wiki/Uonukuhahake"
            }
        },
        {
            "type": "Feature",
            "geometry": {
                "type": "Point",
                "coordinates": [
                    -174.476388888,
                    -19.871111111
                ]
            },
            "properties": {
                "name": "Luangahu",
                "article": "https://en.wikipedia.org/wiki/Luangahu"
            }
        },
        {
            "type": "Feature",
            "geometry": {
                "type": "Point",
                "coordinates": [
                    -174.23,
                    -15.37
                ]
            },
            "properties": {
                "name": "Tafu-Maka",
                "article": null
            }
        },
        {
            "type": "Feature",
            "geometry": {
                "type": "Point",
                "coordinates": [
                    -174.74611111,
                    -19.95944444
                ]
            },
            "properties": {
                "name": "Matuku",
                "article": "https://en.wikipedia.org/wiki/Matuku_(Tonga)"
            }
        },
        {
            "type": "Feature",
            "geometry": {
                "type": "Point",
                "coordinates": [
                    -174.74551,
                    -19.95943
                ]
            },
            "properties": {
                "name": "Matuku",
                "article": "https://en.wikipedia.org/wiki/Matuku_(Tonga)"
            }
        },
        {
            "type": "Feature",
            "geometry": {
                "type": "Point",
                "coordinates": [
                    -174.1,
                    -18.75
                ]
            },
            "properties": {
                "name": "Ovaka",
                "article": "https://en.wikipedia.org/wiki/Ovaka"
            }
        },
        {
            "type": "Feature",
            "geometry": {
                "type": "Point",
                "coordinates": [
                    -174.102222222,
                    -18.744166666
                ]
            },
            "properties": {
                "name": "Ovaka",
                "article": "https://en.wikipedia.org/wiki/Ovaka"
            }
        },
        {
            "type": "Feature",
            "geometry": {
                "type": "Point",
                "coordinates": [
                    -174.72296,
                    -19.81128
                ]
            },
            "properties": {
                "name": "Fotuhaʻa",
                "article": "https://en.wikipedia.org/wiki/Fotuha%CA%BBa"
            }
        },
        {
            "type": "Feature",
            "geometry": {
                "type": "Point",
                "coordinates": [
                    -174.719,
                    -19.812
                ]
            },
            "properties": {
                "name": "Fotuhaʻa",
                "article": "https://en.wikipedia.org/wiki/Fotuha%CA%BBa"
            }
        },
        {
            "type": "Feature",
            "geometry": {
                "type": "Point",
                "coordinates": [
                    -174.404444444,
                    -19.848888888
                ]
            },
            "properties": {
                "name": "Uoleva",
                "article": "https://en.wikipedia.org/wiki/Uoleva"
            }
        },
        {
            "type": "Feature",
            "geometry": {
                "type": "Point",
                "coordinates": [
                    -174.764,
                    -20.016
                ]
            },
            "properties": {
                "name": "Tungua",
                "article": "https://en.wikipedia.org/wiki/Tungua"
            }
        },
        {
            "type": "Feature",
            "geometry": {
                "type": "Point",
                "coordinates": [
                    -174.709869694,
                    -19.951284194
                ]
            },
            "properties": {
                "name": "Haʻafeva",
                "article": "https://en.wikipedia.org/wiki/Ha%CA%BBafeva"
            }
        },
        {
            "type": "Feature",
            "geometry": {
                "type": "Point",
                "coordinates": [
                    -173.995968,
                    -18.6851405
                ]
            },
            "properties": {
                "name": "Pangaimotu",
                "article": "https://en.wikipedia.org/wiki/Pangaimotu_(Vava%CA%BBu)"
            }
        },
        {
            "type": "Feature",
            "geometry": {
                "type": "Point",
                "coordinates": [
                    -174.68133,
                    -20.03835
                ]
            },
            "properties": {
                "name": "ʻOʻua",
                "article": "https://en.wikipedia.org/wiki/%CA%BBO%CA%BBua"
            }
        },
        {
            "type": "Feature",
            "geometry": {
                "type": "Point",
                "coordinates": [
                    -174.679,
                    -20.038
                ]
            },
            "properties": {
                "name": "ʻOʻua",
                "article": "https://en.wikipedia.org/wiki/%CA%BBO%CA%BBua"
            }
        },
        {
            "type": "Feature",
            "geometry": {
                "type": "Point",
                "coordinates": [
                    -174.7,
                    -20.05
                ]
            },
            "properties": {
                "name": "Fakahiku",
                "article": "https://en.wikipedia.org/wiki/Fakahiku"
            }
        },
        {
            "type": "Feature",
            "geometry": {
                "type": "Point",
                "coordinates": [
                    -174.7044,
                    -20.0428
                ]
            },
            "properties": {
                "name": "Fakahiku",
                "article": "https://en.wikipedia.org/wiki/Fakahiku"
            }
        },
        {
            "type": "Feature",
            "geometry": {
                "type": "Point",
                "coordinates": [
                    -174.731,
                    -19.769
                ]
            },
            "properties": {
                "name": "Fatumanongi",
                "article": "https://en.wikipedia.org/wiki/Fatumanongi"
            }
        },
        {
            "type": "Feature",
            "geometry": {
                "type": "Point",
                "coordinates": [
                    -174.725833333,
                    -19.965277777
                ]
            },
            "properties": {
                "name": "Fetoa",
                "article": "https://en.wikipedia.org/wiki/Fetoa"
            }
        },
        {
            "type": "Feature",
            "geometry": {
                "type": "Point",
                "coordinates": [
                    -174.7021,
                    -20.1106
                ]
            },
            "properties": {
                "name": "Fonuaika",
                "article": "https://en.wikipedia.org/wiki/Fonuaika"
            }
        },
        {
            "type": "Feature",
            "geometry": {
                "type": "Point",
                "coordinates": [
                    -174.3,
                    -19.75
                ]
            },
            "properties": {
                "name": "Foua",
                "article": "https://en.wikipedia.org/wiki/Foua"
            }
        },
        {
            "type": "Feature",
            "geometry": {
                "type": "Point",
                "coordinates": [
                    -174.51986,
                    -19.84537
                ]
            },
            "properties": {
                "name": "Hakauata",
                "article": "https://en.wikipedia.org/wiki/Hakauata"
            }
        },
        {
            "type": "Feature",
            "geometry": {
                "type": "Point",
                "coordinates": [
                    -174.517,
                    -19.846
                ]
            },
            "properties": {
                "name": "Hakauata",
                "article": "https://en.wikipedia.org/wiki/Hakauata"
            }
        },
        {
            "type": "Feature",
            "geometry": {
                "type": "Point",
                "coordinates": [
                    -174.008888888,
                    -19.018333333
                ]
            },
            "properties": {
                "name": "Hakaufasi",
                "article": "https://en.wikipedia.org/wiki/Hakaufasi"
            }
        },
        {
            "type": "Feature",
            "geometry": {
                "type": "Point",
                "coordinates": [
                    -174.00945,
                    -19.01684
                ]
            },
            "properties": {
                "name": "Hakaufasi",
                "article": "https://en.wikipedia.org/wiki/Hakaufasi"
            }
        },
        {
            "type": "Feature",
            "geometry": {
                "type": "Point",
                "coordinates": [
                    -174.605,
                    -20.069
                ]
            },
            "properties": {
                "name": "Lekeleka",
                "article": "https://en.wikipedia.org/wiki/Lekeleka"
            }
        },
        {
            "type": "Feature",
            "geometry": {
                "type": "Point",
                "coordinates": [
                    -174.45833333,
                    -20.02083333
                ]
            },
            "properties": {
                "name": "Limu",
                "article": "https://en.wikipedia.org/wiki/Limu_(Ha%CA%BBapai)"
            }
        },
        {
            "type": "Feature",
            "geometry": {
                "type": "Point",
                "coordinates": [
                    -174.551666666,
                    -19.825833333
                ]
            },
            "properties": {
                "name": "Lofanga",
                "article": "https://en.wikipedia.org/wiki/Lofanga"
            }
        },
        {
            "type": "Feature",
            "geometry": {
                "type": "Point",
                "coordinates": [
                    -174.394166666,
                    -19.671388888
                ]
            },
            "properties": {
                "name": "Luahoko",
                "article": "https://en.wikipedia.org/wiki/Luahoko"
            }
        },
        {
            "type": "Feature",
            "geometry": {
                "type": "Point",
                "coordinates": [
                    -174.392222222,
                    -19.671944444
                ]
            },
            "properties": {
                "name": "Luahoko",
                "article": "https://en.wikipedia.org/wiki/Luahoko"
            }
        },
        {
            "type": "Feature",
            "geometry": {
                "type": "Point",
                "coordinates": [
                    -174.714,
                    -20.022
                ]
            },
            "properties": {
                "name": "Luanamo",
                "article": "https://en.wikipedia.org/wiki/Luanamo"
            }
        },
        {
            "type": "Feature",
            "geometry": {
                "type": "Point",
                "coordinates": [
                    -174.563611111,
                    -19.755833333
                ]
            },
            "properties": {
                "name": "Meama",
                "article": "https://en.wikipedia.org/wiki/Meama"
            }
        },
        {
            "type": "Feature",
            "geometry": {
                "type": "Point",
                "coordinates": [
                    -174.483333333,
                    -19.633333333
                ]
            },
            "properties": {
                "name": "Moʻungaʻone",
                "article": "https://en.wikipedia.org/wiki/Mo%CA%BBunga%CA%BBone"
            }
        },
        {
            "type": "Feature",
            "geometry": {
                "type": "Point",
                "coordinates": [
                    -174.62352,
                    -19.76832
                ]
            },
            "properties": {
                "name": "Niniva",
                "article": "https://en.wikipedia.org/wiki/Niniva"
            }
        },
        {
            "type": "Feature",
            "geometry": {
                "type": "Point",
                "coordinates": [
                    -174.623333333,
                    -19.768333333
                ]
            },
            "properties": {
                "name": "Niniva",
                "article": "https://en.wikipedia.org/wiki/Niniva"
            }
        },
        {
            "type": "Feature",
            "geometry": {
                "type": "Point",
                "coordinates": [
                    -174.731,
                    -20.052
                ]
            },
            "properties": {
                "name": "Nukulei",
                "article": "https://en.wikipedia.org/wiki/Nukulei"
            }
        },
        {
            "type": "Feature",
            "geometry": {
                "type": "Point",
                "coordinates": [
                    -174.73424,
                    -20.05071
                ]
            },
            "properties": {
                "name": "Nukulei",
                "article": "https://en.wikipedia.org/wiki/Nukulei"
            }
        },
        {
            "type": "Feature",
            "geometry": {
                "type": "Point",
                "coordinates": [
                    -174.53671,
                    -19.77943
                ]
            },
            "properties": {
                "name": "Nukupule",
                "article": "https://en.wikipedia.org/wiki/Nukupule"
            }
        },
        {
            "type": "Feature",
            "geometry": {
                "type": "Point",
                "coordinates": [
                    -174.536666666,
                    -19.779444444
                ]
            },
            "properties": {
                "name": "Nukupule",
                "article": "https://en.wikipedia.org/wiki/Nukupule"
            }
        },
        {
            "type": "Feature",
            "geometry": {
                "type": "Point",
                "coordinates": [
                    -174.45,
                    -19.6
                ]
            },
            "properties": {
                "name": "Ofolanga",
                "article": "https://en.wikipedia.org/wiki/Ofolanga"
            }
        },
        {
            "type": "Feature",
            "geometry": {
                "type": "Point",
                "coordinates": [
                    -174.453611111,
                    -19.599166666
                ]
            },
            "properties": {
                "name": "Ofolanga",
                "article": "https://en.wikipedia.org/wiki/Ofolanga"
            }
        },
        {
            "type": "Feature",
            "geometry": {
                "type": "Point",
                "coordinates": [
                    -174.08333333,
                    -18.75
                ]
            },
            "properties": {
                "name": "Ovalau",
                "article": "https://en.wikipedia.org/wiki/Avalau_(Tonga)"
            }
        },
        {
            "type": "Feature",
            "geometry": {
                "type": "Point",
                "coordinates": [
                    -174.75521,
                    -19.91112
                ]
            },
            "properties": {
                "name": "Putuputua",
                "article": "https://en.wikipedia.org/wiki/Putuputua"
            }
        },
        {
            "type": "Feature",
            "geometry": {
                "type": "Point",
                "coordinates": [
                    -174.754924,
                    -19.9113998
                ]
            },
            "properties": {
                "name": "Putuputua",
                "article": "https://en.wikipedia.org/wiki/Putuputua"
            }
        },
        {
            "type": "Feature",
            "geometry": {
                "type": "Point",
                "coordinates": [
                    -173.997,
                    -18.854
                ]
            },
            "properties": {
                "name": "Maninita",
                "article": null
            }
        },
        {
            "type": "Feature",
            "geometry": {
                "type": "Point",
                "coordinates": [
                    -174.0,
                    -18.85
                ]
            },
            "properties": {
                "name": "Maninita",
                "article": null
            }
        },
        {
            "type": "Feature",
            "geometry": {
                "type": "Point",
                "coordinates": [
                    -174.273,
                    -19.715
                ]
            },
            "properties": {
                "name": "Nukunamo",
                "article": "https://en.wikipedia.org/wiki/Nukunamo"
            }
        },
        {
            "type": "Feature",
            "geometry": {
                "type": "Point",
                "coordinates": [
                    -174.180555555,
                    -18.158333333
                ]
            },
            "properties": {
                "name": "Tokū",
                "article": "https://en.wikipedia.org/wiki/Tok%C5%AB,_Tonga"
            }
        },
        {
            "type": "Feature",
            "geometry": {
                "type": "Point",
                "coordinates": [
                    -174.123611111,
                    -18.765277777
                ]
            },
            "properties": {
                "name": "Totokamaka",
                "article": "https://en.wikipedia.org/wiki/Totokamaka"
            }
        },
        {
            "type": "Feature",
            "geometry": {
                "type": "Point",
                "coordinates": [
                    -174.78722222,
                    -19.99666667
                ]
            },
            "properties": {
                "name": "Kito",
                "article": "https://en.wikipedia.org/wiki/Kito_(Tonga)"
            }
        },
        {
            "type": "Feature",
            "geometry": {
                "type": "Point",
                "coordinates": [
                    -174.78673,
                    -19.99552
                ]
            },
            "properties": {
                "name": "Kito",
                "article": "https://en.wikipedia.org/wiki/Kito_(Tonga)"
            }
        },
        {
            "type": "Feature",
            "geometry": {
                "type": "Point",
                "coordinates": [
                    -174.716666666,
                    -20.05
                ]
            },
            "properties": {
                "name": "Pepea",
                "article": "https://en.wikipedia.org/wiki/Pepea"
            }
        },
        {
            "type": "Feature",
            "geometry": {
                "type": "Point",
                "coordinates": [
                    -174.705,
                    -20.045
                ]
            },
            "properties": {
                "name": "Pepea",
                "article": "https://en.wikipedia.org/wiki/Pepea"
            }
        },
        {
            "type": "Feature",
            "geometry": {
                "type": "Point",
                "coordinates": [
                    -174.788,
                    -20.102
                ]
            },
            "properties": {
                "name": "Tokulu",
                "article": "https://en.wikipedia.org/wiki/Tokulu"
            }
        },
        {
            "type": "Feature",
            "geometry": {
                "type": "Point",
                "coordinates": [
                    -175.201808,
                    -21.1343401
                ]
            },
            "properties": {
                "name": "Nukuʻalofa",
                "article": "https://en.wikipedia.org/wiki/Nuku%CA%BBalofa"
            }
        },
        {
            "type": "Feature",
            "geometry": {
                "type": "Point",
                "coordinates": [
                    -174.05,
                    -18.733333333
                ]
            },
            "properties": {
                "name": "Sisia",
                "article": "https://en.wikipedia.org/wiki/Sisia"
            }
        },
        {
            "type": "Feature",
            "geometry": {
                "type": "Point",
                "coordinates": [
                    -173.997802777,
                    -18.811222222
                ]
            },
            "properties": {
                "name": "Tahifehifa",
                "article": "https://en.wikipedia.org/wiki/Tahifehifa"
            }
        },
        {
            "type": "Feature",
            "geometry": {
                "type": "Point",
                "coordinates": [
                    -174.418,
                    -19.876
                ]
            },
            "properties": {
                "name": "Tatafa",
                "article": "https://en.wikipedia.org/wiki/Tatafa"
            }
        },
        {
            "type": "Feature",
            "geometry": {
                "type": "Point",
                "coordinates": [
                    -174.011,
                    -18.8478
                ]
            },
            "properties": {
                "name": "Taula",
                "article": "https://en.wikipedia.org/wiki/Taula_(Tonga)"
            }
        },
        {
            "type": "Feature",
            "geometry": {
                "type": "Point",
                "coordinates": [
                    -174.013,
                    -18.742
                ]
            },
            "properties": {
                "name": "Taunga",
                "article": "https://en.wikipedia.org/wiki/Taunga"
            }
        },
        {
            "type": "Feature",
            "geometry": {
                "type": "Point",
                "coordinates": [
                    -174.736,
                    -19.976
                ]
            },
            "properties": {
                "name": "Teaupa",
                "article": "https://en.wikipedia.org/wiki/Teaupa"
            }
        },
        {
            "type": "Feature",
            "geometry": {
                "type": "Point",
                "coordinates": [
                    -174.462,
                    -19.958
                ]
            },
            "properties": {
                "name": "Tofanga",
                "article": "https://en.wikipedia.org/wiki/Tofanga"
            }
        },
        {
            "type": "Feature",
            "geometry": {
                "type": "Point",
                "coordinates": [
                    -174.124166666,
                    -18.758333333
                ]
            },
            "properties": {
                "name": "Totokafonua",
                "article": "https://en.wikipedia.org/wiki/Totokafonua"
            }
        },
        {
            "type": "Feature",
            "geometry": {
                "type": "Point",
                "coordinates": [
                    -174.495,
                    -19.969
                ]
            },
            "properties": {
                "name": "Uonukuhihifo",
                "article": "https://en.wikipedia.org/wiki/Uonukuhihifo"
            }
        },
        {
            "type": "Feature",
            "geometry": {
                "type": "Point",
                "coordinates": [
                    -175.4,
                    -20.55
                ]
            },
            "properties": {
                "name": "Hunga Haʻapai",
                "article": null
            }
        },
        {
            "type": "Feature",
            "geometry": {
                "type": "Point",
                "coordinates": [
                    -175.4043,
                    -20.5469
                ]
            },
            "properties": {
                "name": "Hunga Haʻapai",
                "article": null
            }
        },
        {
            "type": "Feature",
            "geometry": {
                "type": "Point",
                "coordinates": [
                    -174.103,
                    -18.722
                ]
            },
            "properties": {
                "name": "Vakaʻeitu",
                "article": null
            }
        },
        {
            "type": "Feature",
            "geometry": {
                "type": "Point",
                "coordinates": [
                    -174.53443,
                    -20.30374
                ]
            },
            "properties": {
                "name": "Fetokopunga",
                "article": "https://en.wikipedia.org/wiki/Fetokopunga"
            }
        },
        {
            "type": "Feature",
            "geometry": {
                "type": "Point",
                "coordinates": [
                    -174.534,
                    -20.302
                ]
            },
            "properties": {
                "name": "Fetokopunga",
                "article": "https://en.wikipedia.org/wiki/Fetokopunga"
            }
        },
        {
            "type": "Feature",
            "geometry": {
                "type": "Point",
                "coordinates": [
                    -174.629,
                    -20.278
                ]
            },
            "properties": {
                "name": "Fonoifua",
                "article": null
            }
        },
        {
            "type": "Feature",
            "geometry": {
                "type": "Point",
                "coordinates": [
                    -174.735,
                    -20.502
                ]
            },
            "properties": {
                "name": "Kelefesia",
                "article": "https://en.wikipedia.org/wiki/Kelefesia"
            }
        },
        {
            "type": "Feature",
            "geometry": {
                "type": "Point",
                "coordinates": [
                    -174.52,
                    -20.346
                ]
            },
            "properties": {
                "name": "Lalona",
                "article": null
            }
        },
        {
            "type": "Feature",
            "geometry": {
                "type": "Point",
                "coordinates": [
                    -174.709,
                    -20.329
                ]
            },
            "properties": {
                "name": "Mango",
                "article": "https://en.wikipedia.org/wiki/Mango_(Tonga)"
            }
        },
        {
            "type": "Feature",
            "geometry": {
                "type": "Point",
                "coordinates": [
                    -174.804,
                    -20.282
                ]
            },
            "properties": {
                "name": "Nomuka iki",
                "article": null
            }
        },
        {
            "type": "Feature",
            "geometry": {
                "type": "Point",
                "coordinates": [
                    -174.76,
                    -20.475
                ]
            },
            "properties": {
                "name": "Nuku",
                "article": null
            }
        },
        {
            "type": "Feature",
            "geometry": {
                "type": "Point",
                "coordinates": [
                    -174.69498,
                    -20.29541
                ]
            },
            "properties": {
                "name": "Nukufaiau",
                "article": "https://en.wikipedia.org/wiki/Nukufaiau"
            }
        },
        {
            "type": "Feature",
            "geometry": {
                "type": "Point",
                "coordinates": [
                    -174.694,
                    -20.294
                ]
            },
            "properties": {
                "name": "Nukufaiau",
                "article": "https://en.wikipedia.org/wiki/Nukufaiau"
            }
        },
        {
            "type": "Feature",
            "geometry": {
                "type": "Point",
                "coordinates": [
                    -174.173,
                    -18.787
                ]
            },
            "properties": {
                "name": "Fatumanga",
                "article": null
            }
        },
        {
            "type": "Feature",
            "geometry": {
                "type": "Point",
                "coordinates": [
                    -173.962,
                    -18.786
                ]
            },
            "properties": {
                "name": "Fonuafoʻou",
                "article": null
            }
        },
        {
            "type": "Feature",
            "geometry": {
                "type": "Point",
                "coordinates": [
                    -173.956,
                    -18.758
                ]
            },
            "properties": {
                "name": "Fonuaʻunga",
                "article": null
            }
        },
        {
            "type": "Feature",
            "geometry": {
                "type": "Point",
                "coordinates": [
                    -174.065,
                    -18.815
                ]
            },
            "properties": {
                "name": "Fonuaʻoneʻone",
                "article": null
            }
        },
        {
            "type": "Feature",
            "geometry": {
                "type": "Point",
                "coordinates": [
                    -174.008,
                    -18.791
                ]
            },
            "properties": {
                "name": "Fuaʻamotu",
                "article": null
            }
        },
        {
            "type": "Feature",
            "geometry": {
                "type": "Point",
                "coordinates": [
                    -174.122,
                    -18.678
                ]
            },
            "properties": {
                "name": "Hunga",
                "article": null
            }
        },
        {
            "type": "Feature",
            "geometry": {
                "type": "Point",
                "coordinates": [
                    -174.028055555,
                    -18.708055555
                ]
            },
            "properties": {
                "name": "Kapa",
                "article": null
            }
        },
        {
            "type": "Feature",
            "geometry": {
                "type": "Point",
                "coordinates": [
                    -174.03,
                    -18.705
                ]
            },
            "properties": {
                "name": "Kapa",
                "article": null
            }
        },
        {
            "type": "Feature",
            "geometry": {
                "type": "Point",
                "coordinates": [
                    -174.0409,
                    -18.73869
                ]
            },
            "properties": {
                "name": "Katofanga",
                "article": null
            }
        },
        {
            "type": "Feature",
            "geometry": {
                "type": "Point",
                "coordinates": [
                    -173.927,
                    -18.694
                ]
            },
            "properties": {
                "name": "Kenutu",
                "article": "https://en.wikipedia.org/wiki/Kenutu"
            }
        },
        {
            "type": "Feature",
            "geometry": {
                "type": "Point",
                "coordinates": [
                    -174.084,
                    -18.717
                ]
            },
            "properties": {
                "name": "Lape",
                "article": null
            }
        },
        {
            "type": "Feature",
            "geometry": {
                "type": "Point",
                "coordinates": [
                    -174.0,
                    -18.755
                ]
            },
            "properties": {
                "name": "Lekeleka",
                "article": null
            }
        },
        {
            "type": "Feature",
            "geometry": {
                "type": "Point",
                "coordinates": [
                    -174.0,
                    -18.75
                ]
            },
            "properties": {
                "name": "Lekeleka",
                "article": null
            }
        },
        {
            "type": "Feature",
            "geometry": {
                "type": "Point",
                "coordinates": [
                    -174.042,
                    -18.796
                ]
            },
            "properties": {
                "name": "Luahiapo",
                "article": null
            }
        },
        {
            "type": "Feature",
            "geometry": {
                "type": "Point",
                "coordinates": [
                    -174.013,
                    -18.835
                ]
            },
            "properties": {
                "name": "Lualoli",
                "article": null
            }
        },
        {
            "type": "Feature",
            "geometry": {
                "type": "Point",
                "coordinates": [
                    -173.976,
                    -18.821
                ]
            },
            "properties": {
                "name": "Luatafito",
                "article": null
            }
        },
        {
            "type": "Feature",
            "geometry": {
                "type": "Point",
                "coordinates": [
                    -174.026,
                    -18.812
                ]
            },
            "properties": {
                "name": "Luaʻafuleheu",
                "article": null
            }
        },
        {
            "type": "Feature",
            "geometry": {
                "type": "Point",
                "coordinates": [
                    -174.048,
                    -18.838
                ]
            },
            "properties": {
                "name": "Luaʻatofuaʻa",
                "article": null
            }
        },
        {
            "type": "Feature",
            "geometry": {
                "type": "Point",
                "coordinates": [
                    -174.054,
                    -18.776
                ]
            },
            "properties": {
                "name": "Luaʻui",
                "article": null
            }
        },
        {
            "type": "Feature",
            "geometry": {
                "type": "Point",
                "coordinates": [
                    -173.955,
                    -18.681
                ]
            },
            "properties": {
                "name": "Mafana",
                "article": null
            }
        },
        {
            "type": "Feature",
            "geometry": {
                "type": "Point",
                "coordinates": [
                    -174.06796,
                    -18.75118
                ]
            },
            "properties": {
                "name": "Moʻunu",
                "article": null
            }
        },
        {
            "type": "Feature",
            "geometry": {
                "type": "Point",
                "coordinates": [
                    -174.07,
                    -18.748
                ]
            },
            "properties": {
                "name": "Moʻunu",
                "article": null
            }
        },
        {
            "type": "Feature",
            "geometry": {
                "type": "Point",
                "coordinates": [
                    -174.11047,
                    -18.79338
                ]
            },
            "properties": {
                "name": "Muʻomuʻa",
                "article": null
            }
        },
        {
            "type": "Feature",
            "geometry": {
                "type": "Point",
                "coordinates": [
                    -174.112,
                    -18.79
                ]
            },
            "properties": {
                "name": "Muʻomuʻa",
                "article": null
            }
        },
        {
            "type": "Feature",
            "geometry": {
                "type": "Point",
                "coordinates": [
                    -174.07931,
                    -18.70885
                ]
            },
            "properties": {
                "name": "Alinonga",
                "article": null
            }
        },
        {
            "type": "Feature",
            "geometry": {
                "type": "Point",
                "coordinates": [
                    -174.00923,
                    -18.66125
                ]
            },
            "properties": {
                "name": "Lotuma",
                "article": null
            }
        },
        {
            "type": "Feature",
            "geometry": {
                "type": "Point",
                "coordinates": [
                    -174.00018,
                    -18.74519
                ]
            },
            "properties": {
                "name": "Taʻuta",
                "article": null
            }
        },
        {
            "type": "Feature",
            "geometry": {
                "type": "Point",
                "coordinates": [
                    -174.00876,
                    -18.75665
                ]
            },
            "properties": {
                "name": "Ngau",
                "article": null
            }
        },
        {
            "type": "Feature",
            "geometry": {
                "type": "Point",
                "coordinates": [
                    -174.05496,
                    -18.71885
                ]
            },
            "properties": {
                "name": "Luaʻofa",
                "article": null
            }
        },
        {
            "type": "Feature",
            "geometry": {
                "type": "Point",
                "coordinates": [
                    -174.09807,
                    -18.71731
                ]
            },
            "properties": {
                "name": "Kulo",
                "article": null
            }
        },
        {
            "type": "Feature",
            "geometry": {
                "type": "Point",
                "coordinates": [
                    -173.93362,
                    -18.61186
                ]
            },
            "properties": {
                "name": "Pousini",
                "article": null
            }
        },
        {
            "type": "Feature",
            "geometry": {
                "type": "Point",
                "coordinates": [
                    -173.98787,
                    -18.71935
                ]
            },
            "properties": {
                "name": "Tuʻanukulau",
                "article": null
            }
        },
        {
            "type": "Feature",
            "geometry": {
                "type": "Point",
                "coordinates": [
                    -173.91904,
                    -18.63873
                ]
            },
            "properties": {
                "name": "Uatoloa",
                "article": null
            }
        },
        {
            "type": "Feature",
            "geometry": {
                "type": "Point",
                "coordinates": [
                    -173.94425,
                    -18.64206
                ]
            },
            "properties": {
                "name": "Tulie",
                "article": null
            }
        },
        {
            "type": "Feature",
            "geometry": {
                "type": "Point",
                "coordinates": [
                    -173.95226,
                    -18.65952
                ]
            },
            "properties": {
                "name": "Tueʻia",
                "article": null
            }
        },
        {
            "type": "Feature",
            "geometry": {
                "type": "Point",
                "coordinates": [
                    -174.09884,
                    -18.7145
                ]
            },
            "properties": {
                "name": "Tangatasito",
                "article": null
            }
        },
        {
            "type": "Feature",
            "geometry": {
                "type": "Point",
                "coordinates": [
                    -175.23502,
                    -21.17178
                ]
            },
            "properties": {
                "name": "Pea",
                "article": null
            }
        },
        {
            "type": "Feature",
            "geometry": {
                "type": "Point",
                "coordinates": [
                    -175.211389,
                    -21.186389
                ]
            },
            "properties": {
                "name": "Veitongo",
                "article": null
            }
        },
        {
            "type": "Feature",
            "geometry": {
                "type": "Point",
                "coordinates": [
                    -174.78722222,
                    -19.99666667
                ]
            },
            "properties": {
                "name": "Kito",
                "article": "https://en.wikipedia.org/wiki/Kito_(Tonga)"
            }
        },
        {
            "type": "Feature",
            "geometry": {
                "type": "Point",
                "coordinates": [
                    -174.78673,
                    -19.99552
                ]
            },
            "properties": {
                "name": "Kito",
                "article": "https://en.wikipedia.org/wiki/Kito_(Tonga)"
            }
        },
        {
            "type": "Feature",
            "geometry": {
                "type": "Point",
                "coordinates": [
                    -174.716666666,
                    -20.05
                ]
            },
            "properties": {
                "name": "Pepea",
                "article": "https://en.wikipedia.org/wiki/Pepea"
            }
        },
        {
            "type": "Feature",
            "geometry": {
                "type": "Point",
                "coordinates": [
                    -174.705,
                    -20.045
                ]
            },
            "properties": {
                "name": "Pepea",
                "article": "https://en.wikipedia.org/wiki/Pepea"
            }
        },
        {
            "type": "Feature",
            "geometry": {
                "type": "Point",
                "coordinates": [
                    -174.788,
                    -20.102
                ]
            },
            "properties": {
                "name": "Tokulu",
                "article": "https://en.wikipedia.org/wiki/Tokulu"
            }
        },
        {
            "type": "Feature",
            "geometry": {
                "type": "Point",
                "coordinates": [
                    -175.4,
                    -20.55
                ]
            },
            "properties": {
                "name": "Hunga Haʻapai",
                "article": null
            }
        },
        {
            "type": "Feature",
            "geometry": {
                "type": "Point",
                "coordinates": [
                    -175.4043,
                    -20.5469
                ]
            },
            "properties": {
                "name": "Hunga Haʻapai",
                "article": null
            }
        },
        {
            "type": "Feature",
            "geometry": {
                "type": "Point",
                "coordinates": [
                    -174.103,
                    -18.722
                ]
            },
            "properties": {
                "name": "Vakaʻeitu",
                "article": null
            }
        },
        {
            "type": "Feature",
            "geometry": {
                "type": "Point",
                "coordinates": [
                    -174.53443,
                    -20.30374
                ]
            },
            "properties": {
                "name": "Fetokopunga",
                "article": "https://en.wikipedia.org/wiki/Fetokopunga"
            }
        },
        {
            "type": "Feature",
            "geometry": {
                "type": "Point",
                "coordinates": [
                    -174.534,
                    -20.302
                ]
            },
            "properties": {
                "name": "Fetokopunga",
                "article": "https://en.wikipedia.org/wiki/Fetokopunga"
            }
        },
        {
            "type": "Feature",
            "geometry": {
                "type": "Point",
                "coordinates": [
                    -174.077,
                    -18.692
                ]
            },
            "properties": {
                "name": "Nuapapu",
                "article": null
            }
        },
        {
            "type": "Feature",
            "geometry": {
                "type": "Point",
                "coordinates": [
                    -173.961111111,
                    -18.701388888
                ]
            },
            "properties": {
                "name": "Ofu",
                "article": null
            }
        },
        {
            "type": "Feature",
            "geometry": {
                "type": "Point",
                "coordinates": [
                    -173.961,
                    -18.698
                ]
            },
            "properties": {
                "name": "Ofu",
                "article": null
            }
        },
        {
            "type": "Feature",
            "geometry": {
                "type": "Point",
                "coordinates": [
                    -174.071,
                    -18.657
                ]
            },
            "properties": {
                "name": "Tuʻungasika",
                "article": null
            }
        },
        {
            "type": "Feature",
            "geometry": {
                "type": "Point",
                "coordinates": [
                    -174.01902,
                    -18.76685
                ]
            },
            "properties": {
                "name": "ʻEuaiki",
                "article": null
            }
        },
        {
            "type": "Feature",
            "geometry": {
                "type": "Point",
                "coordinates": [
                    -174.021,
                    -18.764
                ]
            },
            "properties": {
                "name": "ʻEuaiki",
                "article": null
            }
        },
        {
            "type": "Feature",
            "geometry": {
                "type": "Point",
                "coordinates": [
                    -174.03603,
                    -18.7588
                ]
            },
            "properties": {
                "name": "ʻEuakafa",
                "article": null
            }
        },
        {
            "type": "Feature",
            "geometry": {
                "type": "Point",
                "coordinates": [
                    -174.037,
                    -18.756
                ]
            },
            "properties": {
                "name": "ʻEuakafa",
                "article": null
            }
        },
        {
            "type": "Feature",
            "geometry": {
                "type": "Point",
                "coordinates": [
                    -173.957,
                    -18.67402
                ]
            },
            "properties": {
                "name": "ʻOloʻua",
                "article": null
            }
        },
        {
            "type": "Feature",
            "geometry": {
                "type": "Point",
                "coordinates": [
                    -174.058,
                    -18.699
                ]
            },
            "properties": {
                "name": "ʻOto",
                "article": null
            }
        },
        {
            "type": "Feature",
            "geometry": {
                "type": "Point",
                "coordinates": [
                    -173.92237,
                    -18.68353
                ]
            },
            "properties": {
                "name": "ʻUmuna",
                "article": null
            }
        },
        {
            "type": "Feature",
            "geometry": {
                "type": "Point",
                "coordinates": [
                    -173.924,
                    -18.68
                ]
            },
            "properties": {
                "name": "ʻUmuna",
                "article": null
            }
        },
        {
            "type": "Feature",
            "geometry": {
                "type": "Point",
                "coordinates": [
                    -174.024444444,
                    -18.677777777
                ]
            },
            "properties": {
                "name": "ʻUtungake",
                "article": null
            }
        },
        {
            "type": "Feature",
            "geometry": {
                "type": "Point",
                "coordinates": [
                    -174.025,
                    -18.673
                ]
            },
            "properties": {
                "name": "ʻUtungake",
                "article": null
            }
        },
        {
            "type": "Feature",
            "geometry": {
                "type": "Point",
                "coordinates": [
                    -175.15893,
                    -21.12414
                ]
            },
            "properties": {
                "name": "Pangaimotu",
                "article": "https://en.wikipedia.org/wiki/Pangaimotu_(Tongatapu)"
            }
        },
        {
            "type": "Feature",
            "geometry": {
                "type": "Point",
                "coordinates": [
                    -175.158,
                    -21.125
                ]
            },
            "properties": {
                "name": "Pangaimotu",
                "article": "https://en.wikipedia.org/wiki/Pangaimotu_(Tongatapu)"
            }
        },
        {
            "type": "Feature",
            "geometry": {
                "type": "Point",
                "coordinates": [
                    -175.1543,
                    -21.11473
                ]
            },
            "properties": {
                "name": "Makahaʻa",
                "article": null
            }
        },
        {
            "type": "Feature",
            "geometry": {
                "type": "Point",
                "coordinates": [
                    -175.14846,
                    -21.12494
                ]
            },
            "properties": {
                "name": "Manima",
                "article": null
            }
        },
        {
            "type": "Feature",
            "geometry": {
                "type": "Point",
                "coordinates": [
                    -175.14023,
                    -21.10478
                ]
            },
            "properties": {
                "name": "Monūafe",
                "article": "https://en.wikipedia.org/wiki/Monuafe_island"
            }
        },
        {
            "type": "Feature",
            "geometry": {
                "type": "Point",
                "coordinates": [
                    -175.139,
                    -21.104
                ]
            },
            "properties": {
                "name": "Monūafe",
                "article": "https://en.wikipedia.org/wiki/Monuafe_island"
            }
        },
        {
            "type": "Feature",
            "geometry": {
                "type": "Point",
                "coordinates": [
                    -175.05712,
                    -21.09175
                ]
            },
            "properties": {
                "name": "Motutapu",
                "article": null
            }
        },
        {
            "type": "Feature",
            "geometry": {
                "type": "Point",
                "coordinates": [
                    -175.29429,
                    -21.06361
                ]
            },
            "properties": {
                "name": "Toketoke",
                "article": null
            }
        },
        {
            "type": "Feature",
            "geometry": {
                "type": "Point",
                "coordinates": [
                    -175.15863,
                    -21.08734
                ]
            },
            "properties": {
                "name": "Fafā",
                "article": null
            }
        },
        {
            "type": "Feature",
            "geometry": {
                "type": "Point",
                "coordinates": [
                    -175.25359,
                    -21.04766
                ]
            },
            "properties": {
                "name": "ʻAtatā",
                "article": "https://en.wikipedia.org/wiki/%CA%BBAtat%C4%81"
            }
        },
        {
            "type": "Feature",
            "geometry": {
                "type": "Point",
                "coordinates": [
                    -175.24333,
                    -21.09065
                ]
            },
            "properties": {
                "name": "Poloʻa",
                "article": null
            }
        },
        {
            "type": "Feature",
            "geometry": {
                "type": "Point",
                "coordinates": [
                    -175.243611111,
                    -21.087777777
                ]
            },
            "properties": {
                "name": "ʻAlakipeau",
                "article": null
            }
        },
        {
            "type": "Feature",
            "geometry": {
                "type": "Point",
                "coordinates": [
                    -175.24354,
                    -21.08777
                ]
            },
            "properties": {
                "name": "ʻAlakipeau",
                "article": null
            }
        },
        {
            "type": "Feature",
            "geometry": {
                "type": "Point",
                "coordinates": [
                    -175.25383,
                    -21.06699
                ]
            },
            "properties": {
                "name": "Tufaka",
                "article": null
            }
        },
        {
            "type": "Feature",
            "geometry": {
                "type": "Point",
                "coordinates": [
                    -175.12894,
                    -21.03704
                ]
            },
            "properties": {
                "name": "Malinoa",
                "article": null
            }
        },
        {
            "type": "Feature",
            "geometry": {
                "type": "Point",
                "coordinates": [
                    -175.14593,
                    -21.12846
                ]
            },
            "properties": {
                "name": "Oneata",
                "article": null
            }
        },
        {
            "type": "Feature",
            "geometry": {
                "type": "Point",
                "coordinates": [
                    -175.12635,
                    -21.17006
                ]
            },
            "properties": {
                "name": "Moʻunu",
                "article": null
            }
        },
        {
            "type": "Feature",
            "geometry": {
                "type": "Point",
                "coordinates": [
                    -175.1267,
                    -21.16928
                ]
            },
            "properties": {
                "name": "Moʻunu",
                "article": null
            }
        },
        {
            "type": "Feature",
            "geometry": {
                "type": "Point",
                "coordinates": [
                    -175.140277777,
                    -21.181666666
                ]
            },
            "properties": {
                "name": "Moʻungatapu",
                "article": null
            }
        },
        {
            "type": "Feature",
            "geometry": {
                "type": "Point",
                "coordinates": [
                    -175.1404,
                    -21.18158
                ]
            },
            "properties": {
                "name": "Moʻungatapu",
                "article": null
            }
        },
        {
            "type": "Feature",
            "geometry": {
                "type": "Point",
                "coordinates": [
                    -175.15528,
                    -21.15953
                ]
            },
            "properties": {
                "name": "Talakite",
                "article": null
            }
        },
        {
            "type": "Feature",
            "geometry": {
                "type": "Point",
                "coordinates": [
                    -175.15451,
                    -21.1624
                ]
            },
            "properties": {
                "name": "Mataʻaho",
                "article": null
            }
        },
        {
            "type": "Feature",
            "geometry": {
                "type": "Point",
                "coordinates": [
                    -175.16329,
                    -21.18942
                ]
            },
            "properties": {
                "name": "Ngofonua",
                "article": null
            }
        },
        {
            "type": "Feature",
            "geometry": {
                "type": "Point",
                "coordinates": [
                    -175.20915,
                    -21.1654
                ]
            },
            "properties": {
                "name": "Kanatea",
                "article": null
            }
        },
        {
            "type": "Feature",
            "geometry": {
                "type": "Point",
                "coordinates": [
                    -175.14511,
                    -21.14458
                ]
            },
            "properties": {
                "name": "Nukunukumotu",
                "article": null
            }
        },
        {
            "type": "Feature",
            "geometry": {
                "type": "Point",
                "coordinates": [
                    -175.145,
                    -21.144444444
                ]
            },
            "properties": {
                "name": "Nukunukumotu",
                "article": null
            }
        },
        {
            "type": "Feature",
            "geometry": {
                "type": "Point",
                "coordinates": [
                    -175.00525,
                    -21.02138
                ]
            },
            "properties": {
                "name": "Tau, Tongatapu",
                "article": null
            }
        },
        {
            "type": "Feature",
            "geometry": {
                "type": "Point",
                "coordinates": [
                    -175.09868,
                    -21.09167
                ]
            },
            "properties": {
                "name": "ʻOnevao",
                "article": null
            }
        },
        {
            "type": "Feature",
            "geometry": {
                "type": "Point",
                "coordinates": [
                    -175.11473,
                    -21.0865
                ]
            },
            "properties": {
                "name": "ʻOnevai",
                "article": null
            }
        },
        {
            "type": "Feature",
            "geometry": {
                "type": "Point",
                "coordinates": [
                    -175.00216,
                    -21.05639
                ]
            },
            "properties": {
                "name": "ʻAtā",
                "article": "https://en.wikipedia.org/wiki/%CA%BBAt%C4%81"
            }
        },
        {
            "type": "Feature",
            "geometry": {
                "type": "Point",
                "coordinates": [
                    -175.0023,
                    -21.0561
                ]
            },
            "properties": {
                "name": "ʻAtā",
                "article": "https://en.wikipedia.org/wiki/%CA%BBAt%C4%81"
            }
        },
        {
            "type": "Feature",
            "geometry": {
                "type": "Point",
                "coordinates": [
                    -174.98333,
                    -21.11667
                ]
            },
            "properties": {
                "name": "ʻEueiki",
                "article": null
            }
        },
        {
            "type": "Feature",
            "geometry": {
                "type": "Point",
                "coordinates": [
                    -175.02251,
                    -21.08774
                ]
            },
            "properties": {
                "name": "Nuku",
                "article": null
            }
        },
        {
            "type": "Feature",
            "geometry": {
                "type": "Point",
                "coordinates": [
                    -175.03082,
                    -21.09287
                ]
            },
            "properties": {
                "name": "Fukave",
                "article": "https://en.wikipedia.org/wiki/Fukave"
            }
        },
        {
            "type": "Feature",
            "geometry": {
                "type": "Point",
                "coordinates": [
                    -175.13394,
                    -21.08483
                ]
            },
            "properties": {
                "name": "Velitoa Hahake",
                "article": null
            }
        },
        {
            "type": "Feature",
            "geometry": {
                "type": "Point",
                "coordinates": [
                    -175.1382,
                    -21.08336
                ]
            },
            "properties": {
                "name": "Velitoa Hihifo",
                "article": null
            }
        },
        {
            "type": "Feature",
            "geometry": {
                "type": "Point",
                "coordinates": [
                    -174.81767,
                    -20.26884
                ]
            },
            "properties": {
                "name": "Muifuiva",
                "article": "https://en.wikipedia.org/wiki/Muifuiva"
            }
        },
        {
            "type": "Feature",
            "geometry": {
                "type": "Point",
                "coordinates": [
                    -174.63369,
                    -20.29478
                ]
            },
            "properties": {
                "name": "Tanoa",
                "article": null
            }
        },
        {
            "type": "Feature",
            "geometry": {
                "type": "Point",
                "coordinates": [
                    -174.0,
                    -18.75
                ]
            },
            "properties": {
                "name": "Lekeleka",
                "article": null
            }
        },
        {
            "type": "Feature",
            "geometry": {
                "type": "Point",
                "coordinates": [
                    -174.042,
                    -18.796
                ]
            },
            "properties": {
                "name": "Luahiapo",
                "article": null
            }
        },
        {
            "type": "Feature",
            "geometry": {
                "type": "Point",
                "coordinates": [
                    -174.013,
                    -18.835
                ]
            },
            "properties": {
                "name": "Lualoli",
                "article": null
            }
        },
        {
            "type": "Feature",
            "geometry": {
                "type": "Point",
                "coordinates": [
                    -173.976,
                    -18.821
                ]
            },
            "properties": {
                "name": "Luatafito",
                "article": null
            }
        },
        {
            "type": "Feature",
            "geometry": {
                "type": "Point",
                "coordinates": [
                    -174.026,
                    -18.812
                ]
            },
            "properties": {
                "name": "Luaʻafuleheu",
                "article": null
            }
        },
        {
            "type": "Feature",
            "geometry": {
                "type": "Point",
                "coordinates": [
                    -174.048,
                    -18.838
                ]
            },
            "properties": {
                "name": "Luaʻatofuaʻa",
                "article": null
            }
        },
        {
            "type": "Feature",
            "geometry": {
                "type": "Point",
                "coordinates": [
                    -174.054,
                    -18.776
                ]
            },
            "properties": {
                "name": "Luaʻui",
                "article": null
            }
        },
        {
            "type": "Feature",
            "geometry": {
                "type": "Point",
                "coordinates": [
                    -173.955,
                    -18.681
                ]
            },
            "properties": {
                "name": "Mafana",
                "article": null
            }
        },
        {
            "type": "Feature",
            "geometry": {
                "type": "Point",
                "coordinates": [
                    -174.06796,
                    -18.75118
                ]
            },
            "properties": {
                "name": "Moʻunu",
                "article": null
            }
        },
        {
            "type": "Feature",
            "geometry": {
                "type": "Point",
                "coordinates": [
                    -174.07,
                    -18.748
                ]
            },
            "properties": {
                "name": "Moʻunu",
                "article": null
            }
        },
        {
            "type": "Feature",
            "geometry": {
                "type": "Point",
                "coordinates": [
                    -174.11047,
                    -18.79338
                ]
            },
            "properties": {
                "name": "Muʻomuʻa",
                "article": null
            }
        },
        {
            "type": "Feature",
            "geometry": {
                "type": "Point",
                "coordinates": [
                    -174.112,
                    -18.79
                ]
            },
            "properties": {
                "name": "Muʻomuʻa",
                "article": null
            }
        },
        {
            "type": "Feature",
            "geometry": {
                "type": "Point",
                "coordinates": [
                    -174.077,
                    -18.692
                ]
            },
            "properties": {
                "name": "Nuapapu",
                "article": null
            }
        },
        {
            "type": "Feature",
            "geometry": {
                "type": "Point",
                "coordinates": [
                    -173.961111111,
                    -18.701388888
                ]
            },
            "properties": {
                "name": "Ofu",
                "article": null
            }
        },
        {
            "type": "Feature",
            "geometry": {
                "type": "Point",
                "coordinates": [
                    -173.961,
                    -18.698
                ]
            },
            "properties": {
                "name": "Ofu",
                "article": null
            }
        },
        {
            "type": "Feature",
            "geometry": {
                "type": "Point",
                "coordinates": [
                    -174.071,
                    -18.657
                ]
            },
            "properties": {
                "name": "Tuʻungasika",
                "article": null
            }
        },
        {
            "type": "Feature",
            "geometry": {
                "type": "Point",
                "coordinates": [
                    -174.01902,
                    -18.76685
                ]
            },
            "properties": {
                "name": "ʻEuaiki",
                "article": null
            }
        },
        {
            "type": "Feature",
            "geometry": {
                "type": "Point",
                "coordinates": [
                    -174.021,
                    -18.764
                ]
            },
            "properties": {
                "name": "ʻEuaiki",
                "article": null
            }
        },
        {
            "type": "Feature",
            "geometry": {
                "type": "Point",
                "coordinates": [
                    -174.03603,
                    -18.7588
                ]
            },
            "properties": {
                "name": "ʻEuakafa",
                "article": null
            }
        },
        {
            "type": "Feature",
            "geometry": {
                "type": "Point",
                "coordinates": [
                    -174.037,
                    -18.756
                ]
            },
            "properties": {
                "name": "ʻEuakafa",
                "article": null
            }
        },
        {
            "type": "Feature",
            "geometry": {
                "type": "Point",
                "coordinates": [
                    -173.957,
                    -18.67402
                ]
            },
            "properties": {
                "name": "ʻOloʻua",
                "article": null
            }
        },
        {
            "type": "Feature",
            "geometry": {
                "type": "Point",
                "coordinates": [
                    -174.058,
                    -18.699
                ]
            },
            "properties": {
                "name": "ʻOto",
                "article": null
            }
        },
        {
            "type": "Feature",
            "geometry": {
                "type": "Point",
                "coordinates": [
                    -173.92237,
                    -18.68353
                ]
            },
            "properties": {
                "name": "ʻUmuna",
                "article": null
            }
        },
        {
            "type": "Feature",
            "geometry": {
                "type": "Point",
                "coordinates": [
                    -173.924,
                    -18.68
                ]
            },
            "properties": {
                "name": "ʻUmuna",
                "article": null
            }
        },
        {
            "type": "Feature",
            "geometry": {
                "type": "Point",
                "coordinates": [
                    -174.024444444,
                    -18.677777777
                ]
            },
            "properties": {
                "name": "ʻUtungake",
                "article": null
            }
        },
        {
            "type": "Feature",
            "geometry": {
                "type": "Point",
                "coordinates": [
                    -174.025,
                    -18.673
                ]
            },
            "properties": {
                "name": "ʻUtungake",
                "article": null
            }
        },
        {
            "type": "Feature",
            "geometry": {
                "type": "Point",
                "coordinates": [
                    -175.15893,
                    -21.12414
                ]
            },
            "properties": {
                "name": "Pangaimotu",
                "article": "https://en.wikipedia.org/wiki/Pangaimotu_(Tongatapu)"
            }
        },
        {
            "type": "Feature",
            "geometry": {
                "type": "Point",
                "coordinates": [
                    -175.158,
                    -21.125
                ]
            },
            "properties": {
                "name": "Pangaimotu",
                "article": "https://en.wikipedia.org/wiki/Pangaimotu_(Tongatapu)"
            }
        },
        {
            "type": "Feature",
            "geometry": {
                "type": "Point",
                "coordinates": [
                    -174.002777777,
                    -15.378888888
                ]
            },
            "properties": {
                "name": "Niuatahi",
                "article": "https://en.wikipedia.org/wiki/Niuatahi"
            }
        },
        {
            "type": "Feature",
            "geometry": {
                "type": "Point",
                "coordinates": [
                    -175.166666666,
                    -21.166666666
                ]
            },
            "properties": {
                "name": "Tongatapu",
                "article": null
            }
        },
        {
            "type": "Feature",
            "geometry": {
                "type": "Point",
                "coordinates": [
                    -174.7,
                    -19.933333333
                ]
            },
            "properties": {
                "name": "Fono i Mukka",
                "article": null
            }
        },
        {
            "type": "Feature",
            "geometry": {
                "type": "Point",
                "coordinates": [
                    -174.62884,
                    -20.27838
                ]
            },
            "properties": {
                "name": "Fonoifua",
                "article": "https://en.wikipedia.org/wiki/Fonoifua"
            }
        },
        {
            "type": "Feature",
            "geometry": {
                "type": "Point",
                "coordinates": [
                    -174.75,
                    -20.0
                ]
            },
            "properties": {
                "name": "Foua Island",
                "article": null
            }
        },
        {
            "type": "Feature",
            "geometry": {
                "type": "Point",
                "coordinates": [
                    -173.743611111,
                    -15.933888888
                ]
            },
            "properties": {
                "name": "Q49640151",
                "article": null
            }
        },
        {
            "type": "Feature",
            "geometry": {
                "type": "Point",
                "coordinates": [
                    -174.0,
                    -18.8
                ]
            },
            "properties": {
                "name": "Kaihifahifa",
                "article": null
            }
        },
        {
            "type": "Feature",
            "geometry": {
                "type": "Point",
                "coordinates": [
                    -174.7,
                    -19.95
                ]
            },
            "properties": {
                "name": "Kolo Island",
                "article": null
            }
        },
        {
            "type": "Feature",
            "geometry": {
                "type": "Point",
                "coordinates": [
                    -174.009166666,
                    -18.639444444
                ]
            },
            "properties": {
                "name": "Q49648422",
                "article": null
            }
        },
        {
            "type": "Feature",
            "geometry": {
                "type": "Point",
                "coordinates": [
                    -174.7,
                    -20.05
                ]
            },
            "properties": {
                "name": "Q49648548",
                "article": null
            }
        },
        {
            "type": "Feature",
            "geometry": {
                "type": "Point",
                "coordinates": [
                    -174.1,
                    -18.75
                ]
            },
            "properties": {
                "name": "Q49650332",
                "article": null
            }
        },
        {
            "type": "Feature",
            "geometry": {
                "type": "Point",
                "coordinates": [
                    -174.866666666,
                    -19.183333333
                ]
            },
            "properties": {
                "name": "Q49650700",
                "article": null
            }
        },
        {
            "type": "Feature",
            "geometry": {
                "type": "Point",
                "coordinates": [
                    -174.05,
                    -18.8
                ]
            },
            "properties": {
                "name": "Q49655127",
                "article": null
            }
        },
        {
            "type": "Feature",
            "geometry": {
                "type": "Point",
                "coordinates": [
                    -174.017222222,
                    -18.65
                ]
            },
            "properties": {
                "name": "Q49657473",
                "article": null
            }
        },
        {
            "type": "Feature",
            "geometry": {
                "type": "Point",
                "coordinates": [
                    -175.116666666,
                    -21.083333333
                ]
            },
            "properties": {
                "name": "Mokotau",
                "article": null
            }
        },
        {
            "type": "Feature",
            "geometry": {
                "type": "Point",
                "coordinates": [
                    -174.801111111,
                    -20.2475
                ]
            },
            "properties": {
                "name": "Q49660087",
                "article": null
            }
        },
        {
            "type": "Feature",
            "geometry": {
                "type": "Point",
                "coordinates": [
                    -174.017222222,
                    -18.65
                ]
            },
            "properties": {
                "name": "Q49664472",
                "article": null
            }
        },
        {
            "type": "Feature",
            "geometry": {
                "type": "Point",
                "coordinates": [
                    -173.760833333,
                    -15.963888888
                ]
            },
            "properties": {
                "name": "Q49664584",
                "article": null
            }
        },
        {
            "type": "Feature",
            "geometry": {
                "type": "Point",
                "coordinates": [
                    -174.516666666,
                    -20.333333333
                ]
            },
            "properties": {
                "name": "Nukutavake, Tonga",
                "article": null
            }
        },
        {
            "type": "Feature",
            "geometry": {
                "type": "Point",
                "coordinates": [
                    -174.7,
                    -19.966666666
                ]
            },
            "properties": {
                "name": "Q49666180",
                "article": null
            }
        },
        {
            "type": "Feature",
            "geometry": {
                "type": "Point",
                "coordinates": [
                    -174.016666666,
                    -18.75
                ]
            },
            "properties": {
                "name": "Q49668258",
                "article": null
            }
        },
        {
            "type": "Feature",
            "geometry": {
                "type": "Point",
                "coordinates": [
                    -174.788333333,
                    -20.247222222
                ]
            },
            "properties": {
                "name": "Q49670690",
                "article": null
            }
        },
        {
            "type": "Feature",
            "geometry": {
                "type": "Point",
                "coordinates": [
                    -174.764555555,
                    -20.001861111
                ]
            },
            "properties": {
                "name": "Lutueki",
                "article": null
            }
        }
    ]
}