{
    "type": "FeatureCollection",
    "features": [
        {
            "type": "Feature",
            "geometry": {
                "type": "Point",
                "coordinates": [
                    62.1925,
                    37.662777777
                ]
            },
            "properties": {
                "name": "Merv",
                "article": "https://en.wikipedia.org/wiki/Merv"
            }
        },
        {
            "type": "Feature",
            "geometry": {
                "type": "Point",
                "coordinates": [
                    54.365,
                    39.511944444
                ]
            },
            "properties": {
                "name": "Balkanabat",
                "article": "https://en.wikipedia.org/wiki/Balkanabat"
            }
        },
        {
            "type": "Feature",
            "geometry": {
                "type": "Point",
                "coordinates": [
                    57.333333333,
                    42.0
                ]
            },
            "properties": {
                "name": "Sarygamysh Lake",
                "article": "https://en.wikipedia.org/wiki/Sarygamysh_Lake"
            }
        },
        {
            "type": "Feature",
            "geometry": {
                "type": "Point",
                "coordinates": [
                    58.18805556,
                    42.61944444
                ]
            },
            "properties": {
                "name": "Lake Aibugir",
                "article": "https://en.wikipedia.org/wiki/Lake_Aibugir"
            }
        },
        {
            "type": "Feature",
            "geometry": {
                "type": "Point",
                "coordinates": [
                    58.366666666,
                    42.633333333
                ]
            },
            "properties": {
                "name": "Lake Aibugir",
                "article": "https://en.wikipedia.org/wiki/Lake_Aibugir"
            }
        },
        {
            "type": "Feature",
            "geometry": {
                "type": "Point",
                "coordinates": [
                    58.34913633,
                    38.18784839
                ]
            },
            "properties": {
                "name": "Jeitun",
                "article": "https://en.wikipedia.org/wiki/Jeitun"
            }
        },
        {
            "type": "Feature",
            "geometry": {
                "type": "Point",
                "coordinates": [
                    59.983055555,
                    41.816666666
                ]
            },
            "properties": {
                "name": "Daşoguz",
                "article": "https://en.wikipedia.org/wiki/Da%C5%9Foguz"
            }
        },
        {
            "type": "Feature",
            "geometry": {
                "type": "Point",
                "coordinates": [
                    63.566666666,
                    39.1
                ]
            },
            "properties": {
                "name": "Türkmenabat",
                "article": "https://en.wikipedia.org/wiki/T%C3%BCrkmenabat"
            }
        },
        {
            "type": "Feature",
            "geometry": {
                "type": "Point",
                "coordinates": [
                    52.966666666,
                    40.016666666
                ]
            },
            "properties": {
                "name": "Türkmenbaşy",
                "article": "https://en.wikipedia.org/wiki/T%C3%BCrkmenba%C5%9Fy,_Turkmenistan"
            }
        },
        {
            "type": "Feature",
            "geometry": {
                "type": "Point",
                "coordinates": [
                    54.543333333,
                    39.673333333
                ]
            },
            "properties": {
                "name": "Mount Arlan",
                "article": "https://en.wikipedia.org/wiki/Mount_Arlan"
            }
        },
        {
            "type": "Feature",
            "geometry": {
                "type": "Point",
                "coordinates": [
                    66.566666666,
                    37.833333333
                ]
            },
            "properties": {
                "name": "Aýrybaba",
                "article": "https://en.wikipedia.org/wiki/Ayribobo"
            }
        },
        {
            "type": "Feature",
            "geometry": {
                "type": "Point",
                "coordinates": [
                    58.212408333,
                    37.951147222
                ]
            },
            "properties": {
                "name": "Nisa",
                "article": "https://en.wikipedia.org/wiki/Nisa,_Turkmenistan"
            }
        },
        {
            "type": "Feature",
            "geometry": {
                "type": "Point",
                "coordinates": [
                    62.341666666,
                    35.275833333
                ]
            },
            "properties": {
                "name": "Serhetabat",
                "article": "https://en.wikipedia.org/wiki/Serhetabat"
            }
        },
        {
            "type": "Feature",
            "geometry": {
                "type": "Point",
                "coordinates": [
                    62.35,
                    35.28333333
                ]
            },
            "properties": {
                "name": "Serhetabat",
                "article": "https://en.wikipedia.org/wiki/Serhetabat"
            }
        },
        {
            "type": "Feature",
            "geometry": {
                "type": "Point",
                "coordinates": [
                    56.275833333,
                    38.976388888
                ]
            },
            "properties": {
                "name": "Gyzylarbat",
                "article": "https://en.wikipedia.org/wiki/Gyzylarbat"
            }
        },
        {
            "type": "Feature",
            "geometry": {
                "type": "Point",
                "coordinates": [
                    66.04656,
                    37.81244
                ]
            },
            "properties": {
                "name": "Magdanly",
                "article": "https://en.wikipedia.org/wiki/Magdanly"
            }
        },
        {
            "type": "Feature",
            "geometry": {
                "type": "Point",
                "coordinates": [
                    52.57,
                    41.539722222
                ]
            },
            "properties": {
                "name": "Garabogaz",
                "article": "https://en.wikipedia.org/wiki/Garabogaz"
            }
        },
        {
            "type": "Feature",
            "geometry": {
                "type": "Point",
                "coordinates": [
                    59.53611111,
                    41.80083333
                ]
            },
            "properties": {
                "name": "Qal’aliqir",
                "article": null
            }
        },
        {
            "type": "Feature",
            "geometry": {
                "type": "Point",
                "coordinates": [
                    58.3778,
                    37.9325
                ]
            },
            "properties": {
                "name": "Ruhyýet Palace",
                "article": "https://en.wikipedia.org/wiki/Ruhy%C3%BDet_Palace"
            }
        },
        {
            "type": "Feature",
            "geometry": {
                "type": "Point",
                "coordinates": [
                    57.966388888,
                    38.157777777
                ]
            },
            "properties": {
                "name": "Geok Tepe",
                "article": "https://en.wikipedia.org/wiki/G%C3%B6kdepe"
            }
        },
        {
            "type": "Feature",
            "geometry": {
                "type": "Point",
                "coordinates": [
                    65.2,
                    37.816666666
                ]
            },
            "properties": {
                "name": "Kerki",
                "article": "https://en.wikipedia.org/wiki/Kerki"
            }
        },
        {
            "type": "Feature",
            "geometry": {
                "type": "Point",
                "coordinates": [
                    60.432375,
                    36.85791667
                ]
            },
            "properties": {
                "name": "Altyndepe",
                "article": "https://en.wikipedia.org/wiki/Altyndepe"
            }
        },
        {
            "type": "Feature",
            "geometry": {
                "type": "Point",
                "coordinates": [
                    53.048055555,
                    38.969444444
                ]
            },
            "properties": {
                "name": "Ogurja Ada",
                "article": "https://en.wikipedia.org/wiki/Ogurja_Ada"
            }
        },
        {
            "type": "Feature",
            "geometry": {
                "type": "Point",
                "coordinates": [
                    62.913611111,
                    39.481666666
                ]
            },
            "properties": {
                "name": "Seýdi",
                "article": "https://en.wikipedia.org/wiki/Se%C3%BDdi"
            }
        },
        {
            "type": "Feature",
            "geometry": {
                "type": "Point",
                "coordinates": [
                    59.566666666,
                    37.391111111
                ]
            },
            "properties": {
                "name": "Abiward",
                "article": "https://en.wikipedia.org/wiki/Abiward"
            }
        },
        {
            "type": "Feature",
            "geometry": {
                "type": "Point",
                "coordinates": [
                    58.528734,
                    37.89765
                ]
            },
            "properties": {
                "name": "Anau",
                "article": null
            }
        },
        {
            "type": "Feature",
            "geometry": {
                "type": "Point",
                "coordinates": [
                    59.9,
                    41.65
                ]
            },
            "properties": {
                "name": "Görogly",
                "article": "https://en.wikipedia.org/wiki/G%C3%B6rogly_(city)"
            }
        },
        {
            "type": "Feature",
            "geometry": {
                "type": "Point",
                "coordinates": [
                    58.3806,
                    37.9343
                ]
            },
            "properties": {
                "name": "Oguzhan Palace",
                "article": "https://en.wikipedia.org/wiki/Oguzhan_Presidential_Palace"
            }
        },
        {
            "type": "Feature",
            "geometry": {
                "type": "Point",
                "coordinates": [
                    62.0343,
                    38.1907
                ]
            },
            "properties": {
                "name": "Gunar Tepe",
                "article": "https://en.wikipedia.org/wiki/Gonur_Depe"
            }
        },
        {
            "type": "Feature",
            "geometry": {
                "type": "Point",
                "coordinates": [
                    58.395922222,
                    37.942936111
                ]
            },
            "properties": {
                "name": "Ashgabat railway station",
                "article": "https://en.wikipedia.org/wiki/Ashgabat_railway_station"
            }
        },
        {
            "type": "Feature",
            "geometry": {
                "type": "Point",
                "coordinates": [
                    61.4036,
                    41.18746
                ]
            },
            "properties": {
                "name": "Gazojak",
                "article": "https://en.wikipedia.org/wiki/Gazojak"
            }
        },
        {
            "type": "Feature",
            "geometry": {
                "type": "Point",
                "coordinates": [
                    56.283333333,
                    38.433333333
                ]
            },
            "properties": {
                "name": "Magtymguly",
                "article": "https://en.wikipedia.org/wiki/Magtymguly_(city)"
            }
        },
        {
            "type": "Feature",
            "geometry": {
                "type": "Point",
                "coordinates": [
                    57.5191,
                    38.3005
                ]
            },
            "properties": {
                "name": "Köw Ata",
                "article": "https://en.wikipedia.org/wiki/Kow_Ata"
            }
        },
        {
            "type": "Feature",
            "geometry": {
                "type": "Point",
                "coordinates": [
                    61.8372,
                    37.59674
                ]
            },
            "properties": {
                "name": "Mary railway station",
                "article": null
            }
        },
        {
            "type": "Feature",
            "geometry": {
                "type": "Point",
                "coordinates": [
                    61.324191337,
                    36.57115298
                ]
            },
            "properties": {
                "name": "Mele Hairam",
                "article": "https://en.wikipedia.org/wiki/Mele_Hairam"
            }
        },
        {
            "type": "Feature",
            "geometry": {
                "type": "Point",
                "coordinates": [
                    63.1772,
                    38.5625
                ]
            },
            "properties": {
                "name": "Repetek",
                "article": null
            }
        },
        {
            "type": "Feature",
            "geometry": {
                "type": "Point",
                "coordinates": [
                    58.37888889,
                    37.92888889
                ]
            },
            "properties": {
                "name": "Exhibition Hall of the Ministry of Culture",
                "article": "https://en.wikipedia.org/wiki/Exhibition_Hall_of_the_Ministry_of_Culture"
            }
        },
        {
            "type": "Feature",
            "geometry": {
                "type": "Point",
                "coordinates": [
                    52.853,
                    39.95
                ]
            },
            "properties": {
                "name": "Serdar Hotel",
                "article": null
            }
        },
        {
            "type": "Feature",
            "geometry": {
                "type": "Point",
                "coordinates": [
                    52.9947,
                    40.0039
                ]
            },
            "properties": {
                "name": "Turkmenbashi railway station",
                "article": "https://en.wikipedia.org/wiki/Turkmenbashi_railway_station"
            }
        },
        {
            "type": "Feature",
            "geometry": {
                "type": "Point",
                "coordinates": [
                    62.16666667,
                    40.48333333
                ]
            },
            "properties": {
                "name": "Darganata",
                "article": "https://en.wikipedia.org/wiki/Darganata"
            }
        },
        {
            "type": "Feature",
            "geometry": {
                "type": "Point",
                "coordinates": [
                    64.1525,
                    38.483055555
                ]
            },
            "properties": {
                "name": "Garabekewül",
                "article": "https://en.wikipedia.org/wiki/Garabekew%C3%BCl"
            }
        },
        {
            "type": "Feature",
            "geometry": {
                "type": "Point",
                "coordinates": [
                    64.881111111,
                    38.068611111
                ]
            },
            "properties": {
                "name": "Halaç",
                "article": "https://en.wikipedia.org/wiki/Hala%C3%A7"
            }
        },
        {
            "type": "Feature",
            "geometry": {
                "type": "Point",
                "coordinates": [
                    61.655,
                    37.661388888
                ]
            },
            "properties": {
                "name": "Sakarçäge",
                "article": "https://en.wikipedia.org/wiki/Sakar%C3%A7%C3%A4ge"
            }
        },
        {
            "type": "Feature",
            "geometry": {
                "type": "Point",
                "coordinates": [
                    62.3988,
                    40.07457
                ]
            },
            "properties": {
                "name": "Dayahatyn",
                "article": "https://en.wikipedia.org/wiki/Dayahatyn"
            }
        },
        {
            "type": "Feature",
            "geometry": {
                "type": "Point",
                "coordinates": [
                    60.133333333,
                    41.838333333
                ]
            },
            "properties": {
                "name": "Nyýazow",
                "article": "https://en.wikipedia.org/wiki/%C5%9Eabat,_Turkmenistan"
            }
        },
        {
            "type": "Feature",
            "geometry": {
                "type": "Point",
                "coordinates": [
                    58.377752,
                    37.934164
                ]
            },
            "properties": {
                "name": "Bitarap Turkmenistan avenue",
                "article": "https://en.wikipedia.org/wiki/Bitarap_Turkmenistan_Avenue"
            }
        },
        {
            "type": "Feature",
            "geometry": {
                "type": "Point",
                "coordinates": [
                    55.5216,
                    39.2455
                ]
            },
            "properties": {
                "name": "Bereket Railway Station",
                "article": "https://en.wikipedia.org/wiki/Bereket_railway_station_(Turkmenistan)"
            }
        },
        {
            "type": "Feature",
            "geometry": {
                "type": "Point",
                "coordinates": [
                    57.63388,
                    41.140399
                ]
            },
            "properties": {
                "name": "Q16709496",
                "article": null
            }
        },
        {
            "type": "Feature",
            "geometry": {
                "type": "Point",
                "coordinates": [
                    55.516944444,
                    39.243055555
                ]
            },
            "properties": {
                "name": "Oboý Railway Station",
                "article": "https://en.wikipedia.org/wiki/Obo%C3%BD_railway_station"
            }
        },
        {
            "type": "Feature",
            "geometry": {
                "type": "Point",
                "coordinates": [
                    62.012,
                    37.725
                ]
            },
            "properties": {
                "name": "Q28003846",
                "article": null
            }
        },
        {
            "type": "Feature",
            "geometry": {
                "type": "Point",
                "coordinates": [
                    58.0083,
                    37.8164
                ]
            },
            "properties": {
                "name": "Gora Semansur",
                "article": null
            }
        },
        {
            "type": "Feature",
            "geometry": {
                "type": "Point",
                "coordinates": [
                    50.5,
                    42.0
                ]
            },
            "properties": {
                "name": "Caspian Sea",
                "article": "https://en.wikipedia.org/wiki/Caspian_Sea"
            }
        },
        {
            "type": "Feature",
            "geometry": {
                "type": "Point",
                "coordinates": [
                    61.833333333,
                    37.6
                ]
            },
            "properties": {
                "name": "Mary",
                "article": "https://en.wikipedia.org/wiki/Mary,_Turkmenistan"
            }
        },
        {
            "type": "Feature",
            "geometry": {
                "type": "Point",
                "coordinates": [
                    58.383333333,
                    37.95
                ]
            },
            "properties": {
                "name": "Ashgabat",
                "article": "https://en.wikipedia.org/wiki/Ashgabat"
            }
        },
        {
            "type": "Feature",
            "geometry": {
                "type": "Point",
                "coordinates": [
                    59.158611111,
                    42.316666666
                ]
            },
            "properties": {
                "name": "Konye-Urgench",
                "article": "https://en.wikipedia.org/wiki/Konye-Urgench"
            }
        },
        {
            "type": "Feature",
            "geometry": {
                "type": "Point",
                "coordinates": [
                    59.158611111,
                    42.316666666
                ]
            },
            "properties": {
                "name": "Konye-Urgench",
                "article": "https://en.wikipedia.org/wiki/Konye-Urgench"
            }
        },
        {
            "type": "Feature",
            "geometry": {
                "type": "Point",
                "coordinates": [
                    58.3989,
                    42.2875
                ]
            },
            "properties": {
                "name": "Dev-Kesken",
                "article": "https://en.wikipedia.org/wiki/Devkesen"
            }
        },
        {
            "type": "Feature",
            "geometry": {
                "type": "Point",
                "coordinates": [
                    54.365277777,
                    39.496388888
                ]
            },
            "properties": {
                "name": "Q19613410",
                "article": null
            }
        },
        {
            "type": "Feature",
            "geometry": {
                "type": "Point",
                "coordinates": [
                    52.975833,
                    40.033611
                ]
            },
            "properties": {
                "name": "Cave of Dzhebel",
                "article": "https://en.wikipedia.org/wiki/Cave_of_Dzhebel"
            }
        },
        {
            "type": "Feature",
            "geometry": {
                "type": "Point",
                "coordinates": [
                    60.5006791,
                    37.3844057
                ]
            },
            "properties": {
                "name": "Q25493917",
                "article": null
            }
        },
        {
            "type": "Feature",
            "geometry": {
                "type": "Point",
                "coordinates": [
                    62.208055555,
                    35.546388888
                ]
            },
            "properties": {
                "name": "Gora Chadzhi",
                "article": null
            }
        },
        {
            "type": "Feature",
            "geometry": {
                "type": "Point",
                "coordinates": [
                    57.54972,
                    37.92861
                ]
            },
            "properties": {
                "name": "Gora Masinev",
                "article": null
            }
        },
        {
            "type": "Feature",
            "geometry": {
                "type": "Point",
                "coordinates": [
                    56.6938,
                    38.3363
                ]
            },
            "properties": {
                "name": "Gora Yulgely-Vashi",
                "article": null
            }
        },
        {
            "type": "Feature",
            "geometry": {
                "type": "Point",
                "coordinates": [
                    57.1132,
                    38.276
                ]
            },
            "properties": {
                "name": "Gora Yellikaya",
                "article": null
            }
        },
        {
            "type": "Feature",
            "geometry": {
                "type": "Point",
                "coordinates": [
                    56.816666666,
                    38.333333333
                ]
            },
            "properties": {
                "name": "Gora Yekalych",
                "article": null
            }
        },
        {
            "type": "Feature",
            "geometry": {
                "type": "Point",
                "coordinates": [
                    56.087222222,
                    38.317777777
                ]
            },
            "properties": {
                "name": "Gora Uzynkhar",
                "article": null
            }
        },
        {
            "type": "Feature",
            "geometry": {
                "type": "Point",
                "coordinates": [
                    57.133333333,
                    38.4
                ]
            },
            "properties": {
                "name": "Gora Tyrnov",
                "article": null
            }
        },
        {
            "type": "Feature",
            "geometry": {
                "type": "Point",
                "coordinates": [
                    56.819,
                    38.3803
                ]
            },
            "properties": {
                "name": "Gora Temenchi-Dag",
                "article": null
            }
        },
        {
            "type": "Feature",
            "geometry": {
                "type": "Point",
                "coordinates": [
                    57.015,
                    38.315
                ]
            },
            "properties": {
                "name": "Gora Taza-Taplan",
                "article": null
            }
        },
        {
            "type": "Feature",
            "geometry": {
                "type": "Point",
                "coordinates": [
                    56.4,
                    38.516666666
                ]
            },
            "properties": {
                "name": "Gora Syunt",
                "article": null
            }
        },
        {
            "type": "Feature",
            "geometry": {
                "type": "Point",
                "coordinates": [
                    55.6536,
                    38.4387
                ]
            },
            "properties": {
                "name": "Gora Sirim",
                "article": null
            }
        },
        {
            "type": "Feature",
            "geometry": {
                "type": "Point",
                "coordinates": [
                    54.4308,
                    39.8442
                ]
            },
            "properties": {
                "name": "Gora Oglanly",
                "article": null
            }
        },
        {
            "type": "Feature",
            "geometry": {
                "type": "Point",
                "coordinates": [
                    57.4096,
                    38.2951
                ]
            },
            "properties": {
                "name": "Gora Murad-Kerrik",
                "article": null
            }
        },
        {
            "type": "Feature",
            "geometry": {
                "type": "Point",
                "coordinates": [
                    55.946944444,
                    38.191944444
                ]
            },
            "properties": {
                "name": "Gora Mondzhukly",
                "article": null
            }
        },
        {
            "type": "Feature",
            "geometry": {
                "type": "Point",
                "coordinates": [
                    57.631944444,
                    38.035277777
                ]
            },
            "properties": {
                "name": "Gora Mirzadag",
                "article": null
            }
        },
        {
            "type": "Feature",
            "geometry": {
                "type": "Point",
                "coordinates": [
                    57.0596,
                    38.4528
                ]
            },
            "properties": {
                "name": "Gora Monoman",
                "article": null
            }
        },
        {
            "type": "Feature",
            "geometry": {
                "type": "Point",
                "coordinates": [
                    55.1587,
                    39.0523
                ]
            },
            "properties": {
                "name": "Gora Kyuren",
                "article": null
            }
        },
        {
            "type": "Feature",
            "geometry": {
                "type": "Point",
                "coordinates": [
                    57.2053,
                    38.3828
                ]
            },
            "properties": {
                "name": "Gora Kyrk-Ashan",
                "article": null
            }
        },
        {
            "type": "Feature",
            "geometry": {
                "type": "Point",
                "coordinates": [
                    55.503055555,
                    38.624722222
                ]
            },
            "properties": {
                "name": "Gora Kushvaky",
                "article": null
            }
        },
        {
            "type": "Feature",
            "geometry": {
                "type": "Point",
                "coordinates": [
                    55.808333333,
                    38.598055555
                ]
            },
            "properties": {
                "name": "Gora Kushlyuk",
                "article": null
            }
        },
        {
            "type": "Feature",
            "geometry": {
                "type": "Point",
                "coordinates": [
                    56.5418,
                    38.5158
                ]
            },
            "properties": {
                "name": "Gora Koyusi",
                "article": null
            }
        },
        {
            "type": "Feature",
            "geometry": {
                "type": "Point",
                "coordinates": [
                    57.613888888,
                    38.133611111
                ]
            },
            "properties": {
                "name": "Gora Kyzylkaya",
                "article": null
            }
        },
        {
            "type": "Feature",
            "geometry": {
                "type": "Point",
                "coordinates": [
                    57.403611111,
                    38.203888888
                ]
            },
            "properties": {
                "name": "Gora Kyzylkhasar",
                "article": null
            }
        },
        {
            "type": "Feature",
            "geometry": {
                "type": "Point",
                "coordinates": [
                    56.417777777,
                    38.531111111
                ]
            },
            "properties": {
                "name": "Hasardag",
                "article": null
            }
        },
        {
            "type": "Feature",
            "geometry": {
                "type": "Point",
                "coordinates": [
                    58.5623,
                    37.818
                ]
            },
            "properties": {
                "name": "Gora Khalats",
                "article": null
            }
        },
        {
            "type": "Feature",
            "geometry": {
                "type": "Point",
                "coordinates": [
                    56.5828,
                    38.554
                ]
            },
            "properties": {
                "name": "Gora Kesa-Dag",
                "article": null
            }
        },
        {
            "type": "Feature",
            "geometry": {
                "type": "Point",
                "coordinates": [
                    57.118055555,
                    38.388055555
                ]
            },
            "properties": {
                "name": "Gora Kara-Gura",
                "article": null
            }
        },
        {
            "type": "Feature",
            "geometry": {
                "type": "Point",
                "coordinates": [
                    56.2392,
                    38.5017
                ]
            },
            "properties": {
                "name": "Gora Isan",
                "article": null
            }
        },
        {
            "type": "Feature",
            "geometry": {
                "type": "Point",
                "coordinates": [
                    56.8867,
                    38.59
                ]
            },
            "properties": {
                "name": "Gora Gurma-Tarkhe-Ekiz",
                "article": null
            }
        },
        {
            "type": "Feature",
            "geometry": {
                "type": "Point",
                "coordinates": [
                    54.3033,
                    39.9042
                ]
            },
            "properties": {
                "name": "Gora Gerkel",
                "article": null
            }
        },
        {
            "type": "Feature",
            "geometry": {
                "type": "Point",
                "coordinates": [
                    57.6591,
                    38.0877
                ]
            },
            "properties": {
                "name": "Gora Gal'vapas",
                "article": null
            }
        },
        {
            "type": "Feature",
            "geometry": {
                "type": "Point",
                "coordinates": [
                    56.125277777,
                    38.508055555
                ]
            },
            "properties": {
                "name": "Gora Doyran",
                "article": null
            }
        },
        {
            "type": "Feature",
            "geometry": {
                "type": "Point",
                "coordinates": [
                    57.1792,
                    38.5062
                ]
            },
            "properties": {
                "name": "Gora Degirmendag",
                "article": null
            }
        },
        {
            "type": "Feature",
            "geometry": {
                "type": "Point",
                "coordinates": [
                    57.0777,
                    38.5312
                ]
            },
            "properties": {
                "name": "Gora Charkaishan",
                "article": null
            }
        },
        {
            "type": "Feature",
            "geometry": {
                "type": "Point",
                "coordinates": [
                    54.6572,
                    39.1258
                ]
            },
            "properties": {
                "name": "Gora Boydag",
                "article": null
            }
        },
        {
            "type": "Feature",
            "geometry": {
                "type": "Point",
                "coordinates": [
                    54.8994,
                    37.9081
                ]
            },
            "properties": {
                "name": "Beňňiwan Dag",
                "article": null
            }
        },
        {
            "type": "Feature",
            "geometry": {
                "type": "Point",
                "coordinates": [
                    56.2521,
                    39.9557
                ]
            },
            "properties": {
                "name": "Gora Amangel'dy",
                "article": null
            }
        },
        {
            "type": "Feature",
            "geometry": {
                "type": "Point",
                "coordinates": [
                    57.2515,
                    38.2405
                ]
            },
            "properties": {
                "name": "Gora Almadzhin",
                "article": null
            }
        },
        {
            "type": "Feature",
            "geometry": {
                "type": "Point",
                "coordinates": [
                    56.685,
                    38.6558
                ]
            },
            "properties": {
                "name": "Gora Akhcha-Dag",
                "article": null
            }
        },
        {
            "type": "Feature",
            "geometry": {
                "type": "Point",
                "coordinates": [
                    56.843888888,
                    38.346944444
                ]
            },
            "properties": {
                "name": "Gora Ak-Bulak",
                "article": null
            }
        },
        {
            "type": "Feature",
            "geometry": {
                "type": "Point",
                "coordinates": [
                    57.5106,
                    37.9197
                ]
            },
            "properties": {
                "name": "Gora Sousta-Kamali",
                "article": null
            }
        },
        {
            "type": "Feature",
            "geometry": {
                "type": "Point",
                "coordinates": [
                    57.56333,
                    37.93333
                ]
            },
            "properties": {
                "name": "Gora Rafa",
                "article": null
            }
        },
        {
            "type": "Feature",
            "geometry": {
                "type": "Point",
                "coordinates": [
                    57.57667,
                    37.93833
                ]
            },
            "properties": {
                "name": "Gora Kara-Yutalag",
                "article": null
            }
        },
        {
            "type": "Feature",
            "geometry": {
                "type": "Point",
                "coordinates": [
                    57.703333333,
                    37.926111111
                ]
            },
            "properties": {
                "name": "Gora Karaul'",
                "article": null
            }
        },
        {
            "type": "Feature",
            "geometry": {
                "type": "Point",
                "coordinates": [
                    57.7492,
                    37.9044
                ]
            },
            "properties": {
                "name": "Gora Yurek-Dag",
                "article": null
            }
        },
        {
            "type": "Feature",
            "geometry": {
                "type": "Point",
                "coordinates": [
                    57.75222,
                    37.8975
                ]
            },
            "properties": {
                "name": "Gora Tepe-Kerelanym-Bashi",
                "article": null
            }
        },
        {
            "type": "Feature",
            "geometry": {
                "type": "Point",
                "coordinates": [
                    57.78611,
                    37.9025
                ]
            },
            "properties": {
                "name": "Gora Biytal-Dagan",
                "article": null
            }
        },
        {
            "type": "Feature",
            "geometry": {
                "type": "Point",
                "coordinates": [
                    57.82778,
                    37.86361
                ]
            },
            "properties": {
                "name": "Gora Radzhab-Dag",
                "article": null
            }
        },
        {
            "type": "Feature",
            "geometry": {
                "type": "Point",
                "coordinates": [
                    57.85111,
                    37.87306
                ]
            },
            "properties": {
                "name": "Gora Khasan-Uychali",
                "article": null
            }
        },
        {
            "type": "Feature",
            "geometry": {
                "type": "Point",
                "coordinates": [
                    57.9588,
                    37.9814
                ]
            },
            "properties": {
                "name": "Gora Kharlasang",
                "article": null
            }
        },
        {
            "type": "Feature",
            "geometry": {
                "type": "Point",
                "coordinates": [
                    57.96778,
                    37.84222
                ]
            },
            "properties": {
                "name": "Gora Konichar",
                "article": null
            }
        },
        {
            "type": "Feature",
            "geometry": {
                "type": "Point",
                "coordinates": [
                    58.227777777,
                    37.813888888
                ]
            },
            "properties": {
                "name": "Gora Pursaki",
                "article": null
            }
        },
        {
            "type": "Feature",
            "geometry": {
                "type": "Point",
                "coordinates": [
                    58.2381,
                    37.7794
                ]
            },
            "properties": {
                "name": "Gora Bol'shoye Kare",
                "article": null
            }
        },
        {
            "type": "Feature",
            "geometry": {
                "type": "Point",
                "coordinates": [
                    58.20167,
                    37.77556
                ]
            },
            "properties": {
                "name": "Gora Bozyk-Yamo",
                "article": null
            }
        },
        {
            "type": "Feature",
            "geometry": {
                "type": "Point",
                "coordinates": [
                    58.2286,
                    37.7172
                ]
            },
            "properties": {
                "name": "Gora Verdynyn-Bashi",
                "article": null
            }
        },
        {
            "type": "Feature",
            "geometry": {
                "type": "Point",
                "coordinates": [
                    58.234444444,
                    37.705833333
                ]
            },
            "properties": {
                "name": "Gora Mezerge-Tepe",
                "article": null
            }
        },
        {
            "type": "Feature",
            "geometry": {
                "type": "Point",
                "coordinates": [
                    58.143333333,
                    37.905833333
                ]
            },
            "properties": {
                "name": "Gora Tagalmy",
                "article": null
            }
        },
        {
            "type": "Feature",
            "geometry": {
                "type": "Point",
                "coordinates": [
                    58.181944444,
                    37.8925
                ]
            },
            "properties": {
                "name": "Gora Karadepe",
                "article": null
            }
        },
        {
            "type": "Feature",
            "geometry": {
                "type": "Point",
                "coordinates": [
                    58.2275,
                    37.9084
                ]
            },
            "properties": {
                "name": "Gora Khendyvar",
                "article": null
            }
        },
        {
            "type": "Feature",
            "geometry": {
                "type": "Point",
                "coordinates": [
                    58.150277777,
                    37.848611111
                ]
            },
            "properties": {
                "name": "Gora Peshberman",
                "article": null
            }
        },
        {
            "type": "Feature",
            "geometry": {
                "type": "Point",
                "coordinates": [
                    58.2334,
                    37.8524
                ]
            },
            "properties": {
                "name": "Gora Stolovaya",
                "article": null
            }
        },
        {
            "type": "Feature",
            "geometry": {
                "type": "Point",
                "coordinates": [
                    58.250277777,
                    37.761111111
                ]
            },
            "properties": {
                "name": "Gora Ludzha",
                "article": null
            }
        },
        {
            "type": "Feature",
            "geometry": {
                "type": "Point",
                "coordinates": [
                    58.251388888,
                    37.808333333
                ]
            },
            "properties": {
                "name": "Gora Maloye Kare",
                "article": null
            }
        },
        {
            "type": "Feature",
            "geometry": {
                "type": "Point",
                "coordinates": [
                    58.306111111,
                    37.689722222
                ]
            },
            "properties": {
                "name": "Kruglaya Sopka",
                "article": null
            }
        },
        {
            "type": "Feature",
            "geometry": {
                "type": "Point",
                "coordinates": [
                    58.327777777,
                    37.673611111
                ]
            },
            "properties": {
                "name": "Gora Dashtoy",
                "article": null
            }
        },
        {
            "type": "Feature",
            "geometry": {
                "type": "Point",
                "coordinates": [
                    58.3913,
                    37.7008
                ]
            },
            "properties": {
                "name": "Gora Dashtoy",
                "article": null
            }
        },
        {
            "type": "Feature",
            "geometry": {
                "type": "Point",
                "coordinates": [
                    58.30333,
                    37.66222
                ]
            },
            "properties": {
                "name": "Gora Kara-Ilkbi",
                "article": null
            }
        },
        {
            "type": "Feature",
            "geometry": {
                "type": "Point",
                "coordinates": [
                    58.4214,
                    37.8061
                ]
            },
            "properties": {
                "name": "Gora Khal'vat",
                "article": null
            }
        },
        {
            "type": "Feature",
            "geometry": {
                "type": "Point",
                "coordinates": [
                    58.3948,
                    37.7631
                ]
            },
            "properties": {
                "name": "Gora Asel'ma",
                "article": null
            }
        },
        {
            "type": "Feature",
            "geometry": {
                "type": "Point",
                "coordinates": [
                    58.415277777,
                    37.751111111
                ]
            },
            "properties": {
                "name": "Gora Bol'shaya Khuncha",
                "article": null
            }
        },
        {
            "type": "Feature",
            "geometry": {
                "type": "Point",
                "coordinates": [
                    58.4577,
                    37.7233
                ]
            },
            "properties": {
                "name": "Gora Malaya Khuncha",
                "article": null
            }
        },
        {
            "type": "Feature",
            "geometry": {
                "type": "Point",
                "coordinates": [
                    58.438888888,
                    37.695833333
                ]
            },
            "properties": {
                "name": "Gora Surumuzdur",
                "article": null
            }
        },
        {
            "type": "Feature",
            "geometry": {
                "type": "Point",
                "coordinates": [
                    58.4539,
                    37.6748
                ]
            },
            "properties": {
                "name": "Gora Kechun",
                "article": null
            }
        },
        {
            "type": "Feature",
            "geometry": {
                "type": "Point",
                "coordinates": [
                    58.34417,
                    37.66278
                ]
            },
            "properties": {
                "name": "Gora Damchi",
                "article": null
            }
        },
        {
            "type": "Feature",
            "geometry": {
                "type": "Point",
                "coordinates": [
                    58.3656,
                    37.6575
                ]
            },
            "properties": {
                "name": "Gora Nagduin",
                "article": null
            }
        },
        {
            "type": "Feature",
            "geometry": {
                "type": "Point",
                "coordinates": [
                    58.42056,
                    37.63694
                ]
            },
            "properties": {
                "name": "Gora Yuz-Palang",
                "article": null
            }
        },
        {
            "type": "Feature",
            "geometry": {
                "type": "Point",
                "coordinates": [
                    58.4433,
                    37.6319
                ]
            },
            "properties": {
                "name": "Gora Kullar",
                "article": null
            }
        },
        {
            "type": "Feature",
            "geometry": {
                "type": "Point",
                "coordinates": [
                    54.948055555,
                    38.280277777
                ]
            },
            "properties": {
                "name": "Artykly Dag",
                "article": null
            }
        },
        {
            "type": "Feature",
            "geometry": {
                "type": "Point",
                "coordinates": [
                    54.7442,
                    40.7767
                ]
            },
            "properties": {
                "name": "Gora Toguz-Tepe",
                "article": null
            }
        },
        {
            "type": "Feature",
            "geometry": {
                "type": "Point",
                "coordinates": [
                    53.8333,
                    40.6108
                ]
            },
            "properties": {
                "name": "Gora Omganini",
                "article": null
            }
        },
        {
            "type": "Feature",
            "geometry": {
                "type": "Point",
                "coordinates": [
                    54.0592,
                    40.5767
                ]
            },
            "properties": {
                "name": "Gora Kyzylkup",
                "article": null
            }
        },
        {
            "type": "Feature",
            "geometry": {
                "type": "Point",
                "coordinates": [
                    54.75,
                    40.633333333
                ]
            },
            "properties": {
                "name": "Gora Kurgan",
                "article": null
            }
        },
        {
            "type": "Feature",
            "geometry": {
                "type": "Point",
                "coordinates": [
                    54.1033,
                    40.535
                ]
            },
            "properties": {
                "name": "Gora Demirdzhan",
                "article": null
            }
        },
        {
            "type": "Feature",
            "geometry": {
                "type": "Point",
                "coordinates": [
                    56.0739,
                    40.0291
                ]
            },
            "properties": {
                "name": "Burunel",
                "article": null
            }
        },
        {
            "type": "Feature",
            "geometry": {
                "type": "Point",
                "coordinates": [
                    54.7,
                    41.233333333
                ]
            },
            "properties": {
                "name": "Gora Bekmurat",
                "article": null
            }
        },
        {
            "type": "Feature",
            "geometry": {
                "type": "Point",
                "coordinates": [
                    55.806944444,
                    40.214444444
                ]
            },
            "properties": {
                "name": "Gora Begarslan",
                "article": null
            }
        },
        {
            "type": "Feature",
            "geometry": {
                "type": "Point",
                "coordinates": [
                    66.021666666,
                    37.671666666
                ]
            },
            "properties": {
                "name": "Gora Yurak-Tyube",
                "article": null
            }
        },
        {
            "type": "Feature",
            "geometry": {
                "type": "Point",
                "coordinates": [
                    61.5431,
                    36.19
                ]
            },
            "properties": {
                "name": "Gora Yakhshi-Bay",
                "article": null
            }
        },
        {
            "type": "Feature",
            "geometry": {
                "type": "Point",
                "coordinates": [
                    63.449444444,
                    36.649722222
                ]
            },
            "properties": {
                "name": "Gora Yakbil'",
                "article": null
            }
        },
        {
            "type": "Feature",
            "geometry": {
                "type": "Point",
                "coordinates": [
                    62.7904,
                    35.7846
                ]
            },
            "properties": {
                "name": "Gora Uchotdzhakh",
                "article": null
            }
        },
        {
            "type": "Feature",
            "geometry": {
                "type": "Point",
                "coordinates": [
                    65.7633,
                    37.7658
                ]
            },
            "properties": {
                "name": "Gora Uch-Kizyl",
                "article": null
            }
        },
        {
            "type": "Feature",
            "geometry": {
                "type": "Point",
                "coordinates": [
                    62.853055555,
                    36.608333333
                ]
            },
            "properties": {
                "name": "Gora Tegelek-Kyr",
                "article": null
            }
        },
        {
            "type": "Feature",
            "geometry": {
                "type": "Point",
                "coordinates": [
                    66.0694,
                    37.7439
                ]
            },
            "properties": {
                "name": "Gora Tagara",
                "article": null
            }
        },
        {
            "type": "Feature",
            "geometry": {
                "type": "Point",
                "coordinates": [
                    62.309722222,
                    35.257222222
                ]
            },
            "properties": {
                "name": "Gora Krasnovodskaya",
                "article": null
            }
        },
        {
            "type": "Feature",
            "geometry": {
                "type": "Point",
                "coordinates": [
                    62.340833333,
                    35.261388888
                ]
            },
            "properties": {
                "name": "Gora Lagernaya",
                "article": null
            }
        },
        {
            "type": "Feature",
            "geometry": {
                "type": "Point",
                "coordinates": [
                    62.364722222,
                    35.258333333
                ]
            },
            "properties": {
                "name": "Gora Arabskaya",
                "article": null
            }
        },
        {
            "type": "Feature",
            "geometry": {
                "type": "Point",
                "coordinates": [
                    62.328611111,
                    35.2875
                ]
            },
            "properties": {
                "name": "Gora Inzhenernaya",
                "article": null
            }
        },
        {
            "type": "Feature",
            "geometry": {
                "type": "Point",
                "coordinates": [
                    62.311944444,
                    35.290555555
                ]
            },
            "properties": {
                "name": "Gora Ziaret",
                "article": null
            }
        },
        {
            "type": "Feature",
            "geometry": {
                "type": "Point",
                "coordinates": [
                    62.355833333,
                    35.300277777
                ]
            },
            "properties": {
                "name": "Gora Intendantskaya",
                "article": null
            }
        },
        {
            "type": "Feature",
            "geometry": {
                "type": "Point",
                "coordinates": [
                    62.384166666,
                    35.314722222
                ]
            },
            "properties": {
                "name": "Gora Pochtovaya",
                "article": null
            }
        },
        {
            "type": "Feature",
            "geometry": {
                "type": "Point",
                "coordinates": [
                    62.403333333,
                    35.7325
                ]
            },
            "properties": {
                "name": "Gora Mergenchagat",
                "article": null
            }
        },
        {
            "type": "Feature",
            "geometry": {
                "type": "Point",
                "coordinates": [
                    61.818333333,
                    35.680833333
                ]
            },
            "properties": {
                "name": "Gora Kazan",
                "article": null
            }
        },
        {
            "type": "Feature",
            "geometry": {
                "type": "Point",
                "coordinates": [
                    61.439444444,
                    35.611666666
                ]
            },
            "properties": {
                "name": "Gora Chakmakly-Changa",
                "article": null
            }
        },
        {
            "type": "Feature",
            "geometry": {
                "type": "Point",
                "coordinates": [
                    61.449444444,
                    35.526111111
                ]
            },
            "properties": {
                "name": "Gora Dengli-Dag",
                "article": null
            }
        },
        {
            "type": "Feature",
            "geometry": {
                "type": "Point",
                "coordinates": [
                    57.605,
                    37.933333333
                ]
            },
            "properties": {
                "name": "Kūh-e Khvājeh Gerefteh",
                "article": null
            }
        },
        {
            "type": "Feature",
            "geometry": {
                "type": "Point",
                "coordinates": [
                    60.232777777,
                    36.798611111
                ]
            },
            "properties": {
                "name": "Gora Dash",
                "article": null
            }
        },
        {
            "type": "Feature",
            "geometry": {
                "type": "Point",
                "coordinates": [
                    60.275555555,
                    36.835
                ]
            },
            "properties": {
                "name": "Zarmi",
                "article": null
            }
        },
        {
            "type": "Feature",
            "geometry": {
                "type": "Point",
                "coordinates": [
                    56.287222222,
                    38.272777777
                ]
            },
            "properties": {
                "name": "Gora Yekarcha",
                "article": null
            }
        },
        {
            "type": "Feature",
            "geometry": {
                "type": "Point",
                "coordinates": [
                    56.9016,
                    38.3522
                ]
            },
            "properties": {
                "name": "Gora Gazdepe",
                "article": null
            }
        },
        {
            "type": "Feature",
            "geometry": {
                "type": "Point",
                "coordinates": [
                    56.6097,
                    38.3451
                ]
            },
            "properties": {
                "name": "Gora Temeklidag",
                "article": null
            }
        },
        {
            "type": "Feature",
            "geometry": {
                "type": "Point",
                "coordinates": [
                    56.9525,
                    38.448333333
                ]
            },
            "properties": {
                "name": "Gora Allyam",
                "article": null
            }
        },
        {
            "type": "Feature",
            "geometry": {
                "type": "Point",
                "coordinates": [
                    56.9797,
                    38.4842
                ]
            },
            "properties": {
                "name": "Gora Uchkui",
                "article": null
            }
        },
        {
            "type": "Feature",
            "geometry": {
                "type": "Point",
                "coordinates": [
                    56.533333333,
                    38.438611111
                ]
            },
            "properties": {
                "name": "Gora Karadzhindag",
                "article": null
            }
        },
        {
            "type": "Feature",
            "geometry": {
                "type": "Point",
                "coordinates": [
                    56.458611111,
                    38.439722222
                ]
            },
            "properties": {
                "name": "Gora Koishauchan",
                "article": null
            }
        },
        {
            "type": "Feature",
            "geometry": {
                "type": "Point",
                "coordinates": [
                    56.494722222,
                    38.480277777
                ]
            },
            "properties": {
                "name": "Gora Kundalin",
                "article": null
            }
        },
        {
            "type": "Feature",
            "geometry": {
                "type": "Point",
                "coordinates": [
                    56.415,
                    38.486111111
                ]
            },
            "properties": {
                "name": "Gora Katyvan",
                "article": null
            }
        },
        {
            "type": "Feature",
            "geometry": {
                "type": "Point",
                "coordinates": [
                    56.335833333,
                    38.536111111
                ]
            },
            "properties": {
                "name": "Gora Chorkhodzha",
                "article": null
            }
        },
        {
            "type": "Feature",
            "geometry": {
                "type": "Point",
                "coordinates": [
                    56.551666666,
                    38.573333333
                ]
            },
            "properties": {
                "name": "Gora Gudzhuk",
                "article": null
            }
        },
        {
            "type": "Feature",
            "geometry": {
                "type": "Point",
                "coordinates": [
                    56.7725,
                    38.532777777
                ]
            },
            "properties": {
                "name": "Gora Karadezh",
                "article": null
            }
        },
        {
            "type": "Feature",
            "geometry": {
                "type": "Point",
                "coordinates": [
                    56.8703,
                    38.5445
                ]
            },
            "properties": {
                "name": "Gora Serkharman",
                "article": null
            }
        },
        {
            "type": "Feature",
            "geometry": {
                "type": "Point",
                "coordinates": [
                    56.695,
                    38.614444444
                ]
            },
            "properties": {
                "name": "Gora Karategelen",
                "article": null
            }
        },
        {
            "type": "Feature",
            "geometry": {
                "type": "Point",
                "coordinates": [
                    56.6441,
                    38.7131
                ]
            },
            "properties": {
                "name": "Gora Karachek",
                "article": null
            }
        },
        {
            "type": "Feature",
            "geometry": {
                "type": "Point",
                "coordinates": [
                    56.5976,
                    38.6965
                ]
            },
            "properties": {
                "name": "Gora Kyaklik",
                "article": null
            }
        },
        {
            "type": "Feature",
            "geometry": {
                "type": "Point",
                "coordinates": [
                    56.718055555,
                    38.733888888
                ]
            },
            "properties": {
                "name": "Gora Gorykly",
                "article": null
            }
        },
        {
            "type": "Feature",
            "geometry": {
                "type": "Point",
                "coordinates": [
                    56.7177,
                    38.6978
                ]
            },
            "properties": {
                "name": "Gora Balavaz",
                "article": null
            }
        },
        {
            "type": "Feature",
            "geometry": {
                "type": "Point",
                "coordinates": [
                    56.7788,
                    38.7114
                ]
            },
            "properties": {
                "name": "Gora Onugurt",
                "article": null
            }
        },
        {
            "type": "Feature",
            "geometry": {
                "type": "Point",
                "coordinates": [
                    56.815,
                    38.6795
                ]
            },
            "properties": {
                "name": "Gora Karategen",
                "article": null
            }
        },
        {
            "type": "Feature",
            "geometry": {
                "type": "Point",
                "coordinates": [
                    56.46253,
                    38.77824
                ]
            },
            "properties": {
                "name": "Gora Yereuch",
                "article": null
            }
        },
        {
            "type": "Feature",
            "geometry": {
                "type": "Point",
                "coordinates": [
                    56.449722222,
                    38.818611111
                ]
            },
            "properties": {
                "name": "Gora Kanov",
                "article": null
            }
        },
        {
            "type": "Feature",
            "geometry": {
                "type": "Point",
                "coordinates": [
                    56.455833333,
                    38.856944444
                ]
            },
            "properties": {
                "name": "Gora Akdag",
                "article": null
            }
        },
        {
            "type": "Feature",
            "geometry": {
                "type": "Point",
                "coordinates": [
                    59.2403,
                    37.5457
                ]
            },
            "properties": {
                "name": "Gora Zaucha",
                "article": null
            }
        },
        {
            "type": "Feature",
            "geometry": {
                "type": "Point",
                "coordinates": [
                    55.021111111,
                    38.179722222
                ]
            },
            "properties": {
                "name": "Gora Gotatan",
                "article": null
            }
        },
        {
            "type": "Feature",
            "geometry": {
                "type": "Point",
                "coordinates": [
                    55.7775,
                    38.155277777
                ]
            },
            "properties": {
                "name": "Gora Karadzhik",
                "article": null
            }
        },
        {
            "type": "Feature",
            "geometry": {
                "type": "Point",
                "coordinates": [
                    55.853,
                    38.1328
                ]
            },
            "properties": {
                "name": "Gora Keche",
                "article": null
            }
        },
        {
            "type": "Feature",
            "geometry": {
                "type": "Point",
                "coordinates": [
                    55.8717,
                    38.2098
                ]
            },
            "properties": {
                "name": "Gora Kozedere",
                "article": null
            }
        },
        {
            "type": "Feature",
            "geometry": {
                "type": "Point",
                "coordinates": [
                    55.0645,
                    38.2578
                ]
            },
            "properties": {
                "name": "Gora Bazarli",
                "article": null
            }
        },
        {
            "type": "Feature",
            "geometry": {
                "type": "Point",
                "coordinates": [
                    55.095833333,
                    38.302222222
                ]
            },
            "properties": {
                "name": "Gora Yalangach",
                "article": null
            }
        },
        {
            "type": "Feature",
            "geometry": {
                "type": "Point",
                "coordinates": [
                    55.953611111,
                    38.314722222
                ]
            },
            "properties": {
                "name": "Gora Changly-Boshi",
                "article": null
            }
        },
        {
            "type": "Feature",
            "geometry": {
                "type": "Point",
                "coordinates": [
                    55.1475,
                    38.3166
                ]
            },
            "properties": {
                "name": "Gora Seyradzha",
                "article": null
            }
        },
        {
            "type": "Feature",
            "geometry": {
                "type": "Point",
                "coordinates": [
                    55.177222222,
                    38.643888888
                ]
            },
            "properties": {
                "name": "Gora Nerdzhik",
                "article": null
            }
        },
        {
            "type": "Feature",
            "geometry": {
                "type": "Point",
                "coordinates": [
                    65.8925,
                    37.7692
                ]
            },
            "properties": {
                "name": "Gora Ak-Manakuin",
                "article": null
            }
        },
        {
            "type": "Feature",
            "geometry": {
                "type": "Point",
                "coordinates": [
                    65.9,
                    37.816666666
                ]
            },
            "properties": {
                "name": "Gora Ak-Kanshar",
                "article": null
            }
        },
        {
            "type": "Feature",
            "geometry": {
                "type": "Point",
                "coordinates": [
                    65.8075,
                    37.7017
                ]
            },
            "properties": {
                "name": "Gora Ak-Dzhar",
                "article": null
            }
        },
        {
            "type": "Feature",
            "geometry": {
                "type": "Point",
                "coordinates": [
                    61.7121,
                    36.2504
                ]
            },
            "properties": {
                "name": "Gora Adzharli",
                "article": null
            }
        },
        {
            "type": "Feature",
            "geometry": {
                "type": "Point",
                "coordinates": [
                    63.7475,
                    38.86
                ]
            },
            "properties": {
                "name": "Gora Adzhanyn-Kyry",
                "article": null
            }
        },
        {
            "type": "Feature",
            "geometry": {
                "type": "Point",
                "coordinates": [
                    62.823,
                    36.149
                ]
            },
            "properties": {
                "name": "Gora Abdyn-Yal-Kry",
                "article": null
            }
        },
        {
            "type": "Feature",
            "geometry": {
                "type": "Point",
                "coordinates": [
                    61.386111111,
                    36.100555555
                ]
            },
            "properties": {
                "name": "Gora Karabet",
                "article": null
            }
        },
        {
            "type": "Feature",
            "geometry": {
                "type": "Point",
                "coordinates": [
                    66.447777777,
                    37.375833333
                ]
            },
            "properties": {
                "name": "Gora Dzharguzar",
                "article": null
            }
        },
        {
            "type": "Feature",
            "geometry": {
                "type": "Point",
                "coordinates": [
                    66.419722222,
                    37.37
                ]
            },
            "properties": {
                "name": "Gora Rangibalan",
                "article": null
            }
        },
        {
            "type": "Feature",
            "geometry": {
                "type": "Point",
                "coordinates": [
                    66.401944444,
                    37.413055555
                ]
            },
            "properties": {
                "name": "Gora Kulapashar",
                "article": null
            }
        },
        {
            "type": "Feature",
            "geometry": {
                "type": "Point",
                "coordinates": [
                    66.2905,
                    37.4174
                ]
            },
            "properties": {
                "name": "Gora Etimdag",
                "article": null
            }
        },
        {
            "type": "Feature",
            "geometry": {
                "type": "Point",
                "coordinates": [
                    66.339722222,
                    37.434722222
                ]
            },
            "properties": {
                "name": "Gora Okuzbulak",
                "article": null
            }
        },
        {
            "type": "Feature",
            "geometry": {
                "type": "Point",
                "coordinates": [
                    66.385,
                    37.480277777
                ]
            },
            "properties": {
                "name": "Gora Tyuyamuyun",
                "article": null
            }
        },
        {
            "type": "Feature",
            "geometry": {
                "type": "Point",
                "coordinates": [
                    66.5108,
                    37.3886
                ]
            },
            "properties": {
                "name": "Gora Karakamar",
                "article": null
            }
        },
        {
            "type": "Feature",
            "geometry": {
                "type": "Point",
                "coordinates": [
                    66.52361,
                    37.41167
                ]
            },
            "properties": {
                "name": "Gora Tabaktash",
                "article": null
            }
        },
        {
            "type": "Feature",
            "geometry": {
                "type": "Point",
                "coordinates": [
                    65.900833333,
                    37.818611111
                ]
            },
            "properties": {
                "name": "Gora Sardoba",
                "article": null
            }
        },
        {
            "type": "Feature",
            "geometry": {
                "type": "Point",
                "coordinates": [
                    65.788333333,
                    37.9575
                ]
            },
            "properties": {
                "name": "Gora Biil'",
                "article": null
            }
        },
        {
            "type": "Feature",
            "geometry": {
                "type": "Point",
                "coordinates": [
                    65.986111111,
                    37.930277777
                ]
            },
            "properties": {
                "name": "Gora Tulibay",
                "article": null
            }
        },
        {
            "type": "Feature",
            "geometry": {
                "type": "Point",
                "coordinates": [
                    62.2342,
                    35.4866
                ]
            },
            "properties": {
                "name": "Gora Chuvchanakhi",
                "article": null
            }
        },
        {
            "type": "Feature",
            "geometry": {
                "type": "Point",
                "coordinates": [
                    62.239722222,
                    35.441388888
                ]
            },
            "properties": {
                "name": "Gora Yushankli",
                "article": null
            }
        },
        {
            "type": "Feature",
            "geometry": {
                "type": "Point",
                "coordinates": [
                    62.146388888,
                    35.443888888
                ]
            },
            "properties": {
                "name": "Islim Dag",
                "article": null
            }
        },
        {
            "type": "Feature",
            "geometry": {
                "type": "Point",
                "coordinates": [
                    62.2987,
                    35.3286
                ]
            },
            "properties": {
                "name": "Gora Saygach'ya",
                "article": null
            }
        },
        {
            "type": "Feature",
            "geometry": {
                "type": "Point",
                "coordinates": [
                    62.356388888,
                    35.311666666
                ]
            },
            "properties": {
                "name": "Gora Dozornaya",
                "article": null
            }
        },
        {
            "type": "Feature",
            "geometry": {
                "type": "Point",
                "coordinates": [
                    62.333611111,
                    35.300277777
                ]
            },
            "properties": {
                "name": "Gora Storozhevaya",
                "article": null
            }
        },
        {
            "type": "Feature",
            "geometry": {
                "type": "Point",
                "coordinates": [
                    62.2836,
                    35.2861
                ]
            },
            "properties": {
                "name": "Gora Serakhskaya",
                "article": null
            }
        },
        {
            "type": "Feature",
            "geometry": {
                "type": "Point",
                "coordinates": [
                    62.324722222,
                    35.238055555
                ]
            },
            "properties": {
                "name": "Gora Khokhlatskaya",
                "article": null
            }
        },
        {
            "type": "Feature",
            "geometry": {
                "type": "Point",
                "coordinates": [
                    62.376111111,
                    35.223611111
                ]
            },
            "properties": {
                "name": "Gora Piramida",
                "article": null
            }
        },
        {
            "type": "Feature",
            "geometry": {
                "type": "Point",
                "coordinates": [
                    62.3951,
                    35.2503
                ]
            },
            "properties": {
                "name": "Gora Kamennaya",
                "article": null
            }
        },
        {
            "type": "Feature",
            "geometry": {
                "type": "Point",
                "coordinates": [
                    62.34667,
                    35.25278
                ]
            },
            "properties": {
                "name": "Mayachnal Gora",
                "article": null
            }
        },
        {
            "type": "Feature",
            "geometry": {
                "type": "Point",
                "coordinates": [
                    61.813611111,
                    40.867777777
                ]
            },
            "properties": {
                "name": "Gora Zhel'di",
                "article": null
            }
        },
        {
            "type": "Feature",
            "geometry": {
                "type": "Point",
                "coordinates": [
                    62.828055555,
                    35.950833333
                ]
            },
            "properties": {
                "name": "Bugor Koshdele",
                "article": null
            }
        },
        {
            "type": "Feature",
            "geometry": {
                "type": "Point",
                "coordinates": [
                    62.893333333,
                    35.938055555
                ]
            },
            "properties": {
                "name": "Bugor Derbent",
                "article": null
            }
        },
        {
            "type": "Feature",
            "geometry": {
                "type": "Point",
                "coordinates": [
                    63.776944444,
                    36.035277777
                ]
            },
            "properties": {
                "name": "Gora Toydushty",
                "article": null
            }
        },
        {
            "type": "Feature",
            "geometry": {
                "type": "Point",
                "coordinates": [
                    64.07661,
                    36.1068
                ]
            },
            "properties": {
                "name": "Kōh-e Shōr Gandah",
                "article": null
            }
        },
        {
            "type": "Feature",
            "geometry": {
                "type": "Point",
                "coordinates": [
                    64.237777777,
                    36.15
                ]
            },
            "properties": {
                "name": "Sopka Boyevykh Stolknoveniy",
                "article": null
            }
        },
        {
            "type": "Feature",
            "geometry": {
                "type": "Point",
                "coordinates": [
                    64.028333333,
                    36.192222222
                ]
            },
            "properties": {
                "name": "Gora Yarganchakly",
                "article": null
            }
        },
        {
            "type": "Feature",
            "geometry": {
                "type": "Point",
                "coordinates": [
                    64.156666666,
                    36.242777777
                ]
            },
            "properties": {
                "name": "Gora Karabulakshor",
                "article": null
            }
        },
        {
            "type": "Feature",
            "geometry": {
                "type": "Point",
                "coordinates": [
                    63.661944444,
                    36.044722222
                ]
            },
            "properties": {
                "name": "Bugor Tauženbek",
                "article": null
            }
        },
        {
            "type": "Feature",
            "geometry": {
                "type": "Point",
                "coordinates": [
                    63.527777777,
                    36.119444444
                ]
            },
            "properties": {
                "name": "Gora Karabil'",
                "article": null
            }
        },
        {
            "type": "Feature",
            "geometry": {
                "type": "Point",
                "coordinates": [
                    63.61,
                    36.227777777
                ]
            },
            "properties": {
                "name": "Bugor Daderanly",
                "article": null
            }
        },
        {
            "type": "Feature",
            "geometry": {
                "type": "Point",
                "coordinates": [
                    63.538611111,
                    36.303611111
                ]
            },
            "properties": {
                "name": "Bugor Uzyndepe",
                "article": null
            }
        },
        {
            "type": "Feature",
            "geometry": {
                "type": "Point",
                "coordinates": [
                    63.579166666,
                    36.3125
                ]
            },
            "properties": {
                "name": "Bugor Karadepe",
                "article": null
            }
        },
        {
            "type": "Feature",
            "geometry": {
                "type": "Point",
                "coordinates": [
                    63.657,
                    36.2728
                ]
            },
            "properties": {
                "name": "Bugor Yannydepe",
                "article": null
            }
        },
        {
            "type": "Feature",
            "geometry": {
                "type": "Point",
                "coordinates": [
                    63.982222222,
                    36.228333333
                ]
            },
            "properties": {
                "name": "Gora Karababa",
                "article": null
            }
        },
        {
            "type": "Feature",
            "geometry": {
                "type": "Point",
                "coordinates": [
                    63.766388888,
                    36.276388888
                ]
            },
            "properties": {
                "name": "Gora Lekker",
                "article": null
            }
        },
        {
            "type": "Feature",
            "geometry": {
                "type": "Point",
                "coordinates": [
                    62.609722222,
                    35.237222222
                ]
            },
            "properties": {
                "name": "Gora Ziyerati Chnagurak",
                "article": null
            }
        },
        {
            "type": "Feature",
            "geometry": {
                "type": "Point",
                "coordinates": [
                    62.399166666,
                    35.418055555
                ]
            },
            "properties": {
                "name": "Gora Karadepe",
                "article": null
            }
        },
        {
            "type": "Feature",
            "geometry": {
                "type": "Point",
                "coordinates": [
                    62.6339,
                    35.472
                ]
            },
            "properties": {
                "name": "Gora Krasnaya",
                "article": null
            }
        },
        {
            "type": "Feature",
            "geometry": {
                "type": "Point",
                "coordinates": [
                    62.598888888,
                    35.581111111
                ]
            },
            "properties": {
                "name": "Gora Aymaneyrazhan",
                "article": null
            }
        },
        {
            "type": "Feature",
            "geometry": {
                "type": "Point",
                "coordinates": [
                    62.048611111,
                    35.566666666
                ]
            },
            "properties": {
                "name": "Gora Shapka",
                "article": null
            }
        },
        {
            "type": "Feature",
            "geometry": {
                "type": "Point",
                "coordinates": [
                    62.338055555,
                    35.232222222
                ]
            },
            "properties": {
                "name": "Gora Turkmenskaya",
                "article": null
            }
        },
        {
            "type": "Feature",
            "geometry": {
                "type": "Point",
                "coordinates": [
                    62.361388888,
                    35.243611111
                ]
            },
            "properties": {
                "name": "Gora Afganskaya",
                "article": null
            }
        },
        {
            "type": "Feature",
            "geometry": {
                "type": "Point",
                "coordinates": [
                    62.299166666,
                    35.256388888
                ]
            },
            "properties": {
                "name": "Gora Karatepinskaya",
                "article": null
            }
        },
        {
            "type": "Feature",
            "geometry": {
                "type": "Point",
                "coordinates": [
                    62.309722222,
                    35.257222222
                ]
            },
            "properties": {
                "name": "Gora Krasnovodskaya",
                "article": null
            }
        },
        {
            "type": "Feature",
            "geometry": {
                "type": "Point",
                "coordinates": [
                    62.340833333,
                    35.261388888
                ]
            },
            "properties": {
                "name": "Gora Lagernaya",
                "article": null
            }
        },
        {
            "type": "Feature",
            "geometry": {
                "type": "Point",
                "coordinates": [
                    62.364722222,
                    35.258333333
                ]
            },
            "properties": {
                "name": "Gora Arabskaya",
                "article": null
            }
        },
        {
            "type": "Feature",
            "geometry": {
                "type": "Point",
                "coordinates": [
                    62.328611111,
                    35.2875
                ]
            },
            "properties": {
                "name": "Gora Inzhenernaya",
                "article": null
            }
        },
        {
            "type": "Feature",
            "geometry": {
                "type": "Point",
                "coordinates": [
                    62.311944444,
                    35.290555555
                ]
            },
            "properties": {
                "name": "Gora Ziaret",
                "article": null
            }
        },
        {
            "type": "Feature",
            "geometry": {
                "type": "Point",
                "coordinates": [
                    62.355833333,
                    35.300277777
                ]
            },
            "properties": {
                "name": "Gora Intendantskaya",
                "article": null
            }
        },
        {
            "type": "Feature",
            "geometry": {
                "type": "Point",
                "coordinates": [
                    62.384166666,
                    35.314722222
                ]
            },
            "properties": {
                "name": "Gora Pochtovaya",
                "article": null
            }
        },
        {
            "type": "Feature",
            "geometry": {
                "type": "Point",
                "coordinates": [
                    62.403333333,
                    35.7325
                ]
            },
            "properties": {
                "name": "Gora Mergenchagat",
                "article": null
            }
        },
        {
            "type": "Feature",
            "geometry": {
                "type": "Point",
                "coordinates": [
                    61.818333333,
                    35.680833333
                ]
            },
            "properties": {
                "name": "Gora Kazan",
                "article": null
            }
        },
        {
            "type": "Feature",
            "geometry": {
                "type": "Point",
                "coordinates": [
                    61.439444444,
                    35.611666666
                ]
            },
            "properties": {
                "name": "Gora Chakmakly-Changa",
                "article": null
            }
        },
        {
            "type": "Feature",
            "geometry": {
                "type": "Point",
                "coordinates": [
                    61.449444444,
                    35.526111111
                ]
            },
            "properties": {
                "name": "Gora Dengli-Dag",
                "article": null
            }
        },
        {
            "type": "Feature",
            "geometry": {
                "type": "Point",
                "coordinates": [
                    57.605,
                    37.933333333
                ]
            },
            "properties": {
                "name": "Kūh-e Khvājeh Gerefteh",
                "article": null
            }
        },
        {
            "type": "Feature",
            "geometry": {
                "type": "Point",
                "coordinates": [
                    60.232777777,
                    36.798611111
                ]
            },
            "properties": {
                "name": "Gora Dash",
                "article": null
            }
        },
        {
            "type": "Feature",
            "geometry": {
                "type": "Point",
                "coordinates": [
                    60.275555555,
                    36.835
                ]
            },
            "properties": {
                "name": "Zarmi",
                "article": null
            }
        },
        {
            "type": "Feature",
            "geometry": {
                "type": "Point",
                "coordinates": [
                    56.287222222,
                    38.272777777
                ]
            },
            "properties": {
                "name": "Gora Yekarcha",
                "article": null
            }
        },
        {
            "type": "Feature",
            "geometry": {
                "type": "Point",
                "coordinates": [
                    56.9016,
                    38.3522
                ]
            },
            "properties": {
                "name": "Gora Gazdepe",
                "article": null
            }
        },
        {
            "type": "Feature",
            "geometry": {
                "type": "Point",
                "coordinates": [
                    56.6097,
                    38.3451
                ]
            },
            "properties": {
                "name": "Gora Temeklidag",
                "article": null
            }
        },
        {
            "type": "Feature",
            "geometry": {
                "type": "Point",
                "coordinates": [
                    56.9525,
                    38.448333333
                ]
            },
            "properties": {
                "name": "Gora Allyam",
                "article": null
            }
        },
        {
            "type": "Feature",
            "geometry": {
                "type": "Point",
                "coordinates": [
                    56.9797,
                    38.4842
                ]
            },
            "properties": {
                "name": "Gora Uchkui",
                "article": null
            }
        },
        {
            "type": "Feature",
            "geometry": {
                "type": "Point",
                "coordinates": [
                    56.533333333,
                    38.438611111
                ]
            },
            "properties": {
                "name": "Gora Karadzhindag",
                "article": null
            }
        },
        {
            "type": "Feature",
            "geometry": {
                "type": "Point",
                "coordinates": [
                    56.458611111,
                    38.439722222
                ]
            },
            "properties": {
                "name": "Gora Koishauchan",
                "article": null
            }
        },
        {
            "type": "Feature",
            "geometry": {
                "type": "Point",
                "coordinates": [
                    56.494722222,
                    38.480277777
                ]
            },
            "properties": {
                "name": "Gora Kundalin",
                "article": null
            }
        },
        {
            "type": "Feature",
            "geometry": {
                "type": "Point",
                "coordinates": [
                    56.415,
                    38.486111111
                ]
            },