{
    "type": "FeatureCollection",
    "features": [
        {
            "type": "Feature",
            "geometry": {
                "type": "Point",
                "coordinates": [
                    23.3895,
                    48.8565
                ]
            },
            "properties": {
                "name": "Trostian",
                "article": "https://en.wikipedia.org/wiki/Trostian"
            }
        },
        {
            "type": "Feature",
            "geometry": {
                "type": "Point",
                "coordinates": [
                    23.392055555,
                    48.856666666
                ]
            },
            "properties": {
                "name": "Trostian",
                "article": "https://en.wikipedia.org/wiki/Trostian"
            }
        },
        {
            "type": "Feature",
            "geometry": {
                "type": "Point",
                "coordinates": [
                    24.231805555,
                    48.232333333
                ]
            },
            "properties": {
                "name": "Dragobrat",
                "article": "https://en.wikipedia.org/wiki/Dragobrat_(Mountain)"
            }
        },
        {
            "type": "Feature",
            "geometry": {
                "type": "Point",
                "coordinates": [
                    24.287666666,
                    48.340194444
                ]
            },
            "properties": {
                "name": "Q114205",
                "article": null
            }
        },
        {
            "type": "Feature",
            "geometry": {
                "type": "Point",
                "coordinates": [
                    24.5476,
                    48.3234
                ]
            },
            "properties": {
                "name": "Hora Mahura",
                "article": null
            }
        },
        {
            "type": "Feature",
            "geometry": {
                "type": "Point",
                "coordinates": [
                    30.487763888,
                    50.454875
                ]
            },
            "properties": {
                "name": "Dmytrivska Street",
                "article": null
            }
        },
        {
            "type": "Feature",
            "geometry": {
                "type": "Point",
                "coordinates": [
                    24.613888888,
                    48.352777777
                ]
            },
            "properties": {
                "name": "Lisno",
                "article": null
            }
        },
        {
            "type": "Feature",
            "geometry": {
                "type": "Point",
                "coordinates": [
                    22.876388888,
                    48.838055555
                ]
            },
            "properties": {
                "name": "Hostra Hora",
                "article": null
            }
        },
        {
            "type": "Feature",
            "geometry": {
                "type": "Point",
                "coordinates": [
                    22.87482,
                    48.83862
                ]
            },
            "properties": {
                "name": "Hostra Hora",
                "article": null
            }
        },
        {
            "type": "Feature",
            "geometry": {
                "type": "Point",
                "coordinates": [
                    22.876388888,
                    48.838888888
                ]
            },
            "properties": {
                "name": "Hostra Hora",
                "article": null
            }
        },
        {
            "type": "Feature",
            "geometry": {
                "type": "Point",
                "coordinates": [
                    25.307138888,
                    47.935166666
                ]
            },
            "properties": {
                "name": "Lunhul",
                "article": null
            }
        },
        {
            "type": "Feature",
            "geometry": {
                "type": "Point",
                "coordinates": [
                    24.110472222,
                    47.953027777
                ]
            },
            "properties": {
                "name": "Q114298",
                "article": null
            }
        },
        {
            "type": "Feature",
            "geometry": {
                "type": "Point",
                "coordinates": [
                    24.420444444,
                    48.447583333
                ]
            },
            "properties": {
                "name": "Hora Tovsta",
                "article": null
            }
        },
        {
            "type": "Feature",
            "geometry": {
                "type": "Point",
                "coordinates": [
                    32.5797,
                    52.1772
                ]
            },
            "properties": {
                "name": "Semenivka",
                "article": "https://en.wikipedia.org/wiki/Semenivka,_Chernihiv_Oblast"
            }
        },
        {
            "type": "Feature",
            "geometry": {
                "type": "Point",
                "coordinates": [
                    22.565444444,
                    49.088694444
                ]
            },
            "properties": {
                "name": "Kremenec",
                "article": null
            }
        },
        {
            "type": "Feature",
            "geometry": {
                "type": "Point",
                "coordinates": [
                    30.771111111,
                    50.4125
                ]
            },
            "properties": {
                "name": "Imeni Heorhiia Kirpy",
                "article": null
            }
        },
        {
            "type": "Feature",
            "geometry": {
                "type": "Point",
                "coordinates": [
                    30.204166666,
                    45.255
                ]
            },
            "properties": {
                "name": "Snake Island",
                "article": "https://en.wikipedia.org/wiki/Snake_Island_(Ukraine)"
            }
        },
        {
            "type": "Feature",
            "geometry": {
                "type": "Point",
                "coordinates": [
                    28.657777777,
                    50.254444444
                ]
            },
            "properties": {
                "name": "Zhytomyr",
                "article": "https://en.wikipedia.org/wiki/Zhytomyr"
            }
        },
        {
            "type": "Feature",
            "geometry": {
                "type": "Point",
                "coordinates": [
                    30.5164,
                    50.4536
                ]
            },
            "properties": {
                "name": "Battle of Kiev",
                "article": "https://en.wikipedia.org/wiki/Battle_of_Kiev_(1941)"
            }
        },
        {
            "type": "Feature",
            "geometry": {
                "type": "Point",
                "coordinates": [
                    30.498111111,
                    50.448638888
                ]
            },
            "properties": {
                "name": "Hoholivska Street",
                "article": null
            }
        },
        {
            "type": "Feature",
            "geometry": {
                "type": "Point",
                "coordinates": [
                    22.763222222,
                    48.846361111
                ]
            },
            "properties": {
                "name": "Hora Lautans'ka Holytsya",
                "article": null
            }
        },
        {
            "type": "Feature",
            "geometry": {
                "type": "Point",
                "coordinates": [
                    30.51158333,
                    50.45519444
                ]
            },
            "properties": {
                "name": "Olesia Honchara Street, Kyiv",
                "article": null
            }
        },
        {
            "type": "Feature",
            "geometry": {
                "type": "Point",
                "coordinates": [
                    22.814444444,
                    48.583333333
                ]
            },
            "properties": {
                "name": "Obavsky Stone",
                "article": null
            }
        },
        {
            "type": "Feature",
            "geometry": {
                "type": "Point",
                "coordinates": [
                    22.816388888,
                    48.583333333
                ]
            },
            "properties": {
                "name": "Obavsky Stone",
                "article": null
            }
        },
        {
            "type": "Feature",
            "geometry": {
                "type": "Point",
                "coordinates": [
                    23.768098611,
                    48.5340875
                ]
            },
            "properties": {
                "name": "Khrebet Yavirnyk",
                "article": null
            }
        },
        {
            "type": "Feature",
            "geometry": {
                "type": "Point",
                "coordinates": [
                    24.516666666,
                    48.401111111
                ]
            },
            "properties": {
                "name": "Khrebet Yavirnyk",
                "article": null
            }
        },
        {
            "type": "Feature",
            "geometry": {
                "type": "Point",
                "coordinates": [
                    30.501416666,
                    50.454277777
                ]
            },
            "properties": {
                "name": "Volodymyra Vynnychenka Street, Kyiv",
                "article": null
            }
        },
        {
            "type": "Feature",
            "geometry": {
                "type": "Point",
                "coordinates": [
                    22.80944444,
                    48.79916667
                ]
            },
            "properties": {
                "name": "Riwna",
                "article": null
            }
        },
        {
            "type": "Feature",
            "geometry": {
                "type": "Point",
                "coordinates": [
                    30.51025,
                    50.454388888
                ]
            },
            "properties": {
                "name": "Stritenska Street, Kyiv",
                "article": null
            }
        },
        {
            "type": "Feature",
            "geometry": {
                "type": "Point",
                "coordinates": [
                    36.4175,
                    45.2366
                ]
            },
            "properties": {
                "name": "Nymphaion",
                "article": "https://en.wikipedia.org/wiki/Nymphaion_(Crimea)"
            }
        },
        {
            "type": "Feature",
            "geometry": {
                "type": "Point",
                "coordinates": [
                    33.993611111,
                    44.403888888
                ]
            },
            "properties": {
                "name": "Mount Kosh-Kaya",
                "article": "https://en.wikipedia.org/wiki/Mount_Kosh-Kaya"
            }
        },
        {
            "type": "Feature",
            "geometry": {
                "type": "Point",
                "coordinates": [
                    30.49019444,
                    50.45638889
                ]
            },
            "properties": {
                "name": "Mykoly Pymonenka Street",
                "article": null
            }
        },
        {
            "type": "Feature",
            "geometry": {
                "type": "Point",
                "coordinates": [
                    34.482346384,
                    50.583054119
                ]
            },
            "properties": {
                "name": "Lebedyn",
                "article": "https://en.wikipedia.org/wiki/Lebedyn"
            }
        },
        {
            "type": "Feature",
            "geometry": {
                "type": "Point",
                "coordinates": [
                    31.2772,
                    49.4194
                ]
            },
            "properties": {
                "name": "Battle of the Korsun–Cherkassy Pocket",
                "article": "https://en.wikipedia.org/wiki/Battle_of_Korsun%E2%80%93Cherkassy"
            }
        },
        {
            "type": "Feature",
            "geometry": {
                "type": "Point",
                "coordinates": [
                    24.003570833,
                    49.812676388
                ]
            },
            "properties": {
                "name": "Kniahyni Olhy Street, Lviv",
                "article": null
            }
        },
        {
            "type": "Feature",
            "geometry": {
                "type": "Point",
                "coordinates": [
                    30.518783333,
                    50.404188888
                ]
            },
            "properties": {
                "name": "Vernadsky National Library of Ukraine",
                "article": "https://en.wikipedia.org/wiki/Vernadsky_National_Library_of_Ukraine"
            }
        },
        {
            "type": "Feature",
            "geometry": {
                "type": "Point",
                "coordinates": [
                    36.231299,
                    45.043418
                ]
            },
            "properties": {
                "name": "Kimmerikon",
                "article": "https://en.wikipedia.org/wiki/Kimmerikon"
            }
        },
        {
            "type": "Feature",
            "geometry": {
                "type": "Point",
                "coordinates": [
                    24.5,
                    48.160277777
                ]
            },
            "properties": {
                "name": "Hoverla",
                "article": "https://en.wikipedia.org/wiki/Hoverla"
            }
        },
        {
            "type": "Feature",
            "geometry": {
                "type": "Point",
                "coordinates": [
                    30.527208333,
                    50.448541666
                ]
            },
            "properties": {
                "name": "Hotel Ukraine",
                "article": "https://en.wikipedia.org/wiki/Hotel_Ukraine"
            }
        },
        {
            "type": "Feature",
            "geometry": {
                "type": "Point",
                "coordinates": [
                    33.492508,
                    44.611349
                ]
            },
            "properties": {
                "name": "Chersonesus",
                "article": "https://en.wikipedia.org/wiki/Chersonesus"
            }
        },
        {
            "type": "Feature",
            "geometry": {
                "type": "Point",
                "coordinates": [
                    30.5283,
                    50.4456
                ]
            },
            "properties": {
                "name": "Ivan Franko National Academic Drama Theater",
                "article": "https://en.wikipedia.org/wiki/Ivan_Franko_National_Academic_Drama_Theater"
            }
        },
        {
            "type": "Feature",
            "geometry": {
                "type": "Point",
                "coordinates": [
                    24.870083333,
                    47.759194444
                ]
            },
            "properties": {
                "name": "Palenica58",
                "article": null
            }
        },
        {
            "type": "Feature",
            "geometry": {
                "type": "Point",
                "coordinates": [
                    24.857555555,
                    47.766444444
                ]
            },
            "properties": {
                "name": "Komanova",
                "article": null
            }
        },
        {
            "type": "Feature",
            "geometry": {
                "type": "Point",
                "coordinates": [
                    24.881583333,
                    47.746194444
                ]
            },
            "properties": {
                "name": "Mount Hnatasya",
                "article": null
            }
        },
        {
            "type": "Feature",
            "geometry": {
                "type": "Point",
                "coordinates": [
                    24.5625,
                    48.135722222
                ]
            },
            "properties": {
                "name": "Homul",
                "article": null
            }
        },
        {
            "type": "Feature",
            "geometry": {
                "type": "Point",
                "coordinates": [
                    36.194583333,
                    50.041805555
                ]
            },
            "properties": {
                "name": "Kharkiv State University of Food Technology and Trade",
                "article": "https://en.wikipedia.org/wiki/Kharkiv_State_University_of_Food_Technology_and_Trade"
            }
        },
        {
            "type": "Feature",
            "geometry": {
                "type": "Point",
                "coordinates": [
                    24.822777777,
                    47.807138888
                ]
            },
            "properties": {
                "name": "Koman",
                "article": null
            }
        },
        {
            "type": "Feature",
            "geometry": {
                "type": "Point",
                "coordinates": [
                    24.897361111,
                    47.79925
                ]
            },
            "properties": {
                "name": "Priluchny",
                "article": null
            }
        },
        {
            "type": "Feature",
            "geometry": {
                "type": "Point",
                "coordinates": [
                    24.822777777,
                    47.807138888
                ]
            },
            "properties": {
                "name": "Purulia",
                "article": null
            }
        },
        {
            "type": "Feature",
            "geometry": {
                "type": "Point",
                "coordinates": [
                    30.59083333,
                    50.44694444
                ]
            },
            "properties": {
                "name": "Florentsii street, Kyiv",
                "article": null
            }
        },
        {
            "type": "Feature",
            "geometry": {
                "type": "Point",
                "coordinates": [
                    24.733222222,
                    47.935722222
                ]
            },
            "properties": {
                "name": "Pogrebin",
                "article": null
            }
        },
        {
            "type": "Feature",
            "geometry": {
                "type": "Point",
                "coordinates": [
                    24.8867528,
                    47.8299894
                ]
            },
            "properties": {
                "name": "Listuvata",
                "article": null
            }
        },
        {
            "type": "Feature",
            "geometry": {
                "type": "Point",
                "coordinates": [
                    24.848472222,
                    47.87125
                ]
            },
            "properties": {
                "name": "Pnive",
                "article": null
            }
        },
        {
            "type": "Feature",
            "geometry": {
                "type": "Point",
                "coordinates": [
                    24.568055555,
                    48.125555555
                ]
            },
            "properties": {
                "name": "Spitz",
                "article": null
            }
        },
        {
            "type": "Feature",
            "geometry": {
                "type": "Point",
                "coordinates": [
                    23.40547,
                    48.48788
                ]
            },
            "properties": {
                "name": "Kuk",
                "article": null
            }
        },
        {
            "type": "Feature",
            "geometry": {
                "type": "Point",
                "coordinates": [
                    24.557777777,
                    48.111111111
                ]
            },
            "properties": {
                "name": "Rebra",
                "article": "https://en.wikipedia.org/wiki/Rebra_(peak)"
            }
        },
        {
            "type": "Feature",
            "geometry": {
                "type": "Point",
                "coordinates": [
                    24.56,
                    48.111388888
                ]
            },
            "properties": {
                "name": "Rebra",
                "article": "https://en.wikipedia.org/wiki/Rebra_(peak)"
            }
        },
        {
            "type": "Feature",
            "geometry": {
                "type": "Point",
                "coordinates": [
                    35.705833333,
                    47.251388888
                ]
            },
            "properties": {
                "name": "Tokmak",
                "article": "https://en.wikipedia.org/wiki/Tokmak"
            }
        },
        {
            "type": "Feature",
            "geometry": {
                "type": "Point",
                "coordinates": [
                    31.795919444,
                    50.2377
                ]
            },
            "properties": {
                "name": "Yahotyn",
                "article": null
            }
        },
        {
            "type": "Feature",
            "geometry": {
                "type": "Point",
                "coordinates": [
                    23.994516666,
                    49.839802777
                ]
            },
            "properties": {
                "name": "Lviv railway station",
                "article": "https://en.wikipedia.org/wiki/Lviv_railway_station"
            }
        },
        {
            "type": "Feature",
            "geometry": {
                "type": "Point",
                "coordinates": [
                    33.517,
                    44.617
                ]
            },
            "properties": {
                "name": "Siege of Sevastopol",
                "article": "https://en.wikipedia.org/wiki/Siege_of_Sevastopol_(1854%E2%80%931855)"
            }
        },
        {
            "type": "Feature",
            "geometry": {
                "type": "Point",
                "coordinates": [
                    25.775386058,
                    49.664574286
                ]
            },
            "properties": {
                "name": "Siege of Zbarazh",
                "article": "https://en.wikipedia.org/wiki/Siege_of_Zbarazh"
            }
        },
        {
            "type": "Feature",
            "geometry": {
                "type": "Point",
                "coordinates": [
                    25.77777778,
                    49.66666667
                ]
            },
            "properties": {
                "name": "Siege of Zbarazh",
                "article": "https://en.wikipedia.org/wiki/Siege_of_Zbarazh"
            }
        },
        {
            "type": "Feature",
            "geometry": {
                "type": "Point",
                "coordinates": [
                    30.813055555,
                    50.514444444
                ]
            },
            "properties": {
                "name": "Brovary",
                "article": "https://en.wikipedia.org/wiki/Brovary_railway_station"
            }
        },
        {
            "type": "Feature",
            "geometry": {
                "type": "Point",
                "coordinates": [
                    24.723888888,
                    48.925
                ]
            },
            "properties": {
                "name": "Ivano-Frankivsk railway station",
                "article": "https://en.wikipedia.org/wiki/Ivano-Frankivsk_railway_station"
            }
        },
        {
            "type": "Feature",
            "geometry": {
                "type": "Point",
                "coordinates": [
                    36.46861111,
                    45.35083333
                ]
            },
            "properties": {
                "name": "Panticapaeum",
                "article": "https://en.wikipedia.org/wiki/Pantikapaion"
            }
        },
        {
            "type": "Feature",
            "geometry": {
                "type": "Point",
                "coordinates": [
                    35.1,
                    47.82
                ]
            },
            "properties": {
                "name": "Khortytsia",
                "article": "https://en.wikipedia.org/wiki/Khortytsia"
            }
        },
        {
            "type": "Feature",
            "geometry": {
                "type": "Point",
                "coordinates": [
                    35.469444444,
                    46.949722222
                ]
            },
            "properties": {
                "name": "Kamyana Mohyla",
                "article": "https://en.wikipedia.org/wiki/Kamyana_Mohyla"
            }
        },
        {
            "type": "Feature",
            "geometry": {
                "type": "Point",
                "coordinates": [
                    37.555,
                    47.085277777
                ]
            },
            "properties": {
                "name": "Mariupol railway station",
                "article": "https://en.wikipedia.org/wiki/Mariupol_railway_station"
            }
        },
        {
            "type": "Feature",
            "geometry": {
                "type": "Point",
                "coordinates": [
                    28.099166666,
                    49.0425
                ]
            },
            "properties": {
                "name": "Zhmerynka",
                "article": "https://en.wikipedia.org/wiki/Zhmerynka"
            }
        },
        {
            "type": "Feature",
            "geometry": {
                "type": "Point",
                "coordinates": [
                    30.5125,
                    50.445
                ]
            },
            "properties": {
                "name": "National Academy of Sciences of Ukraine",
                "article": "https://en.wikipedia.org/wiki/National_Academy_of_Sciences_of_Ukraine"
            }
        },
        {
            "type": "Feature",
            "geometry": {
                "type": "Point",
                "coordinates": [
                    30.53263889,
                    50.44213889
                ]
            },
            "properties": {
                "name": "Klov Palace",
                "article": "https://en.wikipedia.org/wiki/Klov_Palace"
            }
        },
        {
            "type": "Feature",
            "geometry": {
                "type": "Point",
                "coordinates": [
                    24.473472222,
                    47.9635
                ]
            },
            "properties": {
                "name": "Neniska Velyka",
                "article": null
            }
        },
        {
            "type": "Feature",
            "geometry": {
                "type": "Point",
                "coordinates": [
                    33.801388888,
                    44.593055555
                ]
            },
            "properties": {
                "name": "Mangup",
                "article": "https://en.wikipedia.org/wiki/Mangup"
            }
        },
        {
            "type": "Feature",
            "geometry": {
                "type": "Point",
                "coordinates": [
                    30.565277777,
                    46.3425
                ]
            },
            "properties": {
                "name": "Velykodolynske",
                "article": "https://en.wikipedia.org/wiki/Velykodolynske"
            }
        },
        {
            "type": "Feature",
            "geometry": {
                "type": "Point",
                "coordinates": [
                    33.765,
                    48.914166666
                ]
            },
            "properties": {
                "name": "Dereivka",
                "article": "https://en.wikipedia.org/wiki/Deriivka"
            }
        },
        {
            "type": "Feature",
            "geometry": {
                "type": "Point",
                "coordinates": [
                    30.521944444,
                    50.447222222
                ]
            },
            "properties": {
                "name": "Khreshchatyk",
                "article": "https://en.wikipedia.org/wiki/Khreshchatyk"
            }
        },
        {
            "type": "Feature",
            "geometry": {
                "type": "Point",
                "coordinates": [
                    30.502222222,
                    50.462416666
                ]
            },
            "properties": {
                "name": "Voznesenskyi Yar Street, Kyiv",
                "article": null
            }
        },
        {
            "type": "Feature",
            "geometry": {
                "type": "Point",
                "coordinates": [
                    30.49744445,
                    50.45627779
                ]
            },
            "properties": {
                "name": "Ivana Dracha Street, Kyiv",
                "article": null
            }
        },
        {
            "type": "Feature",
            "geometry": {
                "type": "Point",
                "coordinates": [
                    30.519722222,
                    50.464444444
                ]
            },
            "properties": {
                "name": "National University of Kyiv-Mohyla Academy",
                "article": "https://en.wikipedia.org/wiki/National_University_of_Kyiv-Mohyla_Academy"
            }
        },
        {
            "type": "Feature",
            "geometry": {
                "type": "Point",
                "coordinates": [
                    31.9,
                    46.7
                ]
            },
            "properties": {
                "name": "Olbia",
                "article": "https://en.wikipedia.org/wiki/Pontic_Olbia"
            }
        },
        {
            "type": "Feature",
            "geometry": {
                "type": "Point",
                "coordinates": [
                    23.683888888,
                    48.616666666
                ]
            },
            "properties": {
                "name": "Synevyr",
                "article": "https://en.wikipedia.org/wiki/Synevyr"
            }
        },
        {
            "type": "Feature",
            "geometry": {
                "type": "Point",
                "coordinates": [
                    23.838888888,
                    51.496944444
                ]
            },
            "properties": {
                "name": "Svitiaz",
                "article": "https://en.wikipedia.org/wiki/Svitiaz"
            }
        },
        {
            "type": "Feature",
            "geometry": {
                "type": "Point",
                "coordinates": [
                    36.55,
                    45.268333333
                ]
            },
            "properties": {
                "name": "Tuzla Island",
                "article": "https://en.wikipedia.org/wiki/Tuzla_Island"
            }
        },
        {
            "type": "Feature",
            "geometry": {
                "type": "Point",
                "coordinates": [
                    25.32138889,
                    50.74388889
                ]
            },
            "properties": {
                "name": "Lesya Ukrainka street",
                "article": "https://en.wikipedia.org/wiki/Lesya_Ukrainka_street,_Lutsk"
            }
        },
        {
            "type": "Feature",
            "geometry": {
                "type": "Point",
                "coordinates": [
                    24.421111111,
                    48.172777777
                ]
            },
            "properties": {
                "name": "Petros",
                "article": "https://en.wikipedia.org/wiki/Petros_(Chornohora)"
            }
        },
        {
            "type": "Feature",
            "geometry": {
                "type": "Point",
                "coordinates": [
                    24.421666666,
                    48.171666666
                ]
            },
            "properties": {
                "name": "Petros",
                "article": "https://en.wikipedia.org/wiki/Petros_(Chornohora)"
            }
        },
        {
            "type": "Feature",
            "geometry": {
                "type": "Point",
                "coordinates": [
                    34.63,
                    50.09
                ]
            },
            "properties": {
                "name": "Gelonus",
                "article": "https://en.wikipedia.org/wiki/Gelonus"
            }
        },
        {
            "type": "Feature",
            "geometry": {
                "type": "Point",
                "coordinates": [
                    30.524801,
                    50.44898
                ]
            },
            "properties": {
                "name": "Petro Tchaikovsky National Music Academy of Ukraine",
                "article": "https://en.wikipedia.org/wiki/Ukrainian_National_Tchaikovsky_Academy_of_Music"
            }
        },
        {
            "type": "Feature",
            "geometry": {
                "type": "Point",
                "coordinates": [
                    34.052777777,
                    44.451111111
                ]
            },
            "properties": {
                "name": "Ai-Petri",
                "article": "https://en.wikipedia.org/wiki/Ai-Petri"
            }
        },
        {
            "type": "Feature",
            "geometry": {
                "type": "Point",
                "coordinates": [
                    30.50897,
                    50.45574
                ]
            },
            "properties": {
                "name": "Embassy of Japan, Kyiv",
                "article": "https://en.wikipedia.org/wiki/Embassy_of_Japan,_Kyiv"
            }
        },
        {
            "type": "Feature",
            "geometry": {
                "type": "Point",
                "coordinates": [
                    30.372694444,
                    50.460916666
                ]
            },
            "properties": {
                "name": "Serpova Street, Kyiv",
                "article": null
            }
        },
        {
            "type": "Feature",
            "geometry": {
                "type": "Point",
                "coordinates": [
                    38.033889,
                    48.715278
                ]
            },
            "properties": {
                "name": "Sil Railway Station",
                "article": null
            }
        },
        {
            "type": "Feature",
            "geometry": {
                "type": "Point",
                "coordinates": [
                    30.371611111,
                    50.467138888
                ]
            },
            "properties": {
                "name": "Maksyma Zalizniaka Street, Kyiv",
                "article": null
            }
        },
        {
            "type": "Feature",
            "geometry": {
                "type": "Point",
                "coordinates": [
                    30.369388888,
                    50.467833333
                ]
            },
            "properties": {
                "name": "Omeliana Pritsaka Street, Kyiv",
                "article": null
            }
        },
        {
            "type": "Feature",
            "geometry": {
                "type": "Point",
                "coordinates": [
                    32.0503,
                    49.4261
                ]
            },
            "properties": {
                "name": "Cherkasy",
                "article": null
            }
        },
        {
            "type": "Feature",
            "geometry": {
                "type": "Point",
                "coordinates": [
                    38.93888889,
                    48.40361111
                ]
            },
            "properties": {
                "name": "Merheleva Ridge",
                "article": "https://en.wikipedia.org/wiki/Merheleva_Ridge"
            }
        },
        {
            "type": "Feature",
            "geometry": {
                "type": "Point",
                "coordinates": [
                    30.216667,
                    50.383333
                ]
            },
            "properties": {
                "name": "Battle on the Irpin River",
                "article": "https://en.wikipedia.org/wiki/Battle_on_the_Irpin_River"
            }
        },
        {
            "type": "Feature",
            "geometry": {
                "type": "Point",
                "coordinates": [
                    30.38666725,
                    50.46244431
                ]
            },
            "properties": {
                "name": "Vasylia Stepanchenka Street, Kyiv",
                "article": null
            }
        },
        {
            "type": "Feature",
            "geometry": {
                "type": "Point",
                "coordinates": [
                    30.373,
                    50.464527777
                ]
            },
            "properties": {
                "name": "Akademika Krymskoho Street, Kyiv",
                "article": null
            }
        },
        {
            "type": "Feature",
            "geometry": {
                "type": "Point",
                "coordinates": [
                    30.375972222,
                    50.459611111
                ]
            },
            "properties": {
                "name": "Silska Street, Kyiv",
                "article": null
            }
        },
        {
            "type": "Feature",
            "geometry": {
                "type": "Point",
                "coordinates": [
                    30.379111111,
                    50.463666666
                ]
            },
            "properties": {
                "name": "Ulytska Street, Kyiv",
                "article": null
            }
        },
        {
            "type": "Feature",
            "geometry": {
                "type": "Point",
                "coordinates": [
                    34.569722222,
                    48.183333333
                ]
            },
            "properties": {
                "name": "Ryasna",
                "article": null
            }
        },
        {
            "type": "Feature",
            "geometry": {
                "type": "Point",
                "coordinates": [
                    30.713055555,
                    46.664444444
                ]
            },
            "properties": {
                "name": "Kuyalnik Estuary",
                "article": "https://en.wikipedia.org/wiki/Kuialnyk_Estuary"
            }
        },
        {
            "type": "Feature",
            "geometry": {
                "type": "Point",
                "coordinates": [
                    37.746286111,
                    48.043855555
                ]
            },
            "properties": {
                "name": "Donetsk Railway Station",
                "article": "https://en.wikipedia.org/wiki/Donetsk_railway_station"
            }
        },
        {
            "type": "Feature",
            "geometry": {
                "type": "Point",
                "coordinates": [
                    24.0328,
                    49.84245
                ]
            },
            "properties": {
                "name": "Black House",
                "article": "https://en.wikipedia.org/wiki/Black_House,_Lviv"
            }
        },
        {
            "type": "Feature",
            "geometry": {
                "type": "Point",
                "coordinates": [
                    24.033,
                    49.84225
                ]
            },
            "properties": {
                "name": "Korniakt Palace",
                "article": "https://en.wikipedia.org/wiki/Korniakt_Palace"
            }
        },
        {
            "type": "Feature",
            "geometry": {
                "type": "Point",
                "coordinates": [
                    23.187777777,
                    48.62
                ]
            },
            "properties": {
                "name": "Stoj",
                "article": null
            }
        },
        {
            "type": "Feature",
            "geometry": {
                "type": "Point",
                "coordinates": [
                    23.19042,
                    48.62128
                ]
            },
            "properties": {
                "name": "Stoj",
                "article": null
            }
        },
        {
            "type": "Feature",
            "geometry": {
                "type": "Point",
                "coordinates": [
                    35.015,
                    48.477222222
                ]
            },
            "properties": {
                "name": "Dnipro railway station",
                "article": "https://en.wikipedia.org/wiki/Dnipro_railway_station"
            }
        },
        {
            "type": "Feature",
            "geometry": {
                "type": "Point",
                "coordinates": [
                    24.018013694,
                    49.842542194
                ]
            },
            "properties": {
                "name": "Horodotska Street, Lviv",
                "article": "https://en.wikipedia.org/wiki/Horodotska_Street"
            }
        },
        {
            "type": "Feature",
            "geometry": {
                "type": "Point",
                "coordinates": [
                    34.2886,
                    44.74
                ]
            },
            "properties": {
                "name": "Eklizi-Burun",
                "article": null
            }
        },
        {
            "type": "Feature",
            "geometry": {
                "type": "Point",
                "coordinates": [
                    36.227083333,
                    50.006666666
                ]
            },
            "properties": {
                "name": "Derzhprom",
                "article": "https://en.wikipedia.org/wiki/Derzhprom"
            }
        },
        {
            "type": "Feature",
            "geometry": {
                "type": "Point",
                "coordinates": [
                    30.734444444,
                    46.484444444
                ]
            },
            "properties": {
                "name": "Derybasivska Street",
                "article": "https://en.wikipedia.org/wiki/Derybasivska_Street"
            }
        },
        {
            "type": "Feature",
            "geometry": {
                "type": "Point",
                "coordinates": [
                    24.627222222,
                    48.046944444
                ]
            },
            "properties": {
                "name": "Chorna Hora (Pip Ivan)",
                "article": "https://en.wikipedia.org/wiki/Pip_Ivan_(Chornohora)"
            }
        },
        {
            "type": "Feature",
            "geometry": {
                "type": "Point",
                "coordinates": [
                    25.96666667,
                    48.35
                ]
            },
            "properties": {
                "name": "Sadhora",
                "article": "https://en.wikipedia.org/wiki/Sadhora"
            }
        },
        {
            "type": "Feature",
            "geometry": {
                "type": "Point",
                "coordinates": [
                    30.35055556,
                    46.20111111
                ]
            },
            "properties": {
                "name": "Tyras",
                "article": "https://en.wikipedia.org/wiki/Tyras"
            }
        },
        {
            "type": "Feature",
            "geometry": {
                "type": "Point",
                "coordinates": [
                    36.2043,
                    49.98956
                ]
            },
            "properties": {
                "name": "Kharkiv-Pasazhyrskyi railway station",
                "article": "https://en.wikipedia.org/wiki/Kharkiv_railway_station"
            }
        },
        {
            "type": "Feature",
            "geometry": {
                "type": "Point",
                "coordinates": [
                    34.121658,
                    44.428336
                ]
            },
            "properties": {
                "name": "Charax",
                "article": "https://en.wikipedia.org/wiki/Charax,_Crimea"
            }
        },
        {
            "type": "Feature",
            "geometry": {
                "type": "Point",
                "coordinates": [
                    25.631389,
                    49.72
                ]
            },
            "properties": {
                "name": "Dobrovody",
                "article": "https://en.wikipedia.org/wiki/Dobrovody"
            }
        },
        {
            "type": "Feature",
            "geometry": {
                "type": "Point",
                "coordinates": [
                    31.267222222,
                    51.485833333
                ]
            },
            "properties": {
                "name": "Chernihiv",
                "article": "https://en.wikipedia.org/wiki/Chernihiv_railway_station"
            }
        },
        {
            "type": "Feature",
            "geometry": {
                "type": "Point",
                "coordinates": [
                    34.082280555,
                    44.961580555
                ]
            },
            "properties": {
                "name": "Simferopol Passenger",
                "article": "https://en.wikipedia.org/wiki/Simferopol_railway_station"
            }
        },
        {
            "type": "Feature",
            "geometry": {
                "type": "Point",
                "coordinates": [
                    27.5771,
                    49.9141
                ]
            },
            "properties": {
                "name": "Battle of Lyubar",
                "article": "https://en.wikipedia.org/wiki/Battle_of_Lyubar"
            }
        },
        {
            "type": "Feature",
            "geometry": {
                "type": "Point",
                "coordinates": [
                    25.555555555,
                    50.905833333
                ]
            },
            "properties": {
                "name": "Przebraże Defence",
                "article": "https://en.wikipedia.org/wiki/Defense_of_Przebra%C5%BCe"
            }
        },
        {
            "type": "Feature",
            "geometry": {
                "type": "Point",
                "coordinates": [
                    30.5304889,
                    50.44724723
                ]
            },
            "properties": {
                "name": "Bankova Street",
                "article": "https://en.wikipedia.org/wiki/Bankova_Street"
            }
        },
        {
            "type": "Feature",
            "geometry": {
                "type": "Point",
                "coordinates": [
                    34.184444444,
                    44.578888888
                ]
            },
            "properties": {
                "name": "Kemal-Egerek",
                "article": null
            }
        },
        {
            "type": "Feature",
            "geometry": {
                "type": "Point",
                "coordinates": [
                    30.513512,
                    50.444758
                ]
            },
            "properties": {
                "name": "Pedagogical Museum",
                "article": null
            }
        },
        {
            "type": "Feature",
            "geometry": {
                "type": "Point",
                "coordinates": [
                    30.511258333,
                    50.441941666
                ]
            },
            "properties": {
                "name": "Red University Building",
                "article": "https://en.wikipedia.org/wiki/Red_University_Building"
            }
        },
        {
            "type": "Feature",
            "geometry": {
                "type": "Point",
                "coordinates": [
                    30.45472222,
                    46.17611111
                ]
            },
            "properties": {
                "name": "Niconium",
                "article": "https://en.wikipedia.org/wiki/Nik%C5%8Dnion"
            }
        },
        {
            "type": "Feature",
            "geometry": {
                "type": "Point",
                "coordinates": [
                    24.58,
                    48.0975
                ]
            },
            "properties": {
                "name": "Brebeneskul",
                "article": "https://en.wikipedia.org/wiki/Brebeneskul"
            }
        },
        {
            "type": "Feature",
            "geometry": {
                "type": "Point",
                "coordinates": [
                    34.242222222,
                    44.612777777
                ]
            },
            "properties": {
                "name": "Roman-Kosh",
                "article": "https://en.wikipedia.org/wiki/Roman-Kosh"
            }
        },
        {
            "type": "Feature",
            "geometry": {
                "type": "Point",
                "coordinates": [
                    30.644805555,
                    50.431416666
                ]
            },
            "properties": {
                "name": "Darnytsia railway station",
                "article": "https://en.wikipedia.org/wiki/Darnytsia_railway_station"
            }
        },
        {
            "type": "Feature",
            "geometry": {
                "type": "Point",
                "coordinates": [
                    30.347111111,
                    50.470611111
                ]
            },
            "properties": {
                "name": "Henerala Naumova Street, Kyiv",
                "article": null
            }
        },
        {
            "type": "Feature",
            "geometry": {
                "type": "Point",
                "coordinates": [
                    25.958055555,
                    48.023888888
                ]
            },
            "properties": {
                "name": "Vadul Siret",
                "article": "https://en.wikipedia.org/wiki/Vadul-Siret_railway_station"
            }
        },
        {
            "type": "Feature",
            "geometry": {
                "type": "Point",
                "coordinates": [
                    30.983333333,
                    49.65
                ]
            },
            "properties": {
                "name": "Myronivka",
                "article": "https://en.wikipedia.org/wiki/Myronivka"
            }
        },
        {
            "type": "Feature",
            "geometry": {
                "type": "Point",
                "coordinates": [
                    31.293966666,
                    51.487466666
                ]
            },
            "properties": {
                "name": "Black Grave",
                "article": "https://en.wikipedia.org/wiki/Black_Grave"
            }
        },
        {
            "type": "Feature",
            "geometry": {
                "type": "Point",
                "coordinates": [
                    28.616666666,
                    45.416666666
                ]
            },
            "properties": {
                "name": "Yalpug Lake",
                "article": "https://en.wikipedia.org/wiki/Lake_Yalpuh"
            }
        },
        {
            "type": "Feature",
            "geometry": {
                "type": "Point",
                "coordinates": [
                    24.562277777,
                    48.101666666
                ]
            },
            "properties": {
                "name": "Lake Brebeneskul",
                "article": "https://en.wikipedia.org/wiki/Lake_Brebeneskul"
            }
        },
        {
            "type": "Feature",
            "geometry": {
                "type": "Point",
                "coordinates": [
                    24.564972222,
                    47.969222222
                ]
            },
            "properties": {
                "name": "Hora Stih",
                "article": null
            }
        },
        {
            "type": "Feature",
            "geometry": {
                "type": "Point",
                "coordinates": [
                    36.522064,
                    45.352754
                ]
            },
            "properties": {
                "name": "Myrmekion",
                "article": "https://en.wikipedia.org/wiki/Myrm%C4%93kion"
            }
        },
        {
            "type": "Feature",
            "geometry": {
                "type": "Point",
                "coordinates": [
                    28.66666667,
                    45.3
                ]
            },
            "properties": {
                "name": "Kugurluy",
                "article": "https://en.wikipedia.org/wiki/Lake_Kuhurlui"
            }
        },
        {
            "type": "Feature",
            "geometry": {
                "type": "Point",
                "coordinates": [
                    35.2228,
                    44.9314
                ]
            },
            "properties": {
                "name": "Kara Dag Mountain",
                "article": "https://en.wikipedia.org/wiki/Kara_Dag_Mountain"
            }
        },
        {
            "type": "Feature",
            "geometry": {
                "type": "Point",
                "coordinates": [
                    35.2292,
                    44.9308
                ]
            },
            "properties": {
                "name": "Kara Dag Mountain",
                "article": "https://en.wikipedia.org/wiki/Kara_Dag_Mountain"
            }
        },
        {
            "type": "Feature",
            "geometry": {
                "type": "Point",
                "coordinates": [
                    34.3267832,
                    44.5607202
                ]
            },
            "properties": {
                "name": "Ayu-Dag",
                "article": "https://en.wikipedia.org/wiki/Ayu-Dag"
            }
        },
        {
            "type": "Feature",
            "geometry": {
                "type": "Point",
                "coordinates": [
                    30.5146645,
                    50.4607518
                ]
            },
            "properties": {
                "name": "Mikhail Bulgakov Museum",
                "article": "https://en.wikipedia.org/wiki/Mikhail_Bulgakov_Museum"
            }
        },
        {
            "type": "Feature",
            "geometry": {
                "type": "Point",
                "coordinates": [
                    30.52833333,
                    50.45333333
                ]
            },
            "properties": {
                "name": "National Philharmonic Society of Ukraine",
                "article": "https://en.wikipedia.org/wiki/National_Philharmonic_of_Ukraine"
            }
        },
        {
            "type": "Feature",
            "geometry": {
                "type": "Point",
                "coordinates": [
                    35.35004,
                    46.50163
                ]
            },
            "properties": {
                "name": "Molochnyi lyman",
                "article": "https://en.wikipedia.org/wiki/Molochnyi_Lyman"
            }
        },
        {
            "type": "Feature",
            "geometry": {
                "type": "Point",
                "coordinates": [
                    35.384444444,
                    45.030277777
                ]
            },
            "properties": {
                "name": "Feodosiya railway station",
                "article": null
            }
        },
        {
            "type": "Feature",
            "geometry": {
                "type": "Point",
                "coordinates": [
                    24.040073611,
                    49.841409722
                ]
            },
            "properties": {
                "name": "Tarasa Bobanycha Street, Lviv",
                "article": null
            }
        },
        {
            "type": "Feature",
            "geometry": {
                "type": "Point",
                "coordinates": [
                    34.12056,
                    44.94278
                ]
            },
            "properties": {
                "name": "Scythian Neapolis",
                "article": "https://en.wikipedia.org/wiki/Scythian_Neapolis"
            }
        },
        {
            "type": "Feature",
            "geometry": {
                "type": "Point",
                "coordinates": [
                    28.396777777,
                    45.371444444
                ]
            },
            "properties": {
                "name": "Lake Kahul",
                "article": null
            }
        },
        {
            "type": "Feature",
            "geometry": {
                "type": "Point",
                "coordinates": [
                    36.246465,
                    49.934886
                ]
            },
            "properties": {
                "name": "Q2651857",
                "article": null
            }
        },
        {
            "type": "Feature",
            "geometry": {
                "type": "Point",
                "coordinates": [
                    30.52694444,
                    50.45916667
                ]
            },
            "properties": {
                "name": "Kyiv River Station",
                "article": "https://en.wikipedia.org/wiki/Kyiv_River_Station"
            }
        },
        {
            "type": "Feature",
            "geometry": {
                "type": "Point",
                "coordinates": [
                    32.78,
                    46.03
                ]
            },
            "properties": {
                "name": "Dzharylhach",
                "article": "https://en.wikipedia.org/wiki/Dzharylhach"
            }
        },
        {
            "type": "Feature",
            "geometry": {
                "type": "Point",
                "coordinates": [
                    21.08408056,
                    52.50813611
                ]
            },
            "properties": {
                "name": "Battle of the River Bug",
                "article": "https://en.wikipedia.org/wiki/Battle_of_the_River_Bug"
            }
        },
        {
            "type": "Feature",
            "geometry": {
                "type": "Point",
                "coordinates": [
                    25.330555555,
                    50.746111111
                ]
            },
            "properties": {
                "name": "VNU Square in Lutsk",
                "article": null
            }
        },
        {
            "type": "Feature",
            "geometry": {
                "type": "Point",
                "coordinates": [
                    25.354444444,
                    50.741944444
                ]
            },
            "properties": {
                "name": "Kyiv Square in Lutsk",
                "article": null
            }
        },
        {
            "type": "Feature",
            "geometry": {
                "type": "Point",
                "coordinates": [
                    30.533722222,
                    50.447777777
                ]
            },
            "properties": {
                "name": "Budynok Uryadu",
                "article": "https://en.wikipedia.org/wiki/Government_Building,_Kyiv"
            }
        },
        {
            "type": "Feature",
            "geometry": {
                "type": "Point",
                "coordinates": [
                    24.88583333,
                    49.91888889
                ]
            },
            "properties": {
                "name": "Battle of Brody",
                "article": null
            }
        },
        {
            "type": "Feature",
            "geometry": {
                "type": "Point",
                "coordinates": [
                    37.184527777,
                    48.284444444
                ]
            },
            "properties": {
                "name": "Pokrovsk",
                "article": null
            }
        },
        {
            "type": "Feature",
            "geometry": {
                "type": "Point",
                "coordinates": [
                    27.6166667,
                    49.3833333
                ]
            },
            "properties": {
                "name": "Battle of Letychiv",
                "article": "https://en.wikipedia.org/wiki/Battle_of_Letychiv"
            }
        },
        {
            "type": "Feature",
            "geometry": {
                "type": "Point",
                "coordinates": [
                    30.50625,
                    50.45480556
                ]
            },
            "properties": {
                "name": "Lvivska Square",
                "article": null
            }
        },
        {
            "type": "Feature",
            "geometry": {
                "type": "Point",
                "coordinates": [
                    30.43227,
                    50.41268
                ]
            },
            "properties": {
                "name": "Kyiv-Volynskyi",
                "article": null
            }
        },
        {
            "type": "Feature",
            "geometry": {
                "type": "Point",
                "coordinates": [
                    30.50586128,
                    50.45436096
                ]
            },
            "properties": {
                "name": "Yaroslaviv Val Street",
                "article": null
            }
        },
        {
            "type": "Feature",
            "geometry": {
                "type": "Point",
                "coordinates": [
                    30.498805555,
                    50.484916666
                ]
            },
            "properties": {
                "name": "Pochaina",
                "article": null
            }
        },
        {
            "type": "Feature",
            "geometry": {
                "type": "Point",
                "coordinates": [
                    30.51717,
                    50.42634
                ]
            },
            "properties": {
                "name": "Velyka Vasylkivska Street",
                "article": null
            }
        },
        {
            "type": "Feature",
            "geometry": {
                "type": "Point",
                "coordinates": [
                    30.52072222,
                    50.44480556
                ]
            },
            "properties": {
                "name": "Bohdana Khmelnytskoho Street, Kyiv",
                "article": null
            }
        },
        {
            "type": "Feature",
            "geometry": {
                "type": "Point",
                "coordinates": [
                    30.54536057,
                    50.44372177
                ]
            },
            "properties": {
                "name": "Ivana Mazepy Street, Kyiv",
                "article": null
            }
        },
        {
            "type": "Feature",
            "geometry": {
                "type": "Point",
                "coordinates": [
                    24.0351,
                    49.8423
                ]
            },
            "properties": {
                "name": "Pidvalna Street, Lviv",
                "article": null
            }
        },
        {
            "type": "Feature",
            "geometry": {
                "type": "Point",
                "coordinates": [
                    31.9918,
                    46.9708
                ]
            },
            "properties": {
                "name": "Soborna Street, Mykolaiv",
                "article": null
            }
        },
        {
            "type": "Feature",
            "geometry": {
                "type": "Point",
                "coordinates": [
                    24.0338,
                    49.8418
                ]
            },
            "properties": {
                "name": "Ruska Street, Lviv",
                "article": null
            }
        },
        {
            "type": "Feature",
            "geometry": {
                "type": "Point",
                "coordinates": [
                    24.0113,
                    49.8347
                ]
            },
            "properties": {
                "name": "Bandery Street, Lviv",
                "article": "https://en.wikipedia.org/wiki/Stepan_Bandera_Street_(Lviv)"
            }
        },
        {
            "type": "Feature",
            "geometry": {
                "type": "Point",
                "coordinates": [
                    33.57057,
                    45.12322
                ]
            },
            "properties": {
                "name": "Sakske",
                "article": null
            }
        },
        {
            "type": "Feature",
            "geometry": {
                "type": "Point",
                "coordinates": [
                    24.70894444,
                    48.92316667
                ]
            },
            "properties": {
                "name": "Sheptytsky Square",
                "article": "https://en.wikipedia.org/wiki/Sheptytsky_Square"
            }
        },
        {
            "type": "Feature",
            "geometry": {
                "type": "Point",
                "coordinates": [
                    22.6706,
                    48.9251
                ]
            },
            "properties": {
                "name": "Hora Krasyva",
                "article": null
            }
        },
        {
            "type": "Feature",
            "geometry": {
                "type": "Point",
                "coordinates": [
                    22.713,
                    48.955
                ]
            },
            "properties": {
                "name": "Hora Krasyva",
                "article": null
            }
        },
        {
            "type": "Feature",
            "geometry": {
                "type": "Point",
                "coordinates": [
                    37.8092,
                    48.0103
                ]
            },
            "properties": {
                "name": "Central market in Donetsk",
                "article": null
            }
        },
        {
            "type": "Feature",
            "geometry": {
                "type": "Point",
                "coordinates": [
                    38.776916666,
                    48.483611111
                ]
            },
            "properties": {
                "name": "Komunarsk",
                "article": null
            }
        },
        {
            "type": "Feature",
            "geometry": {
                "type": "Point",
                "coordinates": [
                    36.23083333,
                    49.99444444
                ]
            },
            "properties": {
                "name": "Rymarska Street",
                "article": null
            }
        },
        {
            "type": "Feature",
            "geometry": {
                "type": "Point",
                "coordinates": [
                    30.514722222,
                    50.448888888
                ]
            },
            "properties": {
                "name": "Prorizna Street, Shevchenkivskyi District",
                "article": "https://en.wikipedia.org/wiki/Prorizna_Street"
            }
        },
        {
            "type": "Feature",
            "geometry": {
                "type": "Point",
                "coordinates": [
                    30.518561111,
                    50.448405555
                ]
            },
            "properties": {
                "name": "Prorizna Street, Shevchenkivskyi District",
                "article": "https://en.wikipedia.org/wiki/Prorizna_Street"
            }
        },
        {
            "type": "Feature",
            "geometry": {
                "type": "Point",
                "coordinates": [
                    30.51466667,
                    50.46547222
                ]
            },
            "properties": {
                "name": "Peter the Great house, Kyiv",
                "article": null
            }
        },
        {
            "type": "Feature",
            "geometry": {
                "type": "Point",
                "coordinates": [
                    30.531483333,
                    50.443183333
                ]
            },
            "properties": {
                "name": "Chocolate House, Kyiv",
                "article": null
            }
        },
        {
            "type": "Feature",
            "geometry": {
                "type": "Point",
                "coordinates": [
                    30.51602778,
                    50.46002778
                ]
            },
            "properties": {
                "name": "Castle of Richard the Lionheart, Kyiv",
                "article": null
            }
        },
        {
            "type": "Feature",
            "geometry": {
                "type": "Point",
                "coordinates": [
                    30.53,
                    50.446666666
                ]
            },
            "properties": {
                "name": "Liberman manor",
                "article": null
            }
        },
        {
            "type": "Feature",
            "geometry": {
                "type": "Point",
                "coordinates": [
                    30.519791666,
                    50.425430555
                ]
            },
            "properties": {
                "name": "Antonovycha Street",
                "article": null
            }
        },
        {
            "type": "Feature",
            "geometry": {
                "type": "Point",
                "coordinates": [
                    30.528055555,
                    50.451805555
                ]
            },
            "properties": {
                "name": "Hrushevskoho Street, Kyiv",
                "article": "https://en.wikipedia.org/wiki/Hrushevsky_Street_(Kyiv)"
            }
        },
        {
            "type": "Feature",
            "geometry": {
                "type": "Point",
                "coordinates": [
                    30.53122222,
                    50.44302778
                ]
            },
            "properties": {
                "name": "Hildenband Mansion",
                "article": null
            }
        },
        {
            "type": "Feature",
            "geometry": {
                "type": "Point",
                "coordinates": [
                    30.51452827,
                    50.44894409
                ]
            },
            "properties": {
                "name": "Volodymyrska Street, Kyiv",
                "article": "https://en.wikipedia.org/wiki/Volodymyrska_Street"
            }
        },
        {
            "type": "Feature",
            "geometry": {
                "type": "Point",
                "coordinates": [
                    23.2891667,
                    48.2941667
                ]
            },
            "properties": {
                "name": "Lypovetske Lake",
                "article": null
            }
        },
        {
            "type": "Feature",
            "geometry": {
                "type": "Point",
                "coordinates": [
                    36.298888888,
                    45.458888888
                ]
            },
            "properties": {
                "name": "Chokrakskoye Lake",
                "article": null
            }
        },
        {
            "type": "Feature",
            "geometry": {
                "type": "Point",
                "coordinates": [
                    22.49325,
                    48.675416666
                ]
            },
            "properties": {
                "name": "Antalovetska Polyana",
                "article": null
            }
        },
        {
            "type": "Feature",
            "geometry": {
                "type": "Point",
                "coordinates": [
                    30.517603,
                    50.465311
                ]
            },
            "properties": {
                "name": "Contracts House",
                "article": "https://en.wikipedia.org/wiki/Contracts_House"
            }
        },
        {
            "type": "Feature",
            "geometry": {
                "type": "Point",
                "coordinates": [
                    35.153,
                    47.8631
                ]
            },
            "properties": {
                "name": "Voznesenka archaeological complex",
                "article": null
            }
        },
        {
            "type": "Feature",
            "geometry": {
                "type": "Point",
                "coordinates": [
                    30.180968,
                    46.452399
                ]
            },
            "properties": {
                "name": "Lake Bile",
                "article": "https://en.wikipedia.org/wiki/Lake_Bile"
            }
        },
        {
            "type": "Feature",
            "geometry": {
                "type": "Point",
                "coordinates": [
                    24.019477,
                    49.87075
                ]
            },
            "properties": {
                "name": "Zamarstynivska Street",
                "article": null
            }
        },
        {
            "type": "Feature",
            "geometry": {
                "type": "Point",
                "coordinates": [
                    24.020007,
                    49.870506
                ]
            },
            "properties": {
                "name": "Zamarstynivska Street",
                "article": null
            }
        },
        {
            "type": "Feature",
            "geometry": {
                "type": "Point",
                "coordinates": [
                    34.207222222,
                    44.585
                ]
            },
            "properties": {
                "name": "Demir-Kapu",
                "article": "https://en.wikipedia.org/wiki/Demir-Kapu"
            }
        },
        {
            "type": "Feature",
            "geometry": {
                "type": "Point",
                "coordinates": [
                    34.21667,
                    44.58333
                ]
            },
            "properties": {
                "name": "Demir-Kapu",
                "article": "https://en.wikipedia.org/wiki/Demir-Kapu"
            }
        },
        {
            "type": "Feature",
            "geometry": {
                "type": "Point",
                "coordinates": [
                    34.338333333,
                    44.623333333
                ]
            },
            "properties": {
                "name": "Paragilmen mountain",
                "article": null
            }
        },
        {
            "type": "Feature",
            "geometry": {
                "type": "Point",
                "coordinates": [
                    33.930797,
                    44.715338
                ]
            },
            "properties": {
                "name": "Tepe-Kermen",
                "article": "https://en.wikipedia.org/wiki/Tepe-Kermen"
            }
        },
        {
            "type": "Feature",
            "geometry": {
                "type": "Point",
                "coordinates": [
                    33.930797,
                    44.715338
                ]
            },
            "properties": {
                "name": "Tepe-Kermen",
                "article": "https://en.wikipedia.org/wiki/Tepe-Kermen"
            }
        },
        {
            "type": "Feature",
            "geometry": {
                "type": "Point",
                "coordinates": [
                    34.003305555,
                    44.846277777
                ]
            },
            "properties": {
                "name": "1479 km",
                "article": null
            }
        },
        {
            "type": "Feature",
            "geometry": {
                "type": "Point",
                "coordinates": [
                    33.924861111,
                    44.824222222
                ]
            },
            "properties": {
                "name": "1486 km",
                "article": null
            }
        },
        {
            "type": "Feature",
            "geometry": {
                "type": "Point",
                "coordinates": [
                    33.805222222,
                    44.715611111
                ]
            },
            "properties": {
                "name": "1501 km",
                "article": null
            }
        },
        {
            "type": "Feature",
            "geometry": {
                "type": "Point",
                "coordinates": [
                    33.738333333,
                    44.675
                ]
            },
            "properties": {
                "name": "1509 km",
                "article": null
            }
        },
        {
            "type": "Feature",
            "geometry": {
                "type": "Point",
                "coordinates": [
                    37.8043,
                    47.996
                ]
            },
            "properties": {
                "name": "Artema 60",
                "article": null
            }
        },
        {
            "type": "Feature",
            "geometry": {
                "type": "Point",
                "coordinates": [
                    32.0048,
                    46.9726
                ]
            },
            "properties": {
                "name": "Admiralty, Mykolaiv",
                "article": null
            }
        },
        {
            "type": "Feature",
            "geometry": {
                "type": "Point",
                "coordinates": [
                    31.993663,
                    46.975352
                ]
            },
            "properties": {
                "name": "Admiralska Street, Mykolaiv",
                "article": null
            }
        },
        {
            "type": "Feature",
            "geometry": {
                "type": "Point",
                "coordinates": [
                    34.12777778,
                    44.455
                ]
            },
            "properties": {
                "name": "Ai-Nicola",
                "article": null
            }
        },
        {
            "type": "Feature",
            "geometry": {
                "type": "Point",
                "coordinates": [
                    35.391666666,
                    45.058888888
                ]
            },
            "properties": {
                "name": "Aivazovska railway station",
                "article": null
            }
        },
        {
            "type": "Feature",
            "geometry": {
                "type": "Point",
                "coordinates": [
                    34.049722222,
                    45.959166666
                ]
            },
            "properties": {
                "name": "Aygulskoye Lake",
                "article": null
            }
        },
        {
            "type": "Feature",
            "geometry": {
                "type": "Point",
                "coordinates": [
                    32.709944444,
                    45.513055555
                ]
            },
            "properties": {
                "name": "Ak-Mechetskoe",
                "article": null
            }
        },
        {
            "type": "Feature",
            "geometry": {
                "type": "Point",
                "coordinates": [
                    36.4267,
                    45.1331
                ]
            },
            "properties": {
                "name": "Akra, Crimea",
                "article": "https://en.wikipedia.org/wiki/Akra,_Crimea"
            }
        },
        {
            "type": "Feature",
            "geometry": {
                "type": "Point",
                "coordinates": [
                    35.828888888,
                    45.373611111
                ]
            },
            "properties": {
                "name": "Aqtas Lake",
                "article": "https://en.wikipedia.org/wiki/Aqtas_Lake"
            }
        },
        {
            "type": "Feature",
            "geometry": {
                "type": "Point",
                "coordinates": [
                    35.829166666,
                    45.375277777
                ]
            },
            "properties": {
                "name": "Aqtas Lake",
                "article": "https://en.wikipedia.org/wiki/Aqtas_Lake"
            }
        },
        {
            "type": "Feature",
            "geometry": {
                "type": "Point",
                "coordinates": [
                    30.522780555,
                    50.461815277
                ]
            },
            "properties": {
                "name": "Andriivska Street",
                "article": null
            }
        },
        {
            "type": "Feature",
            "geometry": {
                "type": "Point",
                "coordinates": [
                    30.665775,
                    50.444515277
                ]
            },
            "properties": {
                "name": "Almatynska Street",
                "article": null
            }
        },
        {
            "type": "Feature",
            "geometry": {
                "type": "Point",
                "coordinates": [
                    23.994444444,
                    48.18
                ]
            },
            "properties": {
                "name": "Hora Opets'ka",
                "article": null
            }
        },
        {
            "type": "Feature",
            "geometry": {
                "type": "Point",
                "coordinates": [
                    23.996527777,
                    48.181055555
                ]
            },
            "properties": {
                "name": "Hora Opets'ka",
                "article": null
            }
        },
        {
            "type": "Feature",
            "geometry": {
                "type": "Point",
                "coordinates": [
                    24.156983,
                    48.280865
                ]
            },
            "properties": {
                "name": "Apshynets Lake",
                "article": null
            }
        },
        {
            "type": "Feature",
            "geometry": {
                "type": "Point",
                "coordinates": [
                    35.478333333,
                    45.295833333
                ]
            },
            "properties": {
                "name": "Arabat Fortress",
                "article": "https://en.wikipedia.org/wiki/Arabat_Fortress"
            }
        },
        {
            "type": "Feature",
            "geometry": {
                "type": "Point",
                "coordinates": [
                    30.527819444,
                    50.381027777
                ]
            },
            "properties": {
                "name": "Armiiska Street",
                "article": null
            }
        },
        {
            "type": "Feature",
            "geometry": {
                "type": "Point",
                "coordinates": [
                    30.66638889,
                    50.40361111
                ]
            },
            "properties": {
                "name": "Virmenska Street",
                "article": null
            }
        },
        {
            "type": "Feature",
            "geometry": {
                "type": "Point",
                "coordinates": [
                    24.03,
                    49.843
                ]
            },
            "properties": {
                "name": "Q4069723",
                "article": null
            }
        },
        {
            "type": "Feature",
            "geometry": {
                "type": "Point",
                "coordinates": [
                    30.5383375,
                    50.430544444
                ]
            },
            "properties": {
                "name": "Arsenalna Street",
                "article": null
            }
        },
        {
            "type": "Feature",
            "geometry": {
                "type": "Point",
                "coordinates": [
                    37.999166666,
                    48.599722222
                ]
            },
            "properties": {
                "name": "Bakhmut 1st Railway Station",
                "article": null
            }
        },
        {
            "type": "Feature",
            "geometry": {
                "type": "Point",
                "coordinates": [
                    37.986527777,
                    48.59375
                ]
            },
            "properties": {
                "name": "Bakhmut railway station",
                "article": null
            }
        },
        {
            "type": "Feature",
            "geometry": {
                "type": "Point",
                "coordinates": [
                    24.78275,
                    47.926027777
                ]
            },
            "properties": {
                "name": "Q4074111",
                "article": null
            }
        },
        {
            "type": "Feature",
            "geometry": {
                "type": "Point",
                "coordinates": [
                    33.173611111,
                    45.7475
                ]
            },
            "properties": {
                "name": "Bakalskoe",
                "article": null
            }
        },
        {
            "type": "Feature",
            "geometry": {
                "type": "Point",
                "coordinates": [
                    34.004475,
                    44.810047
                ]
            },
            "properties": {
                "name": "Bakla",
                "article": null
            }
        },
        {
            "type": "Feature",
            "geometry": {
                "type": "Point",
                "coordinates": [
                    36.866694444,
                    49.465944444
                ]
            },
            "properties": {
                "name": "Balakliia",
                "article": null
            }
        },
        {
            "type": "Feature",
            "geometry": {
                "type": "Point",
                "coordinates": [
                    26.633333333,
                    48.904444444
                ]
            },
            "properties": {
                "name": "Balyn",
                "article": null
            }
        },
        {
            "type": "Feature",
            "geometry": {
                "type": "Point",
                "coordinates": [
                    35.195777777,
                    47.783222222
                ]
            },
            "properties": {
                "name": "Barykadna street",
                "article": null
            }
        },
        {
            "type": "Feature",
            "geometry": {
                "type": "Point",
                "coordinates": [
                    30.52229167,
                    50.441875
                ]
            },
            "properties": {
                "name": "Baseina Street",
                "article": null
            }
        },
        {
            "type": "Feature",
            "geometry": {
                "type": "Point",
                "coordinates": [
                    30.54852778,
                    50.41927778
                ]
            },
            "properties": {
                "name": "Bastionna Street",
                "article": null
            }
        },
        {
            "type": "Feature",
            "geometry": {
                "type": "Point",
                "coordinates": [
                    30.49480833,
                    50.42945
                ]
            },
            "properties": {
                "name": "Batyieva Hora",
                "article": "https://en.wikipedia.org/wiki/Batyieva_Hora"
            }
        },
        {
            "type": "Feature",
            "geometry": {
                "type": "Point",
                "coordinates": [
                    32.840193,
                    51.187843
                ]
            },
            "properties": {
                "name": "Bakhmach-Pasazhyrskyi",
                "article": null
            }
        },
        {
            "type": "Feature",
            "geometry": {
                "type": "Point",
                "coordinates": [
                    24.80175,
                    48.209666666
                ]
            },
            "properties": {
                "name": "Q4081618",
                "article": null
            }
        },
        {
            "type": "Feature",
            "geometry": {
                "type": "Point",
                "coordinates": [
                    34.621666666,
                    45.109444444
                ]
            },
            "properties": {
                "name": "Aq Qaya",
                "article": "https://en.wikipedia.org/wiki/Aq_Qaya"
            }
        },
        {
            "type": "Feature",
            "geometry": {
                "type": "Point",
                "coordinates": [
                    30.370222222,
                    50.459666666
                ]
            },
            "properties": {
                "name": "Bilychanska Street, Kyiv",
                "article": null
            }
        },
        {
            "type": "Feature",
            "geometry": {
                "type": "Point",
                "coordinates": [
                    38.25,
                    48.933333333
                ]
            },
            "properties": {
                "name": "Bilohorivka",
                "article": "https://en.wikipedia.org/wiki/Bilohorivka,_Luhansk_Oblast"
            }
        },
        {
            "type": "Feature",
            "geometry": {
                "type": "Point",
                "coordinates": [
                    25.96,
                    48.438888888
                ]
            },
            "properties": {
                "name": "Berda",
                "article": null
            }
        },
        {
            "type": "Feature",
            "geometry": {
                "type": "Point",
                "coordinates": [
                    35.377,
                    46.811944444
                ]
            },
            "properties": {
                "name": "Berdyanska Street",
                "article": null
            }
        },
        {
            "type": "Feature",
            "geometry": {
                "type": "Point",
                "coordinates": [
                    24.303833333,
                    47.963916666
                ]
            },
            "properties": {
                "name": "Berlebashka",
                "article": null
            }
        },
        {
            "type": "Feature",
            "geometry": {
                "type": "Point",
                "coordinates": [
                    24.068611111,
                    48.344444444
                ]
            },
            "properties": {
                "name": "Q4085021",
                "article": null
            }
        },
        {
            "type": "Feature",
            "geometry": {
                "type": "Point",
                "coordinates": [
                    23.9884,
                    48.4603
                ]
            },
            "properties": {
                "name": "Hora Bert",
                "article": "https://en.wikipedia.org/wiki/Bert_(mountain)"
            }
        },
        {
            "type": "Feature",
            "geometry": {
                "type": "Point",
                "coordinates": [
                    23.991083333,
                    48.46
                ]
            },
            "properties": {
                "name": "Hora Bert",
                "article": "https://en.wikipedia.org/wiki/Bert_(mountain)"
            }
        },
        {
            "type": "Feature",
            "geometry": {
                "type": "Point",
                "coordinates": [
                    30.496388888,
                    50.439166666
                ]
            },
            "properties": {
                "name": "101 Tower",
                "article": "https://en.wikipedia.org/wiki/101_Tower_(Kyiv)"
            }
        },
        {
            "type": "Feature",
            "geometry": {
                "type": "Point",
                "coordinates": [
                    33.25,
                    49.1
                ]
            },
            "properties": {
                "name": "Battle of Kurukovo Lake",
                "article": null
            }
        },
        {
            "type": "Feature",
            "geometry": {
                "type": "Point",
                "coordinates": [
                    26.484833,
                    48.551861
                ]
            },
            "properties": {
                "name": "Battle of Zhvanets",
                "article": "https://en.wikipedia.org/wiki/Siege_of_Zhvanets"
            }
        },
        {
            "type": "Feature",
            "geometry": {
                "type": "Point",
                "coordinates": [
                    24.435556,
                    49.888889
                ]
            },
            "properties": {
                "name": "Battle of Zadwórze",
                "article": "https://en.wikipedia.org/wiki/Battle_of_Zadw%C3%B3rze"
            }
        },
        {
            "type": "Feature",
            "geometry": {
                "type": "Point",
                "coordinates": [
                    33.95139,
                    44.41861
                ]
            },
            "properties": {
                "name": "Q4087678",
                "article": null
            }
        },
        {
            "type": "Feature",
            "geometry": {
                "type": "Point",
                "coordinates": [
                    24.23047,
                    48.22269
                ]
            },
            "properties": {
                "name": "Blyznytsya",
                "article": null
            }
        },
        {
            "type": "Feature",
            "geometry": {
                "type": "Point",
                "coordinates": [
                    24.232777777,
                    48.2225
                ]
            },
            "properties": {
                "name": "Blyznytsya",
                "article": null
            }
        },
        {
            "type": "Feature",
            "geometry": {
                "type": "Point",
                "coordinates": [
                    29.97083333,
                    46.66388889
                ]
            },
            "properties": {
                "name": "Battle of Kandel",
                "article": null
            }
        },
        {
            "type": "Feature",
            "geometry": {
                "type": "Point",
                "coordinates": [
                    30.51980591,
                    50.45524979
                ]
            },
            "properties": {
                "name": "Velyka Zhytomyrska Street",
                "article": null
            }
        },
        {
            "type": "Feature",
            "geometry": {
                "type": "Point",
                "coordinates": [
                    24.068,
                    48.271111111
                ]
            },
            "properties": {
                "name": "Q4091438",
                "article": null
            }
        },
        {
            "type": "Feature",
            "geometry": {
                "type": "Point",
                "coordinates": [
                    32.267071,
                    48.510073
                ]
            },
            "properties": {
                "name": "Velyka Perspectyvna Street",
                "article": null
            }
        },
        {
            "type": "Feature",
            "geometry": {
                "type": "Point",
                "coordinates": [
                    32.520388888,
                    45.368911111
                ]
            },
            "properties": {
                "name": "Q4092665",
                "article": null
            }
        },
        {
            "type": "Feature",
            "geometry": {
                "type": "Point",
                "coordinates": [
                    24.105611111,
                    48.564
                ]
            },
            "properties": {
                "name": "Q4093540",
                "article": null
            }
        },
        {
            "type": "Feature",
            "geometry": {
                "type": "Point",
                "coordinates": [
                    30.52016667,
                    50.46213889
                ]
            },
            "properties": {
                "name": "Borysohlibska Street, Kyiv",
                "article": null
            }
        },
        {
            "type": "Feature",
            "geometry": {
                "type": "Point",
                "coordinates": [
                    30.402388888,
                    50.434027777
                ]
            },
            "properties": {
                "name": "Borshchahivka",
                "article": null
            }
        },
        {
            "type": "Feature",
            "geometry": {
                "type": "Point",
                "coordinates": [
                    24.179222222,
                    48.529388888
                ]
            },
            "properties": {
                "name": "Bojaryn",
                "article": null
            }
        },